[
    {
        "locId": "L7381047",
        "locName": "100th St. Woodlot & Pond",
        "countryCode": "US",
        "subnational1Code": "US-AK",
        "subnational2Code": "US-AK-020",
        "lat": 61.1306529,
        "lng": -149.888505,
        "latestObsDt": "2023-07-26 10:29",
        "numSpeciesAllTime": 54
    },
    {
        "locId": "L292431",
        "locName": "162nd Ave. & Golden View Dr.",
        "countryCode": "US",
        "subnational1Code": "US-AK",
        "subnational2Code": "US-AK-020",
        "lat": 61.0743969,
        "lng": -149.7745299,
        "latestObsDt": "2023-10-06 12:55",
        "numSpeciesAllTime": 48
    },
    {
        "locId": "L9587815",
        "locName": "Aant'iyeik Park",
        "countryCode": "US",
        "subnational1Code": "US-AK",
        "subnational2Code": "US-AK-110",
        "lat": 58.3826542,
        "lng": -134.7355943,
        "latestObsDt": "2023-06-26 16:44",
        "numSpeciesAllTime": 13
    },
    {
        "locId": "L9141390",
        "locName": "Abbott Loop Community Park",
        "countryCode": "US",
        "subnational1Code": "US-AK",
        "subnational2Code": "US-AK-020",
        "lat": 61.1483486,
        "lng": -149.8005495,
        "latestObsDt": "2024-02-19 14:30",
        "numSpeciesAllTime": 33
    },
    {
        "locId": "L268250",
        "locName": "Adak Island",
        "countryCode": "US",
        "subnational1Code": "US-AK",
        "subnational2Code": "US-AK-016",
        "lat": 51.8941856,
        "lng": -176.6443634,
        "latestObsDt": "2023-11-07 10:00",
        "numSpeciesAllTime": 205
    },
    {
        "locId": "L1173995",
        "locName": "Adak Island--Adak National Forest",
        "countryCode": "US",
        "subnational1Code": "US-AK",
        "subnational2Code": "US-AK-016",
        "lat": 51.9032173,
        "lng": -176.6219348,
        "latestObsDt": "2023-05-13 08:36",
        "numSpeciesAllTime": 22
    },
    {
        "locId": "L1314081",
        "locName": "Adak Island--Airport Creek mouth",
        "countryCode": "US",
        "subnational1Code": "US-AK",
        "subnational2Code": "US-AK-016",
        "lat": 51.8910736,
        "lng": -176.624735,
        "latestObsDt": "2023-06-10 19:50",
        "numSpeciesAllTime": 72
    },
    {
        "locId": "L16017133",
        "locName": "Adak Island--Candlestick Bridge",
        "countryCode": "US",
        "subnational1Code": "US-AK",
        "subnational2Code": "US-AK-016",
        "lat": 51.9156291,
        "lng": -176.5706144,
        "latestObsDt": "2023-06-10 19:49",
        "numSpeciesAllTime": 38
    },
    {
        "locId": "L911846",
        "locName": "Adak Island--Clam Lagoon",
        "countryCode": "US",
        "subnational1Code": "US-AK",
        "subnational2Code": "US-AK-016",
        "lat": 51.9333115,
        "lng": -176.5749264,
        "latestObsDt": "2023-05-15 11:10",
        "numSpeciesAllTime": 133
    },
    {
        "locId": "L783618",
        "locName": "Adak Island--Clam Lagoon (mud flats)",
        "countryCode": "US",
        "subnational1Code": "US-AK",
        "subnational2Code": "US-AK-016",
        "lat": 51.9225142,
        "lng": -176.5812778,
        "latestObsDt": "2022-12-02 10:00",
        "numSpeciesAllTime": 87
    },
    {
        "locId": "L906007",
        "locName": "Adak Island--Clam Lagoon (seawall)",
        "countryCode": "US",
        "subnational1Code": "US-AK",
        "subnational2Code": "US-AK-016",
        "lat": 51.9354812,
        "lng": -176.5587902,
        "latestObsDt": "2023-06-10 19:50",
        "numSpeciesAllTime": 90
    },
    {
        "locId": "L1314128",
        "locName": "Adak Island--Contractor Camp Marsh",
        "countryCode": "US",
        "subnational1Code": "US-AK",
        "subnational2Code": "US-AK-016",
        "lat": 51.8956157,
        "lng": -176.6355228,
        "latestObsDt": "2023-05-13 08:54",
        "numSpeciesAllTime": 52
    },
    {
        "locId": "L7591706",
        "locName": "Adak Island--Finger Bay",
        "countryCode": "US",
        "subnational1Code": "US-AK",
        "subnational2Code": "US-AK-016",
        "lat": 51.8328872,
        "lng": -176.6219963,
        "latestObsDt": "2023-06-13 19:54",
        "numSpeciesAllTime": 52
    },
    {
        "locId": "L16017003",
        "locName": "Adak Island--Haven Lake",
        "countryCode": "US",
        "subnational1Code": "US-AK",
        "subnational2Code": "US-AK-016",
        "lat": 51.9107268,
        "lng": -176.6454323,
        "latestObsDt": "2022-05-24 10:16",
        "numSpeciesAllTime": 10
    },
    {
        "locId": "L1171691",
        "locName": "Adak Island--Kuluk Bay",
        "countryCode": "US",
        "subnational1Code": "US-AK",
        "subnational2Code": "US-AK-016",
        "lat": 51.885604,
        "lng": -176.5914917,
        "latestObsDt": "2023-06-14 20:01",
        "numSpeciesAllTime": 72
    },
    {
        "locId": "L3969398",
        "locName": "Adak Island--Lake Andrew",
        "countryCode": "US",
        "subnational1Code": "US-AK",
        "subnational2Code": "US-AK-016",
        "lat": 51.9453759,
        "lng": -176.6313171,
        "latestObsDt": "2023-05-14 08:00",
        "numSpeciesAllTime": 56
    },
    {
        "locId": "L748988",
        "locName": "Adak Island--Palisades Lake",
        "countryCode": "US",
        "subnational1Code": "US-AK",
        "subnational2Code": "US-AK-016",
        "lat": 51.9108672,
        "lng": -176.6009331,
        "latestObsDt": "2023-05-13 09:00",
        "numSpeciesAllTime": 29
    },
    {
        "locId": "L1171694",
        "locName": "Adak Island--Palisades Overlook",
        "countryCode": "US",
        "subnational1Code": "US-AK",
        "subnational2Code": "US-AK-016",
        "lat": 51.9102319,
        "lng": -176.5907192,
        "latestObsDt": "2023-05-13 09:05",
        "numSpeciesAllTime": 66
    },
    {
        "locId": "L15986791",
        "locName": "Adak Island--Shagak Bay",
        "countryCode": "US",
        "subnational1Code": "US-AK",
        "subnational2Code": "US-AK-016",
        "lat": 51.8676689,
        "lng": -176.7457295,
        "latestObsDt": "2022-05-26 07:51",
        "numSpeciesAllTime": 39
    },
    {
        "locId": "L1171697",
        "locName": "Adak Island--Smew Ponds",
        "countryCode": "US",
        "subnational1Code": "US-AK",
        "subnational2Code": "US-AK-016",
        "lat": 51.8844319,
        "lng": -176.6476464,
        "latestObsDt": "2022-05-30 17:45",
        "numSpeciesAllTime": 35
    },
    {
        "locId": "L1171700",
        "locName": "Adak Island--South Sweeper Creek",
        "countryCode": "US",
        "subnational1Code": "US-AK",
        "subnational2Code": "US-AK-016",
        "lat": 51.859664,
        "lng": -176.6545773,
        "latestObsDt": "2023-07-22 20:24",
        "numSpeciesAllTime": 46
    },
    {
        "locId": "L916131",
        "locName": "Adak Island--Sweeper Cove",
        "countryCode": "US",
        "subnational1Code": "US-AK",
        "subnational2Code": "US-AK-016",
        "lat": 51.856034,
        "lng": -176.6471091,
        "latestObsDt": "2023-07-22 19:50",
        "numSpeciesAllTime": 81
    },
    {
        "locId": "L1173859",
        "locName": "Adak Island--USCG LORAN Station",
        "countryCode": "US",
        "subnational1Code": "US-AK",
        "subnational2Code": "US-AK-016",
        "lat": 51.9909587,
        "lng": -176.613121,
        "latestObsDt": "2023-08-11 10:40",
        "numSpeciesAllTime": 65
    },
    {
        "locId": "L905998",
        "locName": "Adak Island--small boat harbor",
        "countryCode": "US",
        "subnational1Code": "US-AK",
        "subnational2Code": "US-AK-016",
        "lat": 51.850042,
        "lng": -176.6549635,
        "latestObsDt": "2023-06-13 19:55",
        "numSpeciesAllTime": 32
    },
    {
        "locId": "L5070595",
        "locName": "Admiralty Island--Barlow Point",
        "countryCode": "US",
        "subnational1Code": "US-AK",
        "subnational2Code": "US-AK-105",
        "lat": 58.3798392,
        "lng": -134.8958788,
        "latestObsDt": "2023-08-03 18:38",
        "numSpeciesAllTime": 9
    },
    {
        "locId": "L13388446",
        "locName": "Afognak Is.--Afognak Bay",
        "countryCode": "US",
        "subnational1Code": "US-AK",
        "subnational2Code": "US-AK-150",
        "lat": 58.0404398,
        "lng": -152.7180705,
        "latestObsDt": "2021-06-28 07:55",
        "numSpeciesAllTime": 19
    },
    {
        "locId": "L13166944",
        "locName": "Afognak Is.--Kitoi Bay",
        "countryCode": "US",
        "subnational1Code": "US-AK",
        "subnational2Code": "US-AK-150",
        "lat": 58.1924945,
        "lng": -152.3508349,
        "latestObsDt": "2023-05-29 09:02",
        "numSpeciesAllTime": 28
    },
    {
        "locId": "L18017560",
        "locName": "Akiachak (town)",
        "countryCode": "US",
        "subnational1Code": "US-AK",
        "subnational2Code": "US-AK-050",
        "lat": 60.9103629,
        "lng": -161.4406137,
        "latestObsDt": "2022-08-21 11:32",
        "numSpeciesAllTime": 23
    },
    {
        "locId": "L18017135",
        "locName": "Akiak (town)",
        "countryCode": "US",
        "subnational1Code": "US-AK",
        "subnational2Code": "US-AK-050",
        "lat": 60.9091193,
        "lng": -161.2207264,
        "latestObsDt": "2023-10-02 10:53",
        "numSpeciesAllTime": 25
    },
    {
        "locId": "L1282481",
        "locName": "Akutan (town)",
        "countryCode": "US",
        "subnational1Code": "US-AK",
        "subnational2Code": "US-AK-013",
        "lat": 54.1335007,
        "lng": -165.7756782,
        "latestObsDt": "2023-07-14 19:50",
        "numSpeciesAllTime": 40
    },
    {
        "locId": "L1282480",
        "locName": "Akutan Bay",
        "countryCode": "US",
        "subnational1Code": "US-AK",
        "subnational2Code": "US-AK-013",
        "lat": 54.2154671,
        "lng": -165.7308197,
        "latestObsDt": "2022-02-27 09:46",
        "numSpeciesAllTime": 42
    },
    {
        "locId": "L9629125",
        "locName": "Akutan Island--NW Coast",
        "countryCode": "US",
        "subnational1Code": "US-AK",
        "subnational2Code": "US-AK-013",
        "lat": 54.1996455,
        "lng": -166.0154244,
        "latestObsDt": "2022-05-20 09:16",
        "numSpeciesAllTime": 15
    },
    {
        "locId": "L1281984",
        "locName": "Akutan Pass",
        "countryCode": "US",
        "subnational1Code": "US-AK",
        "subnational2Code": "US-AK-013",
        "lat": 54.0440701,
        "lng": -166.2341309,
        "latestObsDt": "2023-09-12 19:30",
        "numSpeciesAllTime": 44
    },
    {
        "locId": "L15456695",
        "locName": "Alakanuk (town)",
        "countryCode": "US",
        "subnational1Code": "US-AK",
        "subnational2Code": "US-AK-270",
        "lat": 62.6872917,
        "lng": -164.667642,
        "latestObsDt": "2023-09-10 00:41",
        "numSpeciesAllTime": 38
    },
    {
        "locId": "L1552347",
        "locName": "Alascom Rd.",
        "countryCode": "US",
        "subnational1Code": "US-AK",
        "subnational2Code": "US-AK-170",
        "lat": 61.8459626,
        "lng": -147.3479036,
        "latestObsDt": "2023-07-25 18:11",
        "numSpeciesAllTime": 100
    },
    {
        "locId": "L128541",
        "locName": "Alaska Bird Observatory (now closed)",
        "countryCode": "US",
        "subnational1Code": "US-AK",
        "subnational2Code": "US-AK-090",
        "lat": 64.8631602,
        "lng": -147.7179515,
        "latestObsDt": "2023-09-07 17:44",
        "numSpeciesAllTime": 74
    },
    {
        "locId": "L1171703",
        "locName": "Alaska Botanical Garden",
        "countryCode": "US",
        "subnational1Code": "US-AK",
        "subnational2Code": "US-AK-020",
        "lat": 61.1775569,
        "lng": -149.7591019,
        "latestObsDt": "2024-01-19 15:18",
        "numSpeciesAllTime": 63
    },
    {
        "locId": "L4156620",
        "locName": "Alaska Heavenly Lodge",
        "countryCode": "US",
        "subnational1Code": "US-AK",
        "subnational2Code": "US-AK-122",
        "lat": 60.4866383,
        "lng": -149.8396121,
        "latestObsDt": "2022-07-30 09:51",
        "numSpeciesAllTime": 31
    },
    {
        "locId": "L6319777",
        "locName": "Alaska Hwy.--Tanana River",
        "countryCode": "US",
        "subnational1Code": "US-AK",
        "subnational2Code": "US-AK-240",
        "lat": 63.3170185,
        "lng": -142.6469822,
        "latestObsDt": "2023-08-29 06:26",
        "numSpeciesAllTime": 26
    },
    {
        "locId": "L6319813",
        "locName": "Alaska Hwy.--Willow Lake area",
        "countryCode": "US",
        "subnational1Code": "US-AK",
        "subnational2Code": "US-AK-240",
        "lat": 63.2406861,
        "lng": -142.3801721,
        "latestObsDt": "2022-06-16 17:17",
        "numSpeciesAllTime": 6
    },
    {
        "locId": "L15673631",
        "locName": "Alaska Hwy.--gravel pits (MP 1327.5)",
        "countryCode": "US",
        "subnational1Code": "US-AK",
        "subnational2Code": "US-AK-240",
        "lat": 63.3632527,
        "lng": -143.4093271,
        "latestObsDt": "2023-08-29 07:45",
        "numSpeciesAllTime": 23
    },
    {
        "locId": "L6182980",
        "locName": "Alaska Maritime NWR--Aghiyuk Island",
        "countryCode": "US",
        "subnational1Code": "US-AK",
        "subnational2Code": "US-AK-150",
        "lat": 56.1929527,
        "lng": -156.7708683,
        "latestObsDt": "2019-07-28 08:32",
        "numSpeciesAllTime": 51
    },
    {
        "locId": "L16330366",
        "locName": "Alaska Maritime NWR--Aiktak Island",
        "countryCode": "US",
        "subnational1Code": "US-AK",
        "subnational2Code": "US-AK-013",
        "lat": 54.185155,
        "lng": -164.8348824,
        "latestObsDt": "2023-09-09 00:00",
        "numSpeciesAllTime": 58
    },
    {
        "locId": "L3315509",
        "locName": "Alaska Maritime NWR--Amchitka Island",
        "countryCode": "US",
        "subnational1Code": "US-AK",
        "subnational2Code": "US-AK-016",
        "lat": 51.5307731,
        "lng": 179.0194702,
        "latestObsDt": "2023-08-12 03:00",
        "numSpeciesAllTime": 36
    },
    {
        "locId": "L6192445",
        "locName": "Alaska Maritime NWR--Atka Island (Bechevin Bay)",
        "countryCode": "US",
        "subnational1Code": "US-AK",
        "subnational2Code": "US-AK-016",
        "lat": 52.0339606,
        "lng": -175.1241302,
        "latestObsDt": "2023-09-20 08:59",
        "numSpeciesAllTime": 39
    },
    {
        "locId": "L418947",
        "locName": "Alaska Maritime NWR--Attu Island",
        "countryCode": "US",
        "subnational1Code": "US-AK",
        "subnational2Code": "US-AK-016",
        "lat": 52.8564672,
        "lng": 173.1863542,
        "latestObsDt": "2019-06-22 13:05",
        "numSpeciesAllTime": 222
    },
    {
        "locId": "L2211721",
        "locName": "Alaska Maritime NWR--Barren Islands",
        "countryCode": "US",
        "subnational1Code": "US-AK",
        "subnational2Code": "US-AK-150",
        "lat": 58.9459351,
        "lng": -152.1187592,
        "latestObsDt": "2023-09-04 15:41",
        "numSpeciesAllTime": 75
    },
    {
        "locId": "L15372417",
        "locName": "Alaska Maritime NWR--Beehive Island",
        "countryCode": "US",
        "subnational1Code": "US-AK",
        "subnational2Code": "US-AK-122",
        "lat": 59.6179385,
        "lng": -149.6131325,
        "latestObsDt": "2023-08-27 14:59",
        "numSpeciesAllTime": 45
    },
    {
        "locId": "L7597715",
        "locName": "Alaska Maritime NWR--Bogoslof Island",
        "countryCode": "US",
        "subnational1Code": "US-AK",
        "subnational2Code": "US-AK-016",
        "lat": 53.9290576,
        "lng": -168.0376482,
        "latestObsDt": "2018-08-16 09:15",
        "numSpeciesAllTime": 18
    },
    {
        "locId": "L685834",
        "locName": "Alaska Maritime NWR--Buldir Island",
        "countryCode": "US",
        "subnational1Code": "US-AK",
        "subnational2Code": "US-AK-016",
        "lat": 52.3504409,
        "lng": 175.9172058,
        "latestObsDt": "2023-08-28 08:00",
        "numSpeciesAllTime": 153
    },
    {
        "locId": "L3315529",
        "locName": "Alaska Maritime NWR--Buldir Island (North Bight Beach)",
        "countryCode": "US",
        "subnational1Code": "US-AK",
        "subnational2Code": "US-AK-016",
        "lat": 52.3708831,
        "lng": 175.8850193,
        "latestObsDt": "2021-08-25 22:06",
        "numSpeciesAllTime": 61
    },
    {
        "locId": "L11107728",
        "locName": "Alaska Maritime NWR--Cape Thompson",
        "countryCode": "US",
        "subnational1Code": "US-AK",
        "subnational2Code": "US-AK-185",
        "lat": 68.1433668,
        "lng": -165.9804798,
        "latestObsDt": "1988-08-31 07:00",
        "numSpeciesAllTime": 86
    },
    {
        "locId": "L1127369",
        "locName": "Alaska Maritime NWR--Chagulak Island",
        "countryCode": "US",
        "subnational1Code": "US-AK",
        "subnational2Code": "US-AK-016",
        "lat": 52.5598644,
        "lng": -171.1302567,
        "latestObsDt": "2019-06-29 07:00",
        "numSpeciesAllTime": 36
    },
    {
        "locId": "L769082",
        "locName": "Alaska Maritime NWR--Chiswell Islands",
        "countryCode": "US",
        "subnational1Code": "US-AK",
        "subnational2Code": "US-AK-122",
        "lat": 59.6431112,
        "lng": -149.6138763,
        "latestObsDt": "2023-09-07 17:58",
        "numSpeciesAllTime": 113
    },
    {
        "locId": "L7900725",
        "locName": "Alaska Maritime NWR--Chowiet Island",
        "countryCode": "US",
        "subnational1Code": "US-AK",
        "subnational2Code": "US-AK-150",
        "lat": 56.032946,
        "lng": -156.705554,
        "latestObsDt": "2023-09-03 07:30",
        "numSpeciesAllTime": 84
    },
    {
        "locId": "L464473",
        "locName": "Alaska Maritime NWR--Duck Island",
        "countryCode": "US",
        "subnational1Code": "US-AK",
        "subnational2Code": "US-AK-122",
        "lat": 60.1481702,
        "lng": -152.5522041,
        "latestObsDt": "2023-08-30 21:34",
        "numSpeciesAllTime": 36
    },
    {
        "locId": "L788239",
        "locName": "Alaska Maritime NWR--East Amatuli Island",
        "countryCode": "US",
        "subnational1Code": "US-AK",
        "subnational2Code": "US-AK-150",
        "lat": 58.9171441,
        "lng": -151.9905281,
        "latestObsDt": "2023-08-27 22:45",
        "numSpeciesAllTime": 97
    },
    {
        "locId": "L22288183",
        "locName": "Alaska Maritime NWR--Egg Island",
        "countryCode": "US",
        "subnational1Code": "US-AK",
        "subnational2Code": "US-AK-180",
        "lat": 63.607514,
        "lng": -161.739912,
        "latestObsDt": "1879-09-09 00:00",
        "numSpeciesAllTime": 2
    },
    {
        "locId": "L682202",
        "locName": "Alaska Maritime NWR--Forrester Island",
        "countryCode": "US",
        "subnational1Code": "US-AK",
        "subnational2Code": "US-AK-198",
        "lat": 54.8117657,
        "lng": -133.5333252,
        "latestObsDt": "2022-07-22 13:00",
        "numSpeciesAllTime": 42
    },
    {
        "locId": "L9536425",
        "locName": "Alaska Maritime NWR--Great Sitkin Island",
        "countryCode": "US",
        "subnational1Code": "US-AK",
        "subnational2Code": "US-AK-016",
        "lat": 52.001133,
        "lng": -176.0775118,
        "latestObsDt": "2022-05-17 17:22",
        "numSpeciesAllTime": 38
    },
    {
        "locId": "L3785333",
        "locName": "Alaska Maritime NWR--Hall Island",
        "countryCode": "US",
        "subnational1Code": "US-AK",
        "subnational2Code": "US-AK-050",
        "lat": 60.6590924,
        "lng": -173.0847931,
        "latestObsDt": "2022-07-25 13:14",
        "numSpeciesAllTime": 54
    },
    {
        "locId": "L3467731",
        "locName": "Alaska Maritime NWR--King Island",
        "countryCode": "US",
        "subnational1Code": "US-AK",
        "subnational2Code": "US-AK-180",
        "lat": 64.9739134,
        "lng": -168.0674744,
        "latestObsDt": "2023-07-31 09:59",
        "numSpeciesAllTime": 29
    },
    {
        "locId": "L3315515",
        "locName": "Alaska Maritime NWR--Kiska Island",
        "countryCode": "US",
        "subnational1Code": "US-AK",
        "subnational2Code": "US-AK-016",
        "lat": 52.0127818,
        "lng": 177.5349426,
        "latestObsDt": "2023-09-18 14:51",
        "numSpeciesAllTime": 68
    },
    {
        "locId": "L9522771",
        "locName": "Alaska Maritime NWR--Kiska Island (Sirius Point)",
        "countryCode": "US",
        "subnational1Code": "US-AK",
        "subnational2Code": "US-AK-016",
        "lat": 52.1334163,
        "lng": 177.6005658,
        "latestObsDt": "2023-08-02 20:11",
        "numSpeciesAllTime": 34
    },
    {
        "locId": "L3927833",
        "locName": "Alaska Maritime NWR--Little Diomede Island",
        "countryCode": "US",
        "subnational1Code": "US-AK",
        "subnational2Code": "US-AK-180",
        "lat": 65.7547811,
        "lng": -168.9256525,
        "latestObsDt": "2023-09-23 08:58",
        "numSpeciesAllTime": 54
    },
    {
        "locId": "L23027216",
        "locName": "Alaska Maritime NWR--Matushka Island",
        "countryCode": "US",
        "subnational1Code": "US-AK",
        "subnational2Code": "US-AK-122",
        "lat": 59.608076,
        "lng": -149.626513,
        "latestObsDt": "2023-09-07 19:40",
        "numSpeciesAllTime": 27
    },
    {
        "locId": "L10185301",
        "locName": "Alaska Maritime NWR--Nizki Island",
        "countryCode": "US",
        "subnational1Code": "US-AK",
        "subnational2Code": "US-AK-016",
        "lat": 52.7363919,
        "lng": 173.9773102,
        "latestObsDt": "2023-06-01 11:30",
        "numSpeciesAllTime": 8
    },
    {
        "locId": "L3658293",
        "locName": "Alaska Maritime NWR--No Name Island",
        "countryCode": "US",
        "subnational1Code": "US-AK",
        "subnational2Code": "US-AK-122",
        "lat": 59.7186547,
        "lng": -149.5085943,
        "latestObsDt": "2023-08-17 10:08",
        "numSpeciesAllTime": 45
    },
    {
        "locId": "L1523122",
        "locName": "Alaska Maritime NWR--Otter Island",
        "countryCode": "US",
        "subnational1Code": "US-AK",
        "subnational2Code": "US-AK-016",
        "lat": 57.0467531,
        "lng": -170.3943443,
        "latestObsDt": "2017-07-15 00:00",
        "numSpeciesAllTime": 29
    },
    {
        "locId": "L3785331",
        "locName": "Alaska Maritime NWR--Pinnacle Island",
        "countryCode": "US",
        "subnational1Code": "US-AK",
        "subnational2Code": "US-AK-050",
        "lat": 60.2018291,
        "lng": -172.7613831,
        "latestObsDt": "2018-08-18 17:15",
        "numSpeciesAllTime": 16
    },
    {
        "locId": "L6190795",
        "locName": "Alaska Maritime NWR--Seguam Island",
        "countryCode": "US",
        "subnational1Code": "US-AK",
        "subnational2Code": "US-AK-016",
        "lat": 52.3177137,
        "lng": -172.4688721,
        "latestObsDt": "2023-05-28 13:36",
        "numSpeciesAllTime": 29
    },
    {
        "locId": "L15290088",
        "locName": "Alaska Maritime NWR--Sledge Island",
        "countryCode": "US",
        "subnational1Code": "US-AK",
        "subnational2Code": "US-AK-180",
        "lat": 64.4862387,
        "lng": -166.2113038,
        "latestObsDt": "2022-07-31 15:00",
        "numSpeciesAllTime": 19
    },
    {
        "locId": "L235914",
        "locName": "Alaska Maritime NWR--St. Lazaria Island",
        "countryCode": "US",
        "subnational1Code": "US-AK",
        "subnational2Code": "US-AK-220",
        "lat": 56.9873598,
        "lng": -135.7105632,
        "latestObsDt": "2024-01-31 06:34",
        "numSpeciesAllTime": 138
    },
    {
        "locId": "L3775800",
        "locName": "Alaska Maritime NWR--St. Matthew Island",
        "countryCode": "US",
        "subnational1Code": "US-AK",
        "subnational2Code": "US-AK-050",
        "lat": 60.4145728,
        "lng": -172.7670908,
        "latestObsDt": "2023-09-01 12:00",
        "numSpeciesAllTime": 95
    },
    {
        "locId": "L7602350",
        "locName": "Alaska Maritime NWR--Tagalak Island",
        "countryCode": "US",
        "subnational1Code": "US-AK",
        "subnational2Code": "US-AK-016",
        "lat": 51.9604519,
        "lng": -175.7093668,
        "latestObsDt": "2018-06-20 17:45",
        "numSpeciesAllTime": 16
    },
    {
        "locId": "L1127367",
        "locName": "Alaska Maritime NWR--Tanaga Island",
        "countryCode": "US",
        "subnational1Code": "US-AK",
        "subnational2Code": "US-AK-016",
        "lat": 51.8142191,
        "lng": -177.977073,
        "latestObsDt": "2023-05-15 06:30",
        "numSpeciesAllTime": 26
    },
    {
        "locId": "L9531042",
        "locName": "Alaska Maritime NWR--Tanaga Island (Hot Springs Bay)",
        "countryCode": "US",
        "subnational1Code": "US-AK",
        "subnational2Code": "US-AK-016",
        "lat": 51.7870288,
        "lng": -177.8072502,
        "latestObsDt": "2023-09-19 16:08",
        "numSpeciesAllTime": 35
    },
    {
        "locId": "L9585817",
        "locName": "Alaska Maritime NWR--Unalga Island",
        "countryCode": "US",
        "subnational1Code": "US-AK",
        "subnational2Code": "US-AK-013",
        "lat": 53.9783791,
        "lng": -166.1306137,
        "latestObsDt": "2022-06-23 07:35",
        "numSpeciesAllTime": 38
    },
    {
        "locId": "L16884931",
        "locName": "Alaska Maritime NWR--Yunaska Island",
        "countryCode": "US",
        "subnational1Code": "US-AK",
        "subnational2Code": "US-AK-016",
        "lat": 52.6392073,
        "lng": -170.6609105,
        "latestObsDt": "1993-05-26 00:00",
        "numSpeciesAllTime": 1
    },
    {
        "locId": "L10039538",
        "locName": "Alaska Peninsula NWR--Chignik Lagoon",
        "countryCode": "US",
        "subnational1Code": "US-AK",
        "subnational2Code": "US-AK-164",
        "lat": 56.3224126,
        "lng": -158.5328857,
        "latestObsDt": "2013-01-23 00:00",
        "numSpeciesAllTime": 45
    },
    {
        "locId": "L10039537",
        "locName": "Alaska Peninsula NWR--Chignik Lake",
        "countryCode": "US",
        "subnational1Code": "US-AK",
        "subnational2Code": "US-AK-164",
        "lat": 56.2752075,
        "lng": -158.8738053,
        "latestObsDt": "2011-09-28 00:00",
        "numSpeciesAllTime": 43
    },
    {
        "locId": "L10039534",
        "locName": "Alaska Peninsula NWR--Dog Salmon",
        "countryCode": "US",
        "subnational1Code": "US-AK",
        "subnational2Code": "US-AK-164",
        "lat": 57.3583607,
        "lng": -157.1034987,
        "latestObsDt": "2018-09-11 11:08",
        "numSpeciesAllTime": 89
    },
    {
        "locId": "L10039532",
        "locName": "Alaska Peninsula NWR--Meshik River Valley (general area)",
        "countryCode": "US",
        "subnational1Code": "US-AK",
        "subnational2Code": "US-AK-164",
        "lat": 56.6135229,
        "lng": -158.4841415,
        "latestObsDt": "2006-05-28 00:00",
        "numSpeciesAllTime": 72
    },
    {
        "locId": "L10042298",
        "locName": "Alaska Peninsula NWR--Mother Goose Lake",
        "countryCode": "US",
        "subnational1Code": "US-AK",
        "subnational2Code": "US-AK-164",
        "lat": 57.1871493,
        "lng": -157.2664316,
        "latestObsDt": "2021-07-31 08:45",
        "numSpeciesAllTime": 133
    },
    {
        "locId": "L10042084",
        "locName": "Alaska Peninsula NWR--Ugashik Narrows",
        "countryCode": "US",
        "subnational1Code": "US-AK",
        "subnational2Code": "US-AK-164",
        "lat": 57.564469,
        "lng": -156.789837,
        "latestObsDt": "1998-07-01 00:00",
        "numSpeciesAllTime": 95
    },
    {
        "locId": "L10042379",
        "locName": "Alaska Peninsula NWR--Yantarni Bay",
        "countryCode": "US",
        "subnational1Code": "US-AK",
        "subnational2Code": "US-AK-164",
        "lat": 56.9021252,
        "lng": -157.0065819,
        "latestObsDt": "2005-05-25 00:00",
        "numSpeciesAllTime": 75
    },
    {
        "locId": "L1783363",
        "locName": "Alaska Wildlife Conservation Center",
        "countryCode": "US",
        "subnational1Code": "US-AK",
        "subnational2Code": "US-AK-020",
        "lat": 60.8215092,
        "lng": -148.9844546,
        "latestObsDt": "2024-02-01 12:04",
        "numSpeciesAllTime": 117
    },
    {
        "locId": "L10093362",
        "locName": "Alaska Zoo",
        "countryCode": "US",
        "subnational1Code": "US-AK",
        "subnational2Code": "US-AK-020",
        "lat": 61.1243559,
        "lng": -149.7925578,
        "latestObsDt": "2023-10-24 14:31",
        "numSpeciesAllTime": 32
    },
    {
        "locId": "L22235328",
        "locName": "Alcantra Park",
        "countryCode": "US",
        "subnational1Code": "US-AK",
        "subnational2Code": "US-AK-170",
        "lat": 61.6112264,
        "lng": -149.3809379,
        "latestObsDt": "2023-01-27 15:00",
        "numSpeciesAllTime": 8
    },
    {
        "locId": "L6277725",
        "locName": "Amakdedori Creek mouth",
        "countryCode": "US",
        "subnational1Code": "US-AK",
        "subnational2Code": "US-AK-122",
        "lat": 59.277378,
        "lng": -154.130415,
        "latestObsDt": "2022-06-02 09:00",
        "numSpeciesAllTime": 38
    },
    {
        "locId": "L17608277",
        "locName": "Amalga Harbor",
        "countryCode": "US",
        "subnational1Code": "US-AK",
        "subnational2Code": "US-AK-110",
        "lat": 58.4932535,
        "lng": -134.79152,
        "latestObsDt": "2023-10-08 13:26",
        "numSpeciesAllTime": 45
    },
    {
        "locId": "L27237961",
        "locName": "Amalga Harbor Boat Launch",
        "countryCode": "US",
        "subnational1Code": "US-AK",
        "subnational2Code": "US-AK-110",
        "lat": 58.4913821,
        "lng": -134.7876087,
        "latestObsDt": "2024-02-19 14:51",
        "numSpeciesAllTime": 27
    },
    {
        "locId": "L17089109",
        "locName": "Amalga Meadows Park--Amalga Cabin",
        "countryCode": "US",
        "subnational1Code": "US-AK",
        "subnational2Code": "US-AK-110",
        "lat": 58.5007304,
        "lng": -134.7965805,
        "latestObsDt": "2023-08-24 16:30",
        "numSpeciesAllTime": 37
    },
    {
        "locId": "L6190799",
        "locName": "Amukta Pass",
        "countryCode": "US",
        "subnational1Code": "US-AK",
        "subnational2Code": "US-AK-016",
        "lat": 52.3898599,
        "lng": -171.9013583,
        "latestObsDt": "2020-04-29 10:15",
        "numSpeciesAllTime": 19
    },
    {
        "locId": "L3781514",
        "locName": "Anaktuvuk Pass (town)",
        "countryCode": "US",
        "subnational1Code": "US-AK",
        "subnational2Code": "US-AK-185",
        "lat": 68.1426279,
        "lng": -151.7350308,
        "latestObsDt": "2022-06-26 18:10",
        "numSpeciesAllTime": 85
    },
    {
        "locId": "L767320",
        "locName": "Anchor Point",
        "countryCode": "US",
        "subnational1Code": "US-AK",
        "subnational2Code": "US-AK-122",
        "lat": 59.7790573,
        "lng": -151.8633485,
        "latestObsDt": "2023-10-18 08:20",
        "numSpeciesAllTime": 189
    },
    {
        "locId": "L1637291",
        "locName": "Anchor Point SRA--Slidehole Campground",
        "countryCode": "US",
        "subnational1Code": "US-AK",
        "subnational2Code": "US-AK-122",
        "lat": 59.76996,
        "lng": -151.85252,
        "latestObsDt": "2023-09-17 13:18",
        "numSpeciesAllTime": 101
    },
    {
        "locId": "L1206814",
        "locName": "Anchor Point--Anchor River mouth",
        "countryCode": "US",
        "subnational1Code": "US-AK",
        "subnational2Code": "US-AK-122",
        "lat": 59.7918257,
        "lng": -151.857233,
        "latestObsDt": "2023-08-07 16:05",
        "numSpeciesAllTime": 147
    },
    {
        "locId": "L15873803",
        "locName": "Anchor River SRA",
        "countryCode": "US",
        "subnational1Code": "US-AK",
        "subnational2Code": "US-AK-122",
        "lat": 59.7739031,
        "lng": -151.8658974,
        "latestObsDt": "2024-01-16 08:58",
        "numSpeciesAllTime": 143
    },
    {
        "locId": "L3110397",
        "locName": "Anchor River SRA--Mawalli Rock Day Use Area",
        "countryCode": "US",
        "subnational1Code": "US-AK",
        "subnational2Code": "US-AK-122",
        "lat": 59.7709987,
        "lng": -151.8374276,
        "latestObsDt": "2023-09-01 15:53",
        "numSpeciesAllTime": 81
    },
    {
        "locId": "L15064759",
        "locName": "Anchor River--Anchor Point beach",
        "countryCode": "US",
        "subnational1Code": "US-AK",
        "subnational2Code": "US-AK-122",
        "lat": 59.7790981,
        "lng": -151.8631308,
        "latestObsDt": "2023-10-18 11:47",
        "numSpeciesAllTime": 132
    },
    {
        "locId": "L2281679",
        "locName": "Anchor River--South Fork",
        "countryCode": "US",
        "subnational1Code": "US-AK",
        "subnational2Code": "US-AK-122",
        "lat": 59.7168153,
        "lng": -151.647141,
        "latestObsDt": "2023-08-18 12:05",
        "numSpeciesAllTime": 76
    },
    {
        "locId": "L523501",
        "locName": "Anchorage Coastal WR--Carr-Gottstein Park to Campbell Creek",
        "countryCode": "US",
        "subnational1Code": "US-AK",
        "subnational2Code": "US-AK-020",
        "lat": 61.1148058,
        "lng": -149.938488,
        "latestObsDt": "2024-02-10 14:03",
        "numSpeciesAllTime": 159
    },
    {
        "locId": "L1545636",
        "locName": "Anchorage Coastal WR--Clitheroe flats",
        "countryCode": "US",
        "subnational1Code": "US-AK",
        "subnational2Code": "US-AK-020",
        "lat": 61.178193,
        "lng": -150.0367842,
        "latestObsDt": "2024-02-19 11:45",
        "numSpeciesAllTime": 147
    },
    {
        "locId": "L2152694",
        "locName": "Anchorage Coastal WR--Rabbit Creek",
        "countryCode": "US",
        "subnational1Code": "US-AK",
        "subnational2Code": "US-AK-020",
        "lat": 61.0785183,
        "lng": -149.8369717,
        "latestObsDt": "2023-10-26 13:01",
        "numSpeciesAllTime": 112
    },
    {
        "locId": "L4651499",
        "locName": "Andromeda Dr./Bate St. Ponds",
        "countryCode": "US",
        "subnational1Code": "US-AK",
        "subnational2Code": "US-AK-090",
        "lat": 64.8533143,
        "lng": -147.4496555,
        "latestObsDt": "2023-05-14 12:27",
        "numSpeciesAllTime": 76
    },
    {
        "locId": "L1079356",
        "locName": "Angoon (town)",
        "countryCode": "US",
        "subnational1Code": "US-AK",
        "subnational2Code": "US-AK-105",
        "lat": 57.5000313,
        "lng": -134.5779276,
        "latestObsDt": "2023-08-02 07:45",
        "numSpeciesAllTime": 60
    },
    {
        "locId": "L18019230",
        "locName": "Aniak (town)",
        "countryCode": "US",
        "subnational1Code": "US-AK",
        "subnational2Code": "US-AK-050",
        "lat": 61.5824527,
        "lng": -159.5414805,
        "latestObsDt": "2023-07-10 16:49",
        "numSpeciesAllTime": 38
    },
    {
        "locId": "L10505693",
        "locName": "Aniakchak Bay",
        "countryCode": "US",
        "subnational1Code": "US-AK",
        "subnational2Code": "US-AK-164",
        "lat": 56.7227494,
        "lng": -157.5197064,
        "latestObsDt": "1998-06-11 00:00",
        "numSpeciesAllTime": 20
    },
    {
        "locId": "L3869478",
        "locName": "Annette Island--Race Pt.",
        "countryCode": "US",
        "subnational1Code": "US-AK",
        "subnational2Code": "US-AK-198",
        "lat": 55.28503,
        "lng": -131.5698259,
        "latestObsDt": "2023-09-28 18:03",
        "numSpeciesAllTime": 30
    },
    {
        "locId": "L3869499",
        "locName": "Annette Island--Reef Pt.",
        "countryCode": "US",
        "subnational1Code": "US-AK",
        "subnational2Code": "US-AK-198",
        "lat": 55.2466155,
        "lng": -131.4795942,
        "latestObsDt": "2022-07-29 13:03",
        "numSpeciesAllTime": 10
    },
    {
        "locId": "L18016985",
        "locName": "Anvik (town)",
        "countryCode": "US",
        "subnational1Code": "US-AK",
        "subnational2Code": "US-AK-290",
        "lat": 62.6523774,
        "lng": -160.1975188,
        "latestObsDt": "2023-07-04 11:18",
        "numSpeciesAllTime": 10
    },
    {
        "locId": "L1189780",
        "locName": "Anvil Mountain",
        "countryCode": "US",
        "subnational1Code": "US-AK",
        "subnational2Code": "US-AK-180",
        "lat": 64.5636328,
        "lng": -165.3714466,
        "latestObsDt": "2023-06-12 16:15",
        "numSpeciesAllTime": 65
    },
    {
        "locId": "L3545573",
        "locName": "Anyaka Island",
        "countryCode": "US",
        "subnational1Code": "US-AK",
        "subnational2Code": "US-AK-100",
        "lat": 59.0536658,
        "lng": -135.2781773,
        "latestObsDt": "2015-07-16 00:00",
        "numSpeciesAllTime": 10
    },
    {
        "locId": "L9600626",
        "locName": "Arctic NWR--Atigun Gorge",
        "countryCode": "US",
        "subnational1Code": "US-AK",
        "subnational2Code": "US-AK-185",
        "lat": 68.4588295,
        "lng": -149.3329938,
        "latestObsDt": "2023-07-30 12:16",
        "numSpeciesAllTime": 42
    },
    {
        "locId": "L4822267",
        "locName": "Arctic NWR--Brownlow Point",
        "countryCode": "US",
        "subnational1Code": "US-AK",
        "subnational2Code": "US-AK-185",
        "lat": 70.1615632,
        "lng": -145.8538846,
        "latestObsDt": "2021-07-19 14:00",
        "numSpeciesAllTime": 33
    },
    {
        "locId": "L1619148",
        "locName": "Arctic NWR--Canning River Delta",
        "countryCode": "US",
        "subnational1Code": "US-AK",
        "subnational2Code": "US-AK-185",
        "lat": 70.1179003,
        "lng": -145.8491179,
        "latestObsDt": "2023-09-08 10:45",
        "numSpeciesAllTime": 105
    },
    {
        "locId": "L15687158",
        "locName": "Arctic NWR--Hulahula River (East Patuk Creek)",
        "countryCode": "US",
        "subnational1Code": "US-AK",
        "subnational2Code": "US-AK-185",
        "lat": 69.1776983,
        "lng": -144.5856544,
        "latestObsDt": "2021-06-20 08:00",
        "numSpeciesAllTime": 7
    },
    {
        "locId": "L25340293",
        "locName": "Arctic NWR--Jago Bitty",
        "countryCode": "US",
        "subnational1Code": "US-AK",
        "subnational2Code": "US-AK-185",
        "lat": 69.722323,
        "lng": -143.601943,
        "latestObsDt": "2023-06-25 17:47",
        "numSpeciesAllTime": 29
    },
    {
        "locId": "L1210894",
        "locName": "Arctic NWR--Katakturuk River",
        "countryCode": "US",
        "subnational1Code": "US-AK",
        "subnational2Code": "US-AK-185",
        "lat": 69.8454783,
        "lng": -145.325861,
        "latestObsDt": "2023-06-14 00:00",
        "numSpeciesAllTime": 64
    },
    {
        "locId": "L165400",
        "locName": "Arctic NWR--North (please use a more specific location)",
        "countryCode": "US",
        "subnational1Code": "US-AK",
        "subnational2Code": "US-AK-185",
        "lat": 68.9619847,
        "lng": -146.080154,
        "latestObsDt": "2018-07-20 00:00",
        "numSpeciesAllTime": 87
    },
    {
        "locId": "L7640171",
        "locName": "Arctic NWR--Porcupine River (upstream of Campbell River)",
        "countryCode": "US",
        "subnational1Code": "US-AK",
        "subnational2Code": "US-AK-290",
        "lat": 67.3270071,
        "lng": -141.3808643,
        "latestObsDt": "2022-06-17 03:12",
        "numSpeciesAllTime": 49
    },
    {
        "locId": "L7640312",
        "locName": "Arctic NWR--Porcupine River (upstream of Fish Creek)",
        "countryCode": "US",
        "subnational1Code": "US-AK",
        "subnational2Code": "US-AK-290",
        "lat": 67.1480134,
        "lng": -142.2888746,
        "latestObsDt": "2018-06-27 02:55",
        "numSpeciesAllTime": 49
    },
    {
        "locId": "L1120051",
        "locName": "Arctic NWR--South (please use a more specific location)",
        "countryCode": "US",
        "subnational1Code": "US-AK",
        "subnational2Code": "US-AK-290",
        "lat": 68.2311192,
        "lng": -145.5621185,
        "latestObsDt": "2021-06-12 15:35",
        "numSpeciesAllTime": 99
    },
    {
        "locId": "L15503951",
        "locName": "Arctic NWR--barrier beach E of Brownlow Pt.",
        "countryCode": "US",
        "subnational1Code": "US-AK",
        "subnational2Code": "US-AK-185",
        "lat": 70.155278,
        "lng": -145.820455,
        "latestObsDt": "2023-07-04 12:08",
        "numSpeciesAllTime": 25
    },
    {
        "locId": "L823675",
        "locName": "Arctic Valley Rd.",
        "countryCode": "US",
        "subnational1Code": "US-AK",
        "subnational2Code": "US-AK-020",
        "lat": 61.2350621,
        "lng": -149.569931,
        "latestObsDt": "2024-02-08 10:31",
        "numSpeciesAllTime": 94
    },
    {
        "locId": "L4480755",
        "locName": "Arctic Valley Rd.--large overlook",
        "countryCode": "US",
        "subnational1Code": "US-AK",
        "subnational2Code": "US-AK-020",
        "lat": 61.2365164,
        "lng": -149.6097731,
        "latestObsDt": "2024-02-25 13:30",
        "numSpeciesAllTime": 64
    },
    {
        "locId": "L724744",
        "locName": "Arctic Valley Ski Area",
        "countryCode": "US",
        "subnational1Code": "US-AK",
        "subnational2Code": "US-AK-020",
        "lat": 61.2467075,
        "lng": -149.535234,
        "latestObsDt": "2024-02-19 16:53",
        "numSpeciesAllTime": 91
    },
    {
        "locId": "L5801918",
        "locName": "Arctic Village (town)",
        "countryCode": "US",
        "subnational1Code": "US-AK",
        "subnational2Code": "US-AK-290",
        "lat": 68.120387,
        "lng": -145.568291,
        "latestObsDt": "2023-06-29 11:34",
        "numSpeciesAllTime": 71
    },
    {
        "locId": "L13512346",
        "locName": "Arnold Muldoon Park",
        "countryCode": "US",
        "subnational1Code": "US-AK",
        "subnational2Code": "US-AK-020",
        "lat": 61.194016,
        "lng": -149.7432339,
        "latestObsDt": "2023-12-22 14:12",
        "numSpeciesAllTime": 38
    },
    {
        "locId": "L22287646",
        "locName": "Atka--Nazan Bay",
        "countryCode": "US",
        "subnational1Code": "US-AK",
        "subnational2Code": "US-AK-016",
        "lat": 52.205788,
        "lng": -174.148066,
        "latestObsDt": "2023-12-09 14:00",
        "numSpeciesAllTime": 25
    },
    {
        "locId": "L819726",
        "locName": "Attu Isalnd--Casco Point",
        "countryCode": "US",
        "subnational1Code": "US-AK",
        "subnational2Code": "US-AK-016",
        "lat": 52.8132743,
        "lng": 173.1765676,
        "latestObsDt": "2013-06-05 10:00",
        "numSpeciesAllTime": 66
    },
    {
        "locId": "L819779",
        "locName": "Attu Island--Alexai Beach",
        "countryCode": "US",
        "subnational1Code": "US-AK",
        "subnational2Code": "US-AK-016",
        "lat": 52.8206079,
        "lng": 173.2969666,
        "latestObsDt": "2014-05-30 08:30",
        "numSpeciesAllTime": 75
    },
    {
        "locId": "L498124",
        "locName": "Attu Island--Alexai Point",
        "countryCode": "US",
        "subnational1Code": "US-AK",
        "subnational2Code": "US-AK-016",
        "lat": 52.8087283,
        "lng": 173.3071804,
        "latestObsDt": "2013-05-31 00:00",
        "numSpeciesAllTime": 84
    },
    {
        "locId": "L5273639",
        "locName": "Attu Island--Attour Base Camp",
        "countryCode": "US",
        "subnational1Code": "US-AK",
        "subnational2Code": "US-AK-016",
        "lat": 52.8048888,
        "lng": 173.161633,
        "latestObsDt": "2000-10-05 00:00",
        "numSpeciesAllTime": 82
    },
    {
        "locId": "L473096",
        "locName": "Attu Island--Blue Robin Canyon",
        "countryCode": "US",
        "subnational1Code": "US-AK",
        "subnational2Code": "US-AK-016",
        "lat": 52.7947437,
        "lng": 173.1401968,
        "latestObsDt": "1999-05-29 10:30",
        "numSpeciesAllTime": 30
    },
    {
        "locId": "L819720",
        "locName": "Attu Island--Casco Beach",
        "countryCode": "US",
        "subnational1Code": "US-AK",
        "subnational2Code": "US-AK-016",
        "lat": 52.8226177,
        "lng": 173.1724048,
        "latestObsDt": "2018-05-26 15:04",
        "numSpeciesAllTime": 53
    },
    {
        "locId": "L2912877",
        "locName": "Attu Island--Chichigof Harbor",
        "countryCode": "US",
        "subnational1Code": "US-AK",
        "subnational2Code": "US-AK-016",
        "lat": 52.9272741,
        "lng": 173.2414341,
        "latestObsDt": "2014-06-03 09:39",
        "numSpeciesAllTime": 21
    },
    {
        "locId": "L498125",
        "locName": "Attu Island--Ettienne Bay",
        "countryCode": "US",
        "subnational1Code": "US-AK",
        "subnational2Code": "US-AK-016",
        "lat": 52.9220479,
        "lng": 172.6477432,
        "latestObsDt": "2020-11-01 16:21",
        "numSpeciesAllTime": 44
    },
    {
        "locId": "L4962685",
        "locName": "Attu Island--Gilbert Ridge",
        "countryCode": "US",
        "subnational1Code": "US-AK",
        "subnational2Code": "US-AK-016",
        "lat": 52.8442116,
        "lng": 173.2560253,
        "latestObsDt": "2013-05-31 00:00",
        "numSpeciesAllTime": 31
    },
    {
        "locId": "L819678",
        "locName": "Attu Island--Henderson Marsh",
        "countryCode": "US",
        "subnational1Code": "US-AK",
        "subnational2Code": "US-AK-016",
        "lat": 52.8601656,
        "lng": 173.1798935,
        "latestObsDt": "2016-05-22 09:45",
        "numSpeciesAllTime": 35
    },
    {
        "locId": "L819681",
        "locName": "Attu Island--Henderson River mouth",
        "countryCode": "US",
        "subnational1Code": "US-AK",
        "subnational2Code": "US-AK-016",
        "lat": 52.8468454,
        "lng": 173.2016945,
        "latestObsDt": "2018-05-25 20:34",
        "numSpeciesAllTime": 50
    },
    {
        "locId": "L2912886",
        "locName": "Attu Island--Holtz Bay",
        "countryCode": "US",
        "subnational1Code": "US-AK",
        "subnational2Code": "US-AK-016",
        "lat": 52.9252561,
        "lng": 173.1256485,
        "latestObsDt": "2018-05-29 13:20",
        "numSpeciesAllTime": 16
    },
    {
        "locId": "L819741",
        "locName": "Attu Island--Kingfisher Creek",
        "countryCode": "US",
        "subnational1Code": "US-AK",
        "subnational2Code": "US-AK-016",
        "lat": 52.8214637,
        "lng": 173.1575131,
        "latestObsDt": "2016-05-21 14:00",
        "numSpeciesAllTime": 46
    },
    {
        "locId": "L5276588",
        "locName": "Attu Island--Lake Elwood",
        "countryCode": "US",
        "subnational1Code": "US-AK",
        "subnational2Code": "US-AK-016",
        "lat": 52.8593494,
        "lng": 173.1735098,
        "latestObsDt": "1999-05-17 15:30",
        "numSpeciesAllTime": 11
    },
    {
        "locId": "L498123",
        "locName": "Attu Island--Massacre Bay",
        "countryCode": "US",
        "subnational1Code": "US-AK",
        "subnational2Code": "US-AK-016",
        "lat": 52.8472601,
        "lng": 173.2157707,
        "latestObsDt": "2019-06-26 09:00",
        "numSpeciesAllTime": 74
    },
    {
        "locId": "L819733",
        "locName": "Attu Island--Murder Point",
        "countryCode": "US",
        "subnational1Code": "US-AK",
        "subnational2Code": "US-AK-016",
        "lat": 52.793524,
        "lng": 173.1793785,
        "latestObsDt": "2019-06-26 14:15",
        "numSpeciesAllTime": 67
    },
    {
        "locId": "L820014",
        "locName": "Attu Island--Navy Town",
        "countryCode": "US",
        "subnational1Code": "US-AK",
        "subnational2Code": "US-AK-016",
        "lat": 52.8410393,
        "lng": 173.1757736,
        "latestObsDt": "2015-06-29 08:00",
        "numSpeciesAllTime": 41
    },
    {
        "locId": "L5295019",
        "locName": "Attu Island--Navy Town beach & Loaf Island",
        "countryCode": "US",
        "subnational1Code": "US-AK",
        "subnational2Code": "US-AK-016",
        "lat": 52.8382655,
        "lng": 173.1995702,
        "latestObsDt": "2006-09-15 14:00",
        "numSpeciesAllTime": 43
    },
    {
        "locId": "L5295000",
        "locName": "Attu Island--Peaceful River Valley",
        "countryCode": "US",
        "subnational1Code": "US-AK",
        "subnational2Code": "US-AK-016",
        "lat": 52.8380581,
        "lng": 173.1456685,
        "latestObsDt": "1999-06-01 18:00",
        "numSpeciesAllTime": 14
    },
    {
        "locId": "L819686",
        "locName": "Attu Island--Peaceful River mouth",
        "countryCode": "US",
        "subnational1Code": "US-AK",
        "subnational2Code": "US-AK-016",
        "lat": 52.8250943,
        "lng": 173.1822109,
        "latestObsDt": "2006-09-17 08:00",
        "numSpeciesAllTime": 51
    },
    {
        "locId": "L5273629",
        "locName": "Attu Island--Pratincole Cove",
        "countryCode": "US",
        "subnational1Code": "US-AK",
        "subnational2Code": "US-AK-016",
        "lat": 52.8015614,
        "lng": 173.1721419,
        "latestObsDt": "1999-05-29 14:15",
        "numSpeciesAllTime": 21
    },
    {
        "locId": "L819734",
        "locName": "Attu Island--Puffin Island",
        "countryCode": "US",
        "subnational1Code": "US-AK",
        "subnational2Code": "US-AK-016",
        "lat": 52.8216452,
        "lng": 173.1850433,
        "latestObsDt": "2011-09-10 00:00",
        "numSpeciesAllTime": 73
    },
    {
        "locId": "L5323377",
        "locName": "Attu Island--Runway Ponds",
        "countryCode": "US",
        "subnational1Code": "US-AK",
        "subnational2Code": "US-AK-016",
        "lat": 52.8266242,
        "lng": 173.1529856,
        "latestObsDt": "2000-10-01 00:00",
        "numSpeciesAllTime": 26
    },
    {
        "locId": "L819746",
        "locName": "Attu Island--South Beach",
        "countryCode": "US",
        "subnational1Code": "US-AK",
        "subnational2Code": "US-AK-016",
        "lat": 52.7977797,
        "lng": 173.1633282,
        "latestObsDt": "2005-06-05 12:00",
        "numSpeciesAllTime": 41
    },
    {
        "locId": "L5287302",
        "locName": "Attu Island--Tattler Creek mouth",
        "countryCode": "US",
        "subnational1Code": "US-AK",
        "subnational2Code": "US-AK-016",
        "lat": 52.816861,
        "lng": 173.1576584,
        "latestObsDt": "1999-06-05 09:45",
        "numSpeciesAllTime": 29
    },
    {
        "locId": "L5287294",
        "locName": "Attu Island--The Triangle & Debris Beach",
        "countryCode": "US",
        "subnational1Code": "US-AK",
        "subnational2Code": "US-AK-016",
        "lat": 52.8577299,
        "lng": 173.2264996,
        "latestObsDt": "2000-09-17 00:00",
        "numSpeciesAllTime": 26
    },
    {
        "locId": "L5276541",
        "locName": "Attu Island--The Warehouse",
        "countryCode": "US",
        "subnational1Code": "US-AK",
        "subnational2Code": "US-AK-016",
        "lat": 52.8362434,
        "lng": 173.1886697,
        "latestObsDt": "2018-05-30 18:09",
        "numSpeciesAllTime": 24
    },
    {
        "locId": "L25279125",
        "locName": "Audubon Riedel Nature Reserve",
        "countryCode": "US",
        "subnational1Code": "US-AK",
        "subnational2Code": "US-AK-090",
        "lat": 64.9033721,
        "lng": -147.4603332,
        "latestObsDt": "2024-01-12 13:17",
        "numSpeciesAllTime": 21
    },
    {
        "locId": "L3880058",
        "locName": "Auke Bay",
        "countryCode": "US",
        "subnational1Code": "US-AK",
        "subnational2Code": "US-AK-110",
        "lat": 58.3725578,
        "lng": -134.6680498,
        "latestObsDt": "2023-12-30 12:00",
        "numSpeciesAllTime": 110
    },
    {
        "locId": "L4821883",
        "locName": "Auke Bay--Battleship Island",
        "countryCode": "US",
        "subnational1Code": "US-AK",
        "subnational2Code": "US-AK-110",
        "lat": 58.359484,
        "lng": -134.6649857,
        "latestObsDt": "2018-11-22 13:59",
        "numSpeciesAllTime": 7
    },
    {
        "locId": "L5057896",
        "locName": "Auke Bay--Coghlan Island",
        "countryCode": "US",
        "subnational1Code": "US-AK",
        "subnational2Code": "US-AK-110",
        "lat": 58.3540493,
        "lng": -134.6971464,
        "latestObsDt": "2023-09-28 20:58",
        "numSpeciesAllTime": 24
    },
    {
        "locId": "L7245050",
        "locName": "Auke Bay--Statter Harbor",
        "countryCode": "US",
        "subnational1Code": "US-AK",
        "subnational2Code": "US-AK-110",
        "lat": 58.3831334,
        "lng": -134.6492529,
        "latestObsDt": "2024-02-25 12:31",
        "numSpeciesAllTime": 82
    },
    {
        "locId": "L5057892",
        "locName": "Auke Bay--Suedla Island",
        "countryCode": "US",
        "subnational1Code": "US-AK",
        "subnational2Code": "US-AK-110",
        "lat": 58.3515074,
        "lng": -134.6629,
        "latestObsDt": "2022-06-20 17:26",
        "numSpeciesAllTime": 29
    },
    {
        "locId": "L7595448",
        "locName": "Auke Lake Trail",
        "countryCode": "US",
        "subnational1Code": "US-AK",
        "subnational2Code": "US-AK-110",
        "lat": 58.3862829,
        "lng": -134.6271944,
        "latestObsDt": "2023-11-25 15:22",
        "numSpeciesAllTime": 39
    },
    {
        "locId": "L8189791",
        "locName": "Auke Nu Cove",
        "countryCode": "US",
        "subnational1Code": "US-AK",
        "subnational2Code": "US-AK-110",
        "lat": 58.3803635,
        "lng": -134.6978389,
        "latestObsDt": "2024-02-18 13:36",
        "numSpeciesAllTime": 51
    },
    {
        "locId": "L198202",
        "locName": "Auke Recreation Area--Pt. Louisa",
        "countryCode": "US",
        "subnational1Code": "US-AK",
        "subnational2Code": "US-AK-110",
        "lat": 58.3729854,
        "lng": -134.7267151,
        "latestObsDt": "2024-02-26 14:45",
        "numSpeciesAllTime": 147
    },
    {
        "locId": "L3545542",
        "locName": "Aurora Basin",
        "countryCode": "US",
        "subnational1Code": "US-AK",
        "subnational2Code": "US-AK-110",
        "lat": 58.3071216,
        "lng": -134.4346118,
        "latestObsDt": "2024-01-10 12:15",
        "numSpeciesAllTime": 29
    },
    {
        "locId": "L12171702",
        "locName": "Babb Arboretum",
        "countryCode": "US",
        "subnational1Code": "US-AK",
        "subnational2Code": "US-AK-170",
        "lat": 61.5968453,
        "lng": -149.1034533,
        "latestObsDt": "2024-01-02 12:10",
        "numSpeciesAllTime": 27
    },
    {
        "locId": "L1435582",
        "locName": "Baby Islands",
        "countryCode": "US",
        "subnational1Code": "US-AK",
        "subnational2Code": "US-AK-013",
        "lat": 53.9970299,
        "lng": -166.0640143,
        "latestObsDt": "2023-07-23 19:48",
        "numSpeciesAllTime": 56
    },
    {
        "locId": "L3956269",
        "locName": "Bainbridge Passage",
        "countryCode": "US",
        "subnational1Code": "US-AK",
        "subnational2Code": "US-AK-063",
        "lat": 60.170548,
        "lng": -148.10923,
        "latestObsDt": "2018-07-19 13:42",
        "numSpeciesAllTime": 22
    },
    {
        "locId": "L7563703",
        "locName": "Ballaine Rd.--Goldstream Creek",
        "countryCode": "US",
        "subnational1Code": "US-AK",
        "subnational2Code": "US-AK-090",
        "lat": 64.9118079,
        "lng": -147.8315934,
        "latestObsDt": "2023-12-16 11:15",
        "numSpeciesAllTime": 51
    },
    {
        "locId": "L3870549",
        "locName": "Bar Point Harbor--breakwater",
        "countryCode": "US",
        "subnational1Code": "US-AK",
        "subnational2Code": "US-AK-130",
        "lat": 55.3473215,
        "lng": -131.6784554,
        "latestObsDt": "2023-12-16 12:11",
        "numSpeciesAllTime": 54
    },
    {
        "locId": "L3882499",
        "locName": "Baranof Island--Takatz Bay",
        "countryCode": "US",
        "subnational1Code": "US-AK",
        "subnational2Code": "US-AK-220",
        "lat": 57.1526302,
        "lng": -134.8024607,
        "latestObsDt": "2023-09-02 09:00",
        "numSpeciesAllTime": 30
    },
    {
        "locId": "L5070600",
        "locName": "Barlow Islands",
        "countryCode": "US",
        "subnational1Code": "US-AK",
        "subnational2Code": "US-AK-105",
        "lat": 58.3933047,
        "lng": -134.9067278,
        "latestObsDt": "2023-09-04 15:20",
        "numSpeciesAllTime": 3
    },
    {
        "locId": "L3870687",
        "locName": "Barnacle Rock",
        "countryCode": "US",
        "subnational1Code": "US-AK",
        "subnational2Code": "US-AK-198",
        "lat": 56.0453903,
        "lng": -132.881252,
        "latestObsDt": "2015-07-29 00:00",
        "numSpeciesAllTime": 1
    },
    {
        "locId": "L3927026",
        "locName": "Barren Islands to Tonki Cape--marine",
        "countryCode": "US",
        "subnational1Code": "US-AK",
        "subnational2Code": "US-AK-150",
        "lat": 58.6353254,
        "lng": -152.044138,
        "latestObsDt": "2023-09-16 10:30",
        "numSpeciesAllTime": 34
    },
    {
        "locId": "L1622316",
        "locName": "Baxter Bog Park",
        "countryCode": "US",
        "subnational1Code": "US-AK",
        "subnational2Code": "US-AK-020",
        "lat": 61.189188,
        "lng": -149.7577436,
        "latestObsDt": "2024-02-26 16:30",
        "numSpeciesAllTime": 62
    },
    {
        "locId": "L1550258",
        "locName": "Baycrest Overlook (MP A222 Sterling Hwy.)",
        "countryCode": "US",
        "subnational1Code": "US-AK",
        "subnational2Code": "US-AK-122",
        "lat": 59.6569867,
        "lng": -151.6400358,
        "latestObsDt": "2023-08-25 20:28",
        "numSpeciesAllTime": 41
    },
    {
        "locId": "L4407951",
        "locName": "Bayshore Pond",
        "countryCode": "US",
        "subnational1Code": "US-AK",
        "subnational2Code": "US-AK-020",
        "lat": 61.122855,
        "lng": -149.942288,
        "latestObsDt": "2023-09-01 10:03",
        "numSpeciesAllTime": 42
    },
    {
        "locId": "L5149383",
        "locName": "Bear Glacier Lagoon",
        "countryCode": "US",
        "subnational1Code": "US-AK",
        "subnational2Code": "US-AK-122",
        "lat": 59.9540966,
        "lng": -149.5528946,
        "latestObsDt": "2023-08-01 10:00",
        "numSpeciesAllTime": 25
    },
    {
        "locId": "L5149419",
        "locName": "Bear Lake",
        "countryCode": "US",
        "subnational1Code": "US-AK",
        "subnational2Code": "US-AK-122",
        "lat": 60.1926086,
        "lng": -149.3640319,
        "latestObsDt": "2024-02-25 10:04",
        "numSpeciesAllTime": 93
    },
    {
        "locId": "L1824322",
        "locName": "Bear Valley",
        "countryCode": "US",
        "subnational1Code": "US-AK",
        "subnational2Code": "US-AK-020",
        "lat": 61.0695978,
        "lng": -149.7158945,
        "latestObsDt": "2023-09-24 11:32",
        "numSpeciesAllTime": 52
    },
    {
        "locId": "L5070538",
        "locName": "Beardslee Islands--The Cut",
        "countryCode": "US",
        "subnational1Code": "US-AK",
        "subnational2Code": "US-AK-105",
        "lat": 58.4665554,
        "lng": -135.8620749,
        "latestObsDt": "2023-09-19 15:06",
        "numSpeciesAllTime": 23
    },
    {
        "locId": "L5070526",
        "locName": "Beardslee Islands--Young Island-North Point",
        "countryCode": "US",
        "subnational1Code": "US-AK",
        "subnational2Code": "US-AK-105",
        "lat": 58.4962345,
        "lng": -135.9661059,
        "latestObsDt": "2022-07-06 07:20",
        "numSpeciesAllTime": 39
    },
    {
        "locId": "L5070488",
        "locName": "Beardslee Islands--north",
        "countryCode": "US",
        "subnational1Code": "US-AK",
        "subnational2Code": "US-AK-105",
        "lat": 58.5743652,
        "lng": -135.9430046,
        "latestObsDt": "2023-08-21 11:40",
        "numSpeciesAllTime": 48
    },
    {
        "locId": "L5070478",
        "locName": "Beardslee Islands--south",
        "countryCode": "US",
        "subnational1Code": "US-AK",
        "subnational2Code": "US-AK-105",
        "lat": 58.5190185,
        "lng": -135.9059944,
        "latestObsDt": "2023-08-10 06:25",
        "numSpeciesAllTime": 65
    },
    {
        "locId": "L491787",
        "locName": "Beaufort Sea--Barrow Canyon",
        "countryCode": "US",
        "subnational1Code": "US-AK",
        "subnational2Code": "US-AK-185",
        "lat": 71.7154358,
        "lng": -155.3796387,
        "latestObsDt": "2023-09-13 21:14",
        "numSpeciesAllTime": 7
    },
    {
        "locId": "L1120069",
        "locName": "Becharof NWR",
        "countryCode": "US",
        "subnational1Code": "US-AK",
        "subnational2Code": "US-AK-164",
        "lat": 58.0851824,
        "lng": -156.4286613,
        "latestObsDt": "2021-07-11 19:19",
        "numSpeciesAllTime": 50
    },
    {
        "locId": "L10042431",
        "locName": "Becharof NWR--Bible Camp",
        "countryCode": "US",
        "subnational1Code": "US-AK",
        "subnational2Code": "US-AK-164",
        "lat": 57.922878,
        "lng": -156.078452,
        "latestObsDt": "2015-05-01 00:00",
        "numSpeciesAllTime": 93
    },
    {
        "locId": "L10042406",
        "locName": "Becharof NWR--Gas Rocks",
        "countryCode": "US",
        "subnational1Code": "US-AK",
        "subnational2Code": "US-AK-164",
        "lat": 57.851992,
        "lng": -156.519874,
        "latestObsDt": "2007-08-16 00:00",
        "numSpeciesAllTime": 53
    },
    {
        "locId": "L10042348",
        "locName": "Becharof NWR--Island Arm",
        "countryCode": "US",
        "subnational1Code": "US-AK",
        "subnational2Code": "US-AK-164",
        "lat": 57.753981,
        "lng": -155.998421,
        "latestObsDt": "2021-07-27 08:30",
        "numSpeciesAllTime": 82
    },
    {
        "locId": "L10042577",
        "locName": "Becharof NWR--Puale Bay",
        "countryCode": "US",
        "subnational1Code": "US-AK",
        "subnational2Code": "US-AK-150",
        "lat": 57.7869635,
        "lng": -155.5940699,
        "latestObsDt": "2021-08-08 08:30",
        "numSpeciesAllTime": 141
    },
    {
        "locId": "L10042385",
        "locName": "Becharof NWR--Ruth River",
        "countryCode": "US",
        "subnational1Code": "US-AK",
        "subnational2Code": "US-AK-164",
        "lat": 57.614991,
        "lng": -156.141805,
        "latestObsDt": "1996-08-01 00:00",
        "numSpeciesAllTime": 73
    },
    {
        "locId": "L687027",
        "locName": "Behm Canal",
        "countryCode": "US",
        "subnational1Code": "US-AK",
        "subnational2Code": "US-AK-130",
        "lat": 55.5458822,
        "lng": -130.9127769,
        "latestObsDt": "2023-08-05 20:31",
        "numSpeciesAllTime": 50
    },
    {
        "locId": "L2725347",
        "locName": "Beluga River bridge",
        "countryCode": "US",
        "subnational1Code": "US-AK",
        "subnational2Code": "US-AK-170",
        "lat": 61.2448237,
        "lng": -150.9579742,
        "latestObsDt": "2022-07-05 21:22",
        "numSpeciesAllTime": 47
    },
    {
        "locId": "L2811484",
        "locName": "Beluga River--mud flats",
        "countryCode": "US",
        "subnational1Code": "US-AK",
        "subnational2Code": "US-AK-122",
        "lat": 61.1897405,
        "lng": -151.0005784,
        "latestObsDt": "2023-05-29 16:10",
        "numSpeciesAllTime": 92
    },
    {
        "locId": "L2925216",
        "locName": "Beluga--Cook Inlet overlook",
        "countryCode": "US",
        "subnational1Code": "US-AK",
        "subnational2Code": "US-AK-122",
        "lat": 61.1124009,
        "lng": -151.097374,
        "latestObsDt": "2014-06-16 12:50",
        "numSpeciesAllTime": 7
    },
    {
        "locId": "L961319",
        "locName": "Beluga--North Bog",
        "countryCode": "US",
        "subnational1Code": "US-AK",
        "subnational2Code": "US-AK-122",
        "lat": 61.2094437,
        "lng": -151.0248041,
        "latestObsDt": "2023-07-09 11:10",
        "numSpeciesAllTime": 122
    },
    {
        "locId": "L2918349",
        "locName": "Beluga--Pipeline Trail",
        "countryCode": "US",
        "subnational1Code": "US-AK",
        "subnational2Code": "US-AK-122",
        "lat": 61.1147228,
        "lng": -151.1335945,
        "latestObsDt": "2022-06-12 17:16",
        "numSpeciesAllTime": 45
    },
    {
        "locId": "L929964",
        "locName": "Beluga--South Bog",
        "countryCode": "US",
        "subnational1Code": "US-AK",
        "subnational2Code": "US-AK-122",
        "lat": 61.1223093,
        "lng": -151.1026955,
        "latestObsDt": "2023-07-07 13:20",
        "numSpeciesAllTime": 112
    },
    {
        "locId": "L2725332",
        "locName": "Beluga--Threemile Creek mouth",
        "countryCode": "US",
        "subnational1Code": "US-AK",
        "subnational2Code": "US-AK-122",
        "lat": 61.1428624,
        "lng": -151.0732877,
        "latestObsDt": "2023-07-09 10:04",
        "numSpeciesAllTime": 117
    },
    {
        "locId": "L2725342",
        "locName": "Beluga--airport",
        "countryCode": "US",
        "subnational1Code": "US-AK",
        "subnational2Code": "US-AK-122",
        "lat": 61.1723634,
        "lng": -151.0434079,
        "latestObsDt": "2023-07-10 09:45",
        "numSpeciesAllTime": 34
    },
    {
        "locId": "L1938083",
        "locName": "Bering Land Bridge NP--Serpentine Hot Springs",
        "countryCode": "US",
        "subnational1Code": "US-AK",
        "subnational2Code": "US-AK-180",
        "lat": 65.8531754,
        "lng": -164.7009373,
        "latestObsDt": "2021-06-27 15:29",
        "numSpeciesAllTime": 39
    },
    {
        "locId": "L789874",
        "locName": "Bering Sea--N of Dutch Harbor",
        "countryCode": "US",
        "subnational1Code": "US-AK",
        "subnational2Code": "US-AK-016",
        "lat": 54.0835623,
        "lng": -166.4923096,
        "latestObsDt": "2023-09-21 15:14",
        "numSpeciesAllTime": 55
    },
    {
        "locId": "L3776241",
        "locName": "Bering Sea--Zhemchug Canyon",
        "countryCode": "US",
        "subnational1Code": "US-AK",
        "subnational2Code": "US-AK-050",
        "lat": 58.3861255,
        "lng": -174.739244,
        "latestObsDt": "2015-07-05 06:00",
        "numSpeciesAllTime": 16
    },
    {
        "locId": "L5053582",
        "locName": "Berners Bay",
        "countryCode": "US",
        "subnational1Code": "US-AK",
        "subnational2Code": "US-AK-110",
        "lat": 58.7430904,
        "lng": -134.9833644,
        "latestObsDt": "2023-05-14 11:00",
        "numSpeciesAllTime": 38
    },
    {
        "locId": "L680691",
        "locName": "Bethel (town)",
        "countryCode": "US",
        "subnational1Code": "US-AK",
        "subnational2Code": "US-AK-050",
        "lat": 60.7962943,
        "lng": -161.7647124,
        "latestObsDt": "2024-01-03 15:35",
        "numSpeciesAllTime": 118
    },
    {
        "locId": "L14931203",
        "locName": "Bethel--Arthur Dall Lake",
        "countryCode": "US",
        "subnational1Code": "US-AK",
        "subnational2Code": "US-AK-050",
        "lat": 60.7939369,
        "lng": -161.7743237,
        "latestObsDt": "2024-01-24 12:34",
        "numSpeciesAllTime": 36
    },
    {
        "locId": "L14931264",
        "locName": "Bethel--Gweek River",
        "countryCode": "US",
        "subnational1Code": "US-AK",
        "subnational2Code": "US-AK-050",
        "lat": 60.8636009,
        "lng": -161.585734,
        "latestObsDt": "2023-05-29 11:15",
        "numSpeciesAllTime": 54
    },
    {
        "locId": "L5987829",
        "locName": "Bethel--H-Marker Lake",
        "countryCode": "US",
        "subnational1Code": "US-AK",
        "subnational2Code": "US-AK-050",
        "lat": 60.7976747,
        "lng": -161.8251157,
        "latestObsDt": "2023-08-08 18:08",
        "numSpeciesAllTime": 55
    },
    {
        "locId": "L998890",
        "locName": "Bethel--Hanger Lake",
        "countryCode": "US",
        "subnational1Code": "US-AK",
        "subnational2Code": "US-AK-050",
        "lat": 60.8037385,
        "lng": -161.7179775,
        "latestObsDt": "2023-07-22 09:07",
        "numSpeciesAllTime": 79
    },
    {
        "locId": "L15395535",
        "locName": "Bethel--Larson Ridge & Tundra Ridge vicinity",
        "countryCode": "US",
        "subnational1Code": "US-AK",
        "subnational2Code": "US-AK-050",
        "lat": 60.8067466,
        "lng": -161.8394473,
        "latestObsDt": "2023-05-19 22:10",
        "numSpeciesAllTime": 32
    },
    {
        "locId": "L16651473",
        "locName": "Bethel--Lion's Club River Walk",
        "countryCode": "US",
        "subnational1Code": "US-AK",
        "subnational2Code": "US-AK-050",
        "lat": 60.7885012,
        "lng": -161.7720547,
        "latestObsDt": "2024-01-05 12:27",
        "numSpeciesAllTime": 70
    },
    {
        "locId": "L14931291",
        "locName": "Bethel--Lomack Beach",
        "countryCode": "US",
        "subnational1Code": "US-AK",
        "subnational2Code": "US-AK-050",
        "lat": 60.7911941,
        "lng": -161.7585498,
        "latestObsDt": "2023-08-08 07:49",
        "numSpeciesAllTime": 26
    },
    {
        "locId": "L16695932",
        "locName": "Bethel--Mission Lake",
        "countryCode": "US",
        "subnational1Code": "US-AK",
        "subnational2Code": "US-AK-050",
        "lat": 60.7918468,
        "lng": -161.764819,
        "latestObsDt": "2023-08-07 18:25",
        "numSpeciesAllTime": 42
    },
    {
        "locId": "L16694586",
        "locName": "Bethel--Owl Park",
        "countryCode": "US",
        "subnational1Code": "US-AK",
        "subnational2Code": "US-AK-050",
        "lat": 60.8050097,
        "lng": -161.7897892,
        "latestObsDt": "2021-08-02 18:00",
        "numSpeciesAllTime": 1
    },
    {
        "locId": "L9451403",
        "locName": "Bethel--Pinky's Park",
        "countryCode": "US",
        "subnational1Code": "US-AK",
        "subnational2Code": "US-AK-050",
        "lat": 60.7976592,
        "lng": -161.7851598,
        "latestObsDt": "2023-07-22 08:12",
        "numSpeciesAllTime": 45
    },
    {
        "locId": "L17670807",
        "locName": "Bethel--Sand Pits",
        "countryCode": "US",
        "subnational1Code": "US-AK",
        "subnational2Code": "US-AK-050",
        "lat": 60.7888168,
        "lng": -161.8550263,
        "latestObsDt": "2023-08-22 12:56",
        "numSpeciesAllTime": 33
    },
    {
        "locId": "L4702202",
        "locName": "Bethel--Sewage Ponds",
        "countryCode": "US",
        "subnational1Code": "US-AK",
        "subnational2Code": "US-AK-050",
        "lat": 60.8098089,
        "lng": -161.7706561,
        "latestObsDt": "2023-10-14 09:41",
        "numSpeciesAllTime": 71
    },
    {
        "locId": "L11608141",
        "locName": "Bethel--Small Boat Harbor",
        "countryCode": "US",
        "subnational1Code": "US-AK",
        "subnational2Code": "US-AK-050",
        "lat": 60.7931625,
        "lng": -161.7369959,
        "latestObsDt": "2023-08-12 10:42",
        "numSpeciesAllTime": 26
    },
    {
        "locId": "L16694487",
        "locName": "Bethel--Uivik Subdivision",
        "countryCode": "US",
        "subnational1Code": "US-AK",
        "subnational2Code": "US-AK-050",
        "lat": 60.8060655,
        "lng": -161.8070748,
        "latestObsDt": "2021-03-13 16:15",
        "numSpeciesAllTime": 1
    },
    {
        "locId": "L9448371",
        "locName": "Bethel--airport ditch",
        "countryCode": "US",
        "subnational1Code": "US-AK",
        "subnational2Code": "US-AK-050",
        "lat": 60.7890518,
        "lng": -161.8336813,
        "latestObsDt": "2023-08-11 14:01",
        "numSpeciesAllTime": 38
    },
    {
        "locId": "L16694639",
        "locName": "Bethel--sandbar across from port",
        "countryCode": "US",
        "subnational1Code": "US-AK",
        "subnational2Code": "US-AK-050",
        "lat": 60.7896619,
        "lng": -161.7550191,
        "latestObsDt": "2023-05-18 17:12",
        "numSpeciesAllTime": 6
    },
    {
        "locId": "L26638562",
        "locName": "Bettles (town)",
        "countryCode": "US",
        "subnational1Code": "US-AK",
        "subnational2Code": "US-AK-290",
        "lat": 66.916932,
        "lng": -151.516278,
        "latestObsDt": "2023-12-21 15:00",
        "numSpeciesAllTime": 12
    },
    {
        "locId": "L6222266",
        "locName": "Big Creek mouth",
        "countryCode": "US",
        "subnational1Code": "US-AK",
        "subnational2Code": "US-AK-164",
        "lat": 58.289283,
        "lng": -157.5373363,
        "latestObsDt": "2021-06-30 06:30",
        "numSpeciesAllTime": 101
    },
    {
        "locId": "L775284",
        "locName": "Big Lake",
        "countryCode": "US",
        "subnational1Code": "US-AK",
        "subnational2Code": "US-AK-170",
        "lat": 61.5384062,
        "lng": -149.8809814,
        "latestObsDt": "2023-09-26 10:26",
        "numSpeciesAllTime": 65
    },
    {
        "locId": "L4816742",
        "locName": "Big Lake North SRS",
        "countryCode": "US",
        "subnational1Code": "US-AK",
        "subnational2Code": "US-AK-170",
        "lat": 61.547092,
        "lng": -149.8542184,
        "latestObsDt": "2023-07-07 08:33",
        "numSpeciesAllTime": 46
    },
    {
        "locId": "L4818976",
        "locName": "Big Lake--Burkeshore Marina",
        "countryCode": "US",
        "subnational1Code": "US-AK",
        "subnational2Code": "US-AK-170",
        "lat": 61.5405791,
        "lng": -149.8483068,
        "latestObsDt": "2021-07-30 17:58",
        "numSpeciesAllTime": 14
    },
    {
        "locId": "L773095",
        "locName": "Big Lake--Jordan Lake",
        "countryCode": "US",
        "subnational1Code": "US-AK",
        "subnational2Code": "US-AK-170",
        "lat": 61.5469233,
        "lng": -149.8260069,
        "latestObsDt": "2023-06-16 14:17",
        "numSpeciesAllTime": 47
    },
    {
        "locId": "L17997034",
        "locName": "Big Port Walter",
        "countryCode": "US",
        "subnational1Code": "US-AK",
        "subnational2Code": "US-AK-220",
        "lat": 56.385705,
        "lng": -134.669415,
        "latestObsDt": "2024-02-01 16:00",
        "numSpeciesAllTime": 61
    },
    {
        "locId": "L8430667",
        "locName": "Birch Hill Recreation Area",
        "countryCode": "US",
        "subnational1Code": "US-AK",
        "subnational2Code": "US-AK-090",
        "lat": 64.870513,
        "lng": -147.6468449,
        "latestObsDt": "2024-02-06 18:30",
        "numSpeciesAllTime": 41
    },
    {
        "locId": "L1540919",
        "locName": "Birch Lake",
        "countryCode": "US",
        "subnational1Code": "US-AK",
        "subnational2Code": "US-AK-090",
        "lat": 64.3107021,
        "lng": -146.6675226,
        "latestObsDt": "2023-11-04 16:43",
        "numSpeciesAllTime": 81
    },
    {
        "locId": "L1818685",
        "locName": "Bird Creek",
        "countryCode": "US",
        "subnational1Code": "US-AK",
        "subnational2Code": "US-AK-020",
        "lat": 60.9708167,
        "lng": -149.4459861,
        "latestObsDt": "2023-10-04 14:07",
        "numSpeciesAllTime": 64
    },
    {
        "locId": "L3613626",
        "locName": "Bird Ridge Trail",
        "countryCode": "US",
        "subnational1Code": "US-AK",
        "subnational2Code": "US-AK-020",
        "lat": 60.9958277,
        "lng": -149.4623637,
        "latestObsDt": "2023-06-20 08:55",
        "numSpeciesAllTime": 54
    },
    {
        "locId": "L3872995",
        "locName": "Black Bay",
        "countryCode": "US",
        "subnational1Code": "US-AK",
        "subnational2Code": "US-AK-220",
        "lat": 57.7102315,
        "lng": -136.1317892,
        "latestObsDt": "2015-07-22 00:00",
        "numSpeciesAllTime": 1
    },
    {
        "locId": "L9541525",
        "locName": "Blackstone Bay",
        "countryCode": "US",
        "subnational1Code": "US-AK",
        "subnational2Code": "US-AK-063",
        "lat": 60.7470836,
        "lng": -148.5817252,
        "latestObsDt": "2023-09-29 17:00",
        "numSpeciesAllTime": 62
    },
    {
        "locId": "L3870627",
        "locName": "Blashke Islands--south anchorage",
        "countryCode": "US",
        "subnational1Code": "US-AK",
        "subnational2Code": "US-AK-275",
        "lat": 56.115939,
        "lng": -132.8964272,
        "latestObsDt": "2020-10-17 07:00",
        "numSpeciesAllTime": 27
    },
    {
        "locId": "L1357609",
        "locName": "Blind Slough",
        "countryCode": "US",
        "subnational1Code": "US-AK",
        "subnational2Code": "US-AK-195",
        "lat": 56.6159719,
        "lng": -132.8374529,
        "latestObsDt": "2023-12-16 09:04",
        "numSpeciesAllTime": 88
    },
    {
        "locId": "L24520594",
        "locName": "Blind Slough--Picnic Area and Crystal Lake Hatchery",
        "countryCode": "US",
        "subnational1Code": "US-AK",
        "subnational2Code": "US-AK-195",
        "lat": 56.6131481,
        "lng": -132.818667,
        "latestObsDt": "2024-02-25 16:40",
        "numSpeciesAllTime": 36
    },
    {
        "locId": "L6007739",
        "locName": "Blueberry Lake SRA",
        "countryCode": "US",
        "subnational1Code": "US-AK",
        "subnational2Code": "US-AK-063",
        "lat": 61.1243653,
        "lng": -145.6826592,
        "latestObsDt": "2023-08-23 11:06",
        "numSpeciesAllTime": 39
    },
    {
        "locId": "L2369358",
        "locName": "Bodenburg Butte",
        "countryCode": "US",
        "subnational1Code": "US-AK",
        "subnational2Code": "US-AK-170",
        "lat": 61.5464428,
        "lng": -149.0555906,
        "latestObsDt": "2024-02-03 11:02",
        "numSpeciesAllTime": 59
    },
    {
        "locId": "L21669383",
        "locName": "Bodfish Island",
        "countryCode": "US",
        "subnational1Code": "US-AK",
        "subnational2Code": "US-AK-185",
        "lat": 70.528666,
        "lng": -149.258629,
        "latestObsDt": "2001-08-23 00:00",
        "numSpeciesAllTime": 48
    },
    {
        "locId": "L2314416",
        "locName": "Bootleggers Cove--R St. Alley",
        "countryCode": "US",
        "subnational1Code": "US-AK",
        "subnational2Code": "US-AK-020",
        "lat": 61.2125675,
        "lng": -149.9141968,
        "latestObsDt": "2023-11-04 16:55",
        "numSpeciesAllTime": 82
    },
    {
        "locId": "L13076177",
        "locName": "Brevig Lagoon",
        "countryCode": "US",
        "subnational1Code": "US-AK",
        "subnational2Code": "US-AK-180",
        "lat": 65.3426262,
        "lng": -166.5863191,
        "latestObsDt": "2023-06-05 18:00",
        "numSpeciesAllTime": 66
    },
    {
        "locId": "L15243968",
        "locName": "Brevig Mission (town)",
        "countryCode": "US",
        "subnational1Code": "US-AK",
        "subnational2Code": "US-AK-180",
        "lat": 65.333904,
        "lng": -166.486739,
        "latestObsDt": "2023-06-12 17:17",
        "numSpeciesAllTime": 58
    },
    {
        "locId": "L2265481",
        "locName": "Brotherhood Bridge Trail",
        "countryCode": "US",
        "subnational1Code": "US-AK",
        "subnational2Code": "US-AK-110",
        "lat": 58.3711175,
        "lng": -134.6019495,
        "latestObsDt": "2024-01-01 13:07",
        "numSpeciesAllTime": 116
    },
    {
        "locId": "L16564086",
        "locName": "Buckland (town)",
        "countryCode": "US",
        "subnational1Code": "US-AK",
        "subnational2Code": "US-AK-188",
        "lat": 65.9781732,
        "lng": -161.1254601,
        "latestObsDt": "2024-02-18 12:31",
        "numSpeciesAllTime": 23
    },
    {
        "locId": "L3958133",
        "locName": "Burkholder Lake Development (restricted access)",
        "countryCode": "US",
        "subnational1Code": "US-AK",
        "subnational2Code": "US-AK-170",
        "lat": 61.5687199,
        "lng": -149.0171187,
        "latestObsDt": "2024-02-16 10:55",
        "numSpeciesAllTime": 95
    },
    {
        "locId": "L3294629",
        "locName": "Business Park Wetlands",
        "countryCode": "US",
        "subnational1Code": "US-AK",
        "subnational2Code": "US-AK-020",
        "lat": 61.1773031,
        "lng": -149.8907594,
        "latestObsDt": "2023-12-16 09:40",
        "numSpeciesAllTime": 44
    },
    {
        "locId": "L1261251",
        "locName": "Byron Glacier Trail (Portage)",
        "countryCode": "US",
        "subnational1Code": "US-AK",
        "subnational2Code": "US-AK-020",
        "lat": 60.7650406,
        "lng": -148.843842,
        "latestObsDt": "2023-09-02 06:53",
        "numSpeciesAllTime": 49
    },
    {
        "locId": "L5962309",
        "locName": "Caines Head SRA",
        "countryCode": "US",
        "subnational1Code": "US-AK",
        "subnational2Code": "US-AK-122",
        "lat": 60.0013371,
        "lng": -149.4111013,
        "latestObsDt": "2023-09-06 14:33",
        "numSpeciesAllTime": 65
    },
    {
        "locId": "L24388005",
        "locName": "Calypso Farm and Ecology Center",
        "countryCode": "US",
        "subnational1Code": "US-AK",
        "subnational2Code": "US-AK-090",
        "lat": 64.8396705,
        "lng": -148.1338523,
        "latestObsDt": "2024-02-25 04:31",
        "numSpeciesAllTime": 61
    },
    {
        "locId": "L2386178",
        "locName": "Campbell Creek Estuary Natural Area",
        "countryCode": "US",
        "subnational1Code": "US-AK",
        "subnational2Code": "US-AK-020",
        "lat": 61.1332266,
        "lng": -149.9665131,
        "latestObsDt": "2023-12-16 13:32",
        "numSpeciesAllTime": 131
    },
    {
        "locId": "L9861350",
        "locName": "Campbell Creek Park--2019 Elmore burn",
        "countryCode": "US",
        "subnational1Code": "US-AK",
        "subnational2Code": "US-AK-020",
        "lat": 61.1738038,
        "lng": -149.8134793,
        "latestObsDt": "2023-09-23 16:02",
        "numSpeciesAllTime": 65
    },
    {
        "locId": "L23135369",
        "locName": "Campbell Creek Park--2022 Elmore burn",
        "countryCode": "US",
        "subnational1Code": "US-AK",
        "subnational2Code": "US-AK-020",
        "lat": 61.168675,
        "lng": -149.812882,
        "latestObsDt": "2024-02-24 13:29",
        "numSpeciesAllTime": 55
    },
    {
        "locId": "L3853902",
        "locName": "Campbell Creek Trail (Lake Otis Pkwy. to Elmore Rd.)",
        "countryCode": "US",
        "subnational1Code": "US-AK",
        "subnational2Code": "US-AK-020",
        "lat": 61.1773498,
        "lng": -149.8235526,
        "latestObsDt": "2024-02-17 13:13",
        "numSpeciesAllTime": 61
    },
    {
        "locId": "L790263",
        "locName": "Campbell Creek mouth",
        "countryCode": "US",
        "subnational1Code": "US-AK",
        "subnational2Code": "US-AK-020",
        "lat": 61.1294848,
        "lng": -149.9643981,
        "latestObsDt": "2023-11-05 12:34",
        "numSpeciesAllTime": 132
    },
    {
        "locId": "L1162257",
        "locName": "Campbell Lake",
        "countryCode": "US",
        "subnational1Code": "US-AK",
        "subnational2Code": "US-AK-020",
        "lat": 61.1337198,
        "lng": -149.9403384,
        "latestObsDt": "2024-01-03 12:30",
        "numSpeciesAllTime": 49
    },
    {
        "locId": "L20802409",
        "locName": "Campbell Lake--Canary Ct.",
        "countryCode": "US",
        "subnational1Code": "US-AK",
        "subnational2Code": "US-AK-020",
        "lat": 61.1364326,
        "lng": -149.9244778,
        "latestObsDt": "2024-02-16 16:15",
        "numSpeciesAllTime": 21
    },
    {
        "locId": "L4907452",
        "locName": "Campbell Tract--Campbell Airstrip Trailhead",
        "countryCode": "US",
        "subnational1Code": "US-AK",
        "subnational2Code": "US-AK-020",
        "lat": 61.1657203,
        "lng": -149.7664404,
        "latestObsDt": "2023-12-21 10:32",
        "numSpeciesAllTime": 58
    },
    {
        "locId": "L1160359",
        "locName": "Campbell Tract--Campbell Creek Science Center",
        "countryCode": "US",
        "subnational1Code": "US-AK",
        "subnational2Code": "US-AK-020",
        "lat": 61.164522,
        "lng": -149.7774482,
        "latestObsDt": "2024-02-11 12:23",
        "numSpeciesAllTime": 83
    },
    {
        "locId": "L5683370",
        "locName": "Campbell Tract--Smokejumper Trailhead",
        "countryCode": "US",
        "subnational1Code": "US-AK",
        "subnational2Code": "US-AK-020",
        "lat": 61.1586579,
        "lng": -149.8011723,
        "latestObsDt": "2024-02-10 10:39",
        "numSpeciesAllTime": 58
    },
    {
        "locId": "L2956675",
        "locName": "Cannery Pt.",
        "countryCode": "US",
        "subnational1Code": "US-AK",
        "subnational2Code": "US-AK-105",
        "lat": 58.1300301,
        "lng": -135.4609966,
        "latestObsDt": "2024-02-16 11:20",
        "numSpeciesAllTime": 91
    },
    {
        "locId": "L9209644",
        "locName": "Cantwell (town)",
        "countryCode": "US",
        "subnational1Code": "US-AK",
        "subnational2Code": "US-AK-068",
        "lat": 63.3916667,
        "lng": -148.9508332,
        "latestObsDt": "2023-08-23 19:48",
        "numSpeciesAllTime": 44
    },
    {
        "locId": "L7693369",
        "locName": "Cape Chiniak to Cape Greville",
        "countryCode": "US",
        "subnational1Code": "US-AK",
        "subnational2Code": "US-AK-150",
        "lat": 57.6045778,
        "lng": -152.1553332,
        "latestObsDt": "2023-09-06 13:36",
        "numSpeciesAllTime": 13
    },
    {
        "locId": "L1239981",
        "locName": "Cape Denbigh",
        "countryCode": "US",
        "subnational1Code": "US-AK",
        "subnational2Code": "US-AK-180",
        "lat": 64.3796853,
        "lng": -161.5284634,
        "latestObsDt": "2017-07-20 15:00",
        "numSpeciesAllTime": 19
    },
    {
        "locId": "L954841",
        "locName": "Cape Krusenstern NM--Igichuk Hills West",
        "countryCode": "US",
        "subnational1Code": "US-AK",
        "subnational2Code": "US-AK-188",
        "lat": 67.1869997,
        "lng": -163.0535889,
        "latestObsDt": "2010-05-29 10:00",
        "numSpeciesAllTime": 46
    },
    {
        "locId": "L954844",
        "locName": "Cape Krusenstern NM--Tahinichuk Mountains",
        "countryCode": "US",
        "subnational1Code": "US-AK",
        "subnational2Code": "US-AK-188",
        "lat": 67.5715262,
        "lng": -163.7237549,
        "latestObsDt": "2010-05-30 10:00",
        "numSpeciesAllTime": 23
    },
    {
        "locId": "L7963611",
        "locName": "Cape Newenham LRRS (restricted access)",
        "countryCode": "US",
        "subnational1Code": "US-AK",
        "subnational2Code": "US-AK-050",
        "lat": 58.6405438,
        "lng": -162.0574408,
        "latestObsDt": "2018-09-25 19:43",
        "numSpeciesAllTime": 13
    },
    {
        "locId": "L3014750",
        "locName": "Cape Ommaney to Hazy Islands Wilderness",
        "countryCode": "US",
        "subnational1Code": "US-AK",
        "subnational2Code": "US-AK-198",
        "lat": 55.981482,
        "lng": -134.6292114,
        "latestObsDt": "2023-07-25 04:49",
        "numSpeciesAllTime": 35
    },
    {
        "locId": "L1233960",
        "locName": "Cape Resurrection",
        "countryCode": "US",
        "subnational1Code": "US-AK",
        "subnational2Code": "US-AK-122",
        "lat": 59.8725703,
        "lng": -149.2733002,
        "latestObsDt": "2023-09-03 15:42",
        "numSpeciesAllTime": 54
    },
    {
        "locId": "L11016311",
        "locName": "Cape Romanzof LRRS (restricted access)",
        "countryCode": "US",
        "subnational1Code": "US-AK",
        "subnational2Code": "US-AK-270",
        "lat": 61.785215,
        "lng": -166.032917,
        "latestObsDt": "2020-06-14 22:18",
        "numSpeciesAllTime": 73
    },
    {
        "locId": "L28216690",
        "locName": "Cape Sarichef Light",
        "countryCode": "US",
        "subnational1Code": "US-AK",
        "subnational2Code": "US-AK-013",
        "lat": 54.5981521,
        "lng": -164.9257611,
        "latestObsDt": "2022-05-24 14:00",
        "numSpeciesAllTime": 4
    },
    {
        "locId": "L1100498",
        "locName": "Captain Cook SRA",
        "countryCode": "US",
        "subnational1Code": "US-AK",
        "subnational2Code": "US-AK-122",
        "lat": 60.8054551,
        "lng": -151.015234,
        "latestObsDt": "2023-10-03 12:00",
        "numSpeciesAllTime": 104
    },
    {
        "locId": "L1243008",
        "locName": "Caribou Lake Trail",
        "countryCode": "US",
        "subnational1Code": "US-AK",
        "subnational2Code": "US-AK-122",
        "lat": 59.8337628,
        "lng": -151.0925831,
        "latestObsDt": "2023-08-13 12:09",
        "numSpeciesAllTime": 29
    },
    {
        "locId": "L3545597",
        "locName": "Carlson Center",
        "countryCode": "US",
        "subnational1Code": "US-AK",
        "subnational2Code": "US-AK-090",
        "lat": 64.8420784,
        "lng": -147.7654266,
        "latestObsDt": "2024-02-24 16:13",
        "numSpeciesAllTime": 81
    },
    {
        "locId": "L687513",
        "locName": "Carroll Inlet",
        "countryCode": "US",
        "subnational1Code": "US-AK",
        "subnational2Code": "US-AK-130",
        "lat": 55.3266054,
        "lng": -131.4507294,
        "latestObsDt": "2023-07-28 06:45",
        "numSpeciesAllTime": 63
    },
    {
        "locId": "L3654157",
        "locName": "Carroll Inlet--Shoal Cove Logging Rd.",
        "countryCode": "US",
        "subnational1Code": "US-AK",
        "subnational2Code": "US-AK-130",
        "lat": 55.4523986,
        "lng": -131.2858379,
        "latestObsDt": "2019-08-21 09:00",
        "numSpeciesAllTime": 50
    },
    {
        "locId": "L3869084",
        "locName": "Cascade Inlet (Annette Is.)",
        "countryCode": "US",
        "subnational1Code": "US-AK",
        "subnational2Code": "US-AK-198",
        "lat": 55.173231,
        "lng": -131.3673792,
        "latestObsDt": "2015-08-01 00:00",
        "numSpeciesAllTime": 6
    },
    {
        "locId": "L6183609",
        "locName": "Castle Cape",
        "countryCode": "US",
        "subnational1Code": "US-AK",
        "subnational2Code": "US-AK-164",
        "lat": 56.2429684,
        "lng": -158.1148911,
        "latestObsDt": "2023-09-07 09:56",
        "numSpeciesAllTime": 15
    },
    {
        "locId": "L791868",
        "locName": "Central Landfill (restricted access)",
        "countryCode": "US",
        "subnational1Code": "US-AK",
        "subnational2Code": "US-AK-170",
        "lat": 61.5903112,
        "lng": -149.2006874,
        "latestObsDt": "2023-02-18 15:30",
        "numSpeciesAllTime": 19
    },
    {
        "locId": "L19197861",
        "locName": "Chakok Rd. (unmaintained)",
        "countryCode": "US",
        "subnational1Code": "US-AK",
        "subnational2Code": "US-AK-122",
        "lat": 59.8022842,
        "lng": -151.726056,
        "latestObsDt": "2022-05-20 17:45",
        "numSpeciesAllTime": 5
    },
    {
        "locId": "L16650687",
        "locName": "Chalkyitsik (town)",
        "countryCode": "US",
        "subnational1Code": "US-AK",
        "subnational2Code": "US-AK-290",
        "lat": 66.6531247,
        "lng": -143.7233755,
        "latestObsDt": "2021-10-11 00:00",
        "numSpeciesAllTime": 1
    },
    {
        "locId": "L8212248",
        "locName": "Chandalar Lake",
        "countryCode": "US",
        "subnational1Code": "US-AK",
        "subnational2Code": "US-AK-290",
        "lat": 67.4778419,
        "lng": -148.6662138,
        "latestObsDt": "1977-07-19 00:00",
        "numSpeciesAllTime": 3
    },
    {
        "locId": "L4935469",
        "locName": "Chatham Strait--Pt. Couverden to Pt. Retreat",
        "countryCode": "US",
        "subnational1Code": "US-AK",
        "subnational2Code": "US-AK-105",
        "lat": 58.3136443,
        "lng": -135.0081196,
        "latestObsDt": "2023-08-17 16:32",
        "numSpeciesAllTime": 24
    },
    {
        "locId": "L3882490",
        "locName": "Chatham Strait--Pt. Thatcher to Warm Springs Bay",
        "countryCode": "US",
        "subnational1Code": "US-AK",
        "subnational2Code": "US-AK-220",
        "lat": 57.2464106,
        "lng": -134.8146572,
        "latestObsDt": "2023-07-13 10:16",
        "numSpeciesAllTime": 29
    },
    {
        "locId": "L3871285",
        "locName": "Chatham Strait--Warm Springs Bay to Frederick Sound",
        "countryCode": "US",
        "subnational1Code": "US-AK",
        "subnational2Code": "US-AK-220",
        "lat": 57.0504864,
        "lng": -134.7041931,
        "latestObsDt": "2021-06-23 10:00",
        "numSpeciesAllTime": 11
    },
    {
        "locId": "L3871245",
        "locName": "Chatham Strait--off Pt. Gardner",
        "countryCode": "US",
        "subnational1Code": "US-AK",
        "subnational2Code": "US-AK-105",
        "lat": 56.9979942,
        "lng": -134.6143637,
        "latestObsDt": "2022-08-20 18:14",
        "numSpeciesAllTime": 22
    },
    {
        "locId": "L9943800",
        "locName": "Chefornak (town)",
        "countryCode": "US",
        "subnational1Code": "US-AK",
        "subnational2Code": "US-AK-050",
        "lat": 60.1585723,
        "lng": -164.2811156,
        "latestObsDt": "2023-08-09 10:42",
        "numSpeciesAllTime": 42
    },
    {
        "locId": "L4371523",
        "locName": "Chena Hot Springs Resort",
        "countryCode": "US",
        "subnational1Code": "US-AK",
        "subnational2Code": "US-AK-090",
        "lat": 65.0531371,
        "lng": -146.0566235,
        "latestObsDt": "2024-02-08 15:00",
        "numSpeciesAllTime": 76
    },
    {
        "locId": "L724714",
        "locName": "Chena Lake RA",
        "countryCode": "US",
        "subnational1Code": "US-AK",
        "subnational2Code": "US-AK-090",
        "lat": 64.7706866,
        "lng": -147.2272682,
        "latestObsDt": "2024-02-18 16:51",
        "numSpeciesAllTime": 130
    },
    {
        "locId": "L18697650",
        "locName": "Chena Pump Boat Launch",
        "countryCode": "US",
        "subnational1Code": "US-AK",
        "subnational2Code": "US-AK-090",
        "lat": 64.7948972,
        "lng": -147.953217,
        "latestObsDt": "2023-05-16 13:45",
        "numSpeciesAllTime": 35
    },