[
    {
        "locId": "L3891612",
        "locName": "100th Street Marsh",
        "countryCode": "US",
        "subnational1Code": "US-MN",
        "subnational2Code": "US-MN-163",
        "lat": 44.8040978,
        "lng": -92.9315042,
        "latestObsDt": "2024-02-20 11:17",
        "numSpeciesAllTime": 164
    },
    {
        "locId": "L1481714",
        "locName": "10th Street Overlook",
        "countryCode": "US",
        "subnational1Code": "US-MN",
        "subnational2Code": "US-MN-163",
        "lat": 44.8645734,
        "lng": -93.0078878,
        "latestObsDt": "2021-09-06 10:41",
        "numSpeciesAllTime": 18
    },
    {
        "locId": "L3606385",
        "locName": "110th Street Pond (Bailey Slough WPA)",
        "countryCode": "US",
        "subnational1Code": "US-MN",
        "subnational2Code": "US-MN-073",
        "lat": 44.8209698,
        "lng": -96.4242232,
        "latestObsDt": "2023-05-26 08:57",
        "numSpeciesAllTime": 61
    },
    {
        "locId": "L24932665",
        "locName": "13 Corners Road",
        "countryCode": "US",
        "subnational1Code": "US-MN",
        "subnational2Code": "US-MN-075",
        "lat": 47.9180139,
        "lng": -91.7865181,
        "latestObsDt": "2023-09-26 16:35",
        "numSpeciesAllTime": 23
    },
    {
        "locId": "L380565",
        "locName": "140th St. Marsh",
        "countryCode": "US",
        "subnational1Code": "US-MN",
        "subnational2Code": "US-MN-037",
        "lat": 44.7465808,
        "lng": -93.0168629,
        "latestObsDt": "2024-02-25 13:26",
        "numSpeciesAllTime": 234
    },
    {
        "locId": "L4610321",
        "locName": "145th St. Pond",
        "countryCode": "US",
        "subnational1Code": "US-MN",
        "subnational2Code": "US-MN-133",
        "lat": 43.694242,
        "lng": -96.1657333,
        "latestObsDt": "2023-05-20 16:12",
        "numSpeciesAllTime": 30
    },
    {
        "locId": "L4400140",
        "locName": "150th Street pond",
        "countryCode": "US",
        "subnational1Code": "US-MN",
        "subnational2Code": "US-MN-019",
        "lat": 44.7343887,
        "lng": -93.7956619,
        "latestObsDt": "2023-04-22 11:45",
        "numSpeciesAllTime": 96
    },
    {
        "locId": "L24683812",
        "locName": "180th St. East Slough",
        "countryCode": "US",
        "subnational1Code": "US-MN",
        "subnational2Code": "US-MN-093",
        "lat": 45.0087956,
        "lng": -94.5216976,
        "latestObsDt": "2023-06-22 10:10",
        "numSpeciesAllTime": 79
    },
    {
        "locId": "L303740",
        "locName": "180th St. Marsh (Marshall's Marsh)",
        "countryCode": "US",
        "subnational1Code": "US-MN",
        "subnational2Code": "US-MN-037",
        "lat": 44.68822,
        "lng": -92.9659032,
        "latestObsDt": "2024-02-21 16:30",
        "numSpeciesAllTime": 212
    },
    {
        "locId": "L11718641",
        "locName": "180th Street School Prairie",
        "countryCode": "US",
        "subnational1Code": "US-MN",
        "subnational2Code": "US-MN-037",
        "lat": 44.6873557,
        "lng": -92.9609964,
        "latestObsDt": "2024-01-01 15:56",
        "numSpeciesAllTime": 107
    },
    {
        "locId": "L4705379",
        "locName": "180th Street Wetland",
        "countryCode": "US",
        "subnational1Code": "US-MN",
        "subnational2Code": "US-MN-093",
        "lat": 45.007902,
        "lng": -94.618326,
        "latestObsDt": "2023-09-27 17:11",
        "numSpeciesAllTime": 117
    },
    {
        "locId": "L5894561",
        "locName": "190th Street Marsh",
        "countryCode": "US",
        "subnational1Code": "US-MN",
        "subnational2Code": "US-MN-163",
        "lat": 45.2252336,
        "lng": -93.0042511,
        "latestObsDt": "2023-06-30 15:05",
        "numSpeciesAllTime": 119
    },
    {
        "locId": "L11579932",
        "locName": "243rd St/CSAH 1 Slough",
        "countryCode": "US",
        "subnational1Code": "US-MN",
        "subnational2Code": "US-MN-093",
        "lat": 45.0928956,
        "lng": -94.5825492,
        "latestObsDt": "2024-02-09 12:07",
        "numSpeciesAllTime": 46
    },
    {
        "locId": "L7221095",
        "locName": "255th St. W. Wetlands",
        "countryCode": "US",
        "subnational1Code": "US-MN",
        "subnational2Code": "US-MN-131",
        "lat": 44.2180827,
        "lng": -93.4535117,
        "latestObsDt": "2021-05-10 08:38",
        "numSpeciesAllTime": 36
    },
    {
        "locId": "L11939669",
        "locName": "300th Street — CSAH 34 to Hwy 22",
        "countryCode": "US",
        "subnational1Code": "US-MN",
        "subnational2Code": "US-MN-093",
        "lat": 45.1813412,
        "lng": -94.5104171,
        "latestObsDt": "2023-05-07 16:01",
        "numSpeciesAllTime": 81
    },
    {
        "locId": "L7419926",
        "locName": "309 1/2 E 1st St, Duluth (stakeout ETSP, 2018)",
        "countryCode": "US",
        "subnational1Code": "US-MN",
        "subnational2Code": "US-MN-137",
        "lat": 46.790927,
        "lng": -92.095566,
        "latestObsDt": "2023-04-06 07:42",
        "numSpeciesAllTime": 25
    },
    {
        "locId": "L5847524",
        "locName": "320th St — South of Madelia",
        "countryCode": "US",
        "subnational1Code": "US-MN",
        "subnational2Code": "US-MN-165",
        "lat": 44.0215146,
        "lng": -94.4137981,
        "latestObsDt": "2023-09-22 10:37",
        "numSpeciesAllTime": 196
    },
    {
        "locId": "L25147323",
        "locName": "330th St — South of Madelia",
        "countryCode": "US",
        "subnational1Code": "US-MN",
        "subnational2Code": "US-MN-165",
        "lat": 44.0075587,
        "lng": -94.3944499,
        "latestObsDt": "2023-07-01 12:37",
        "numSpeciesAllTime": 54
    },
    {
        "locId": "L2997536",
        "locName": "3M Lake",
        "countryCode": "US",
        "subnational1Code": "US-MN",
        "subnational2Code": "US-MN-123",
        "lat": 44.958912,
        "lng": -93.0009842,
        "latestObsDt": "2023-11-22 13:00",
        "numSpeciesAllTime": 93
    },
    {
        "locId": "L5091340",
        "locName": "44th Ave E / Regent St (stakeout GCSP)",
        "countryCode": "US",
        "subnational1Code": "US-MN",
        "subnational2Code": "US-MN-137",
        "lat": 46.827453,
        "lng": -92.034742,
        "latestObsDt": "2024-01-06 16:11",
        "numSpeciesAllTime": 42
    },
    {
        "locId": "L4952947",
        "locName": "5-Mile Corner WPA",
        "countryCode": "US",
        "subnational1Code": "US-MN",
        "subnational2Code": "US-MN-101",
        "lat": 44.0747758,
        "lng": -95.750683,
        "latestObsDt": "2023-10-20 14:02",
        "numSpeciesAllTime": 51
    },
    {
        "locId": "L5792168",
        "locName": "60th St & Paul Bunyan Trail",
        "countryCode": "US",
        "subnational1Code": "US-MN",
        "subnational2Code": "US-MN-021",
        "lat": 47.0249907,
        "lng": -94.546833,
        "latestObsDt": "2023-11-13 13:52",
        "numSpeciesAllTime": 150
    },
    {
        "locId": "L11883787",
        "locName": "650th Ave/208th St. Slough",
        "countryCode": "US",
        "subnational1Code": "US-MN",
        "subnational2Code": "US-MN-093",
        "lat": 45.0514877,
        "lng": -94.4607273,
        "latestObsDt": "2020-11-05 15:03",
        "numSpeciesAllTime": 14
    },
    {
        "locId": "L11752739",
        "locName": "708th Ave (Fanks) Slough",
        "countryCode": "US",
        "subnational1Code": "US-MN",
        "subnational2Code": "US-MN-093",
        "lat": 45.0318813,
        "lng": -94.332355,
        "latestObsDt": "2022-11-26 09:46",
        "numSpeciesAllTime": 69
    },
    {
        "locId": "L29269709",
        "locName": "80th Avenue South WPA",
        "countryCode": "US",
        "subnational1Code": "US-MN",
        "subnational2Code": "US-MN-027",
        "lat": 46.7771895,
        "lng": -96.3810772,
        "latestObsDt": "2024-02-15 11:35",
        "numSpeciesAllTime": 3
    },
    {
        "locId": "L20273590",
        "locName": "90th St Gravel Pit",
        "countryCode": "US",
        "subnational1Code": "US-MN",
        "subnational2Code": "US-MN-023",
        "lat": 44.89003,
        "lng": -95.546429,
        "latestObsDt": "2022-07-24 08:20",
        "numSpeciesAllTime": 13
    },
    {
        "locId": "L3826755",
        "locName": "A&L Sod Farm",
        "countryCode": "US",
        "subnational1Code": "US-MN",
        "subnational2Code": "US-MN-003",
        "lat": 45.2016349,
        "lng": -93.1344938,
        "latestObsDt": "2023-09-01 07:42",
        "numSpeciesAllTime": 62
    },
    {
        "locId": "L5602571",
        "locName": "ACGC High School Ponds and Campus",
        "countryCode": "US",
        "subnational1Code": "US-MN",
        "subnational2Code": "US-MN-093",
        "lat": 45.1394412,
        "lng": -94.6835661,
        "latestObsDt": "2024-02-15 16:21",
        "numSpeciesAllTime": 135
    },
    {
        "locId": "L29461378",
        "locName": "Aastad WMA",
        "countryCode": "US",
        "subnational1Code": "US-MN",
        "subnational2Code": "US-MN-111",
        "lat": 46.1511309,
        "lng": -96.0813947
    },
    {
        "locId": "L13330944",
        "locName": "Abbey Lake",
        "countryCode": "US",
        "subnational1Code": "US-MN",
        "subnational2Code": "US-MN-005",
        "lat": 46.7586686,
        "lng": -95.8263418,
        "latestObsDt": "2023-07-08 07:39",
        "numSpeciesAllTime": 5
    },
    {
        "locId": "L9468322",
        "locName": "Abbey Road near West Union, MN",
        "countryCode": "US",
        "subnational1Code": "US-MN",
        "subnational2Code": "US-MN-153",
        "lat": 45.803864,
        "lng": -95.125457,
        "latestObsDt": "2023-08-24 15:48",
        "numSpeciesAllTime": 20
    },
    {
        "locId": "L300690",
        "locName": "Acacia Park Cemetery",
        "countryCode": "US",
        "subnational1Code": "US-MN",
        "subnational2Code": "US-MN-037",
        "lat": 44.8781526,
        "lng": -93.1698398,
        "latestObsDt": "2024-02-26 16:13",
        "numSpeciesAllTime": 135
    },
    {
        "locId": "L6680268",
        "locName": "Acorn Park",
        "countryCode": "US",
        "subnational1Code": "US-MN",
        "subnational2Code": "US-MN-123",
        "lat": 45.0197614,
        "lng": -93.1130576,
        "latestObsDt": "2023-09-21 18:19",
        "numSpeciesAllTime": 40
    },
    {
        "locId": "L11959613",
        "locName": "Acton Monument Slough",
        "countryCode": "US",
        "subnational1Code": "US-MN",
        "subnational2Code": "US-MN-093",
        "lat": 45.1120964,
        "lng": -94.7160019,
        "latestObsDt": "2020-08-01 10:56",
        "numSpeciesAllTime": 24
    },
    {
        "locId": "L8595655",
        "locName": "Ada (town)",
        "countryCode": "US",
        "subnational1Code": "US-MN",
        "subnational2Code": "US-MN-107",
        "lat": 47.2994682,
        "lng": -96.5182651,
        "latestObsDt": "2023-10-06 12:30",
        "numSpeciesAllTime": 32
    },
    {
        "locId": "L357870",
        "locName": "Ada WTP",
        "countryCode": "US",
        "subnational1Code": "US-MN",
        "subnational2Code": "US-MN-107",
        "lat": 47.2795493,
        "lng": -96.516695,
        "latestObsDt": "2023-10-16 09:54",
        "numSpeciesAllTime": 124
    },
    {
        "locId": "L3735894",
        "locName": "Ada/Twin Valley Airport",
        "countryCode": "US",
        "subnational1Code": "US-MN",
        "subnational2Code": "US-MN-107",
        "lat": 47.2610224,
        "lng": -96.4008021,
        "latestObsDt": "2022-05-27 13:00",
        "numSpeciesAllTime": 31
    },
    {
        "locId": "L29366351",
        "locName": "Adeline Nature Area/Schaper Park",
        "countryCode": "US",
        "subnational1Code": "US-MN",
        "subnational2Code": "US-MN-053",
        "lat": 44.988003,
        "lng": -93.343572,
        "latestObsDt": "2024-02-17 17:15",
        "numSpeciesAllTime": 1
    },
    {
        "locId": "L5278356",
        "locName": "Afton Marina/Steamboat Park",
        "countryCode": "US",
        "subnational1Code": "US-MN",
        "subnational2Code": "US-MN-163",
        "lat": 44.8998669,
        "lng": -92.7794002,
        "latestObsDt": "2024-02-26 09:16",
        "numSpeciesAllTime": 151
    },
    {
        "locId": "L355485",
        "locName": "Afton SP",
        "countryCode": "US",
        "subnational1Code": "US-MN",
        "subnational2Code": "US-MN-163",
        "lat": 44.8554802,
        "lng": -92.7749723,
        "latestObsDt": "2024-02-25 14:34",
        "numSpeciesAllTime": 229
    },
    {
        "locId": "L1152224",
        "locName": "Agassiz Audubon Sanctuary",
        "countryCode": "US",
        "subnational1Code": "US-MN",
        "subnational2Code": "US-MN-119",
        "lat": 48.1519893,
        "lng": -96.6409564,
        "latestObsDt": "2024-01-31 11:17",
        "numSpeciesAllTime": 214
    },
    {
        "locId": "L19870575",
        "locName": "Agassiz Beachline WPA",
        "countryCode": "US",
        "subnational1Code": "US-MN",
        "subnational2Code": "US-MN-111",
        "lat": 46.2916457,
        "lng": -96.2406167,
        "latestObsDt": "2023-10-04 19:15",
        "numSpeciesAllTime": 11
    },
    {
        "locId": "L374428",
        "locName": "Agassiz Dunes SNA (Norman Co.)",
        "countryCode": "US",
        "subnational1Code": "US-MN",
        "subnational2Code": "US-MN-107",
        "lat": 47.497778,
        "lng": -96.3099289,
        "latestObsDt": "2023-05-20 08:00",
        "numSpeciesAllTime": 61
    },
    {
        "locId": "L374426",
        "locName": "Agassiz Dunes SNA (Polk Co.)",
        "countryCode": "US",
        "subnational1Code": "US-MN",
        "subnational2Code": "US-MN-119",
        "lat": 47.5132588,
        "lng": -96.2910461,
        "latestObsDt": "2023-10-18 13:53",
        "numSpeciesAllTime": 128
    },
    {
        "locId": "L2215941",
        "locName": "Agassiz Environmental Learning Center",
        "countryCode": "US",
        "subnational1Code": "US-MN",
        "subnational2Code": "US-MN-119",
        "lat": 47.5305315,
        "lng": -96.2963676,
        "latestObsDt": "2023-09-14 14:30",
        "numSpeciesAllTime": 104
    },
    {
        "locId": "L151758",
        "locName": "Agassiz NWR",
        "countryCode": "US",
        "subnational1Code": "US-MN",
        "subnational2Code": "US-MN-089",
        "lat": 48.3504,
        "lng": -95.9501,
        "latestObsDt": "2024-02-25 15:31",
        "numSpeciesAllTime": 269
    },
    {
        "locId": "L6126379",
        "locName": "Agassiz NWR--Farmes Pool",
        "countryCode": "US",
        "subnational1Code": "US-MN",
        "subnational2Code": "US-MN-089",
        "lat": 48.2718827,
        "lng": -96.0384464,
        "latestObsDt": "2024-02-25 10:33",
        "numSpeciesAllTime": 136
    },
    {
        "locId": "L6126283",
        "locName": "Agassiz NWR--Habitat Dr",
        "countryCode": "US",
        "subnational1Code": "US-MN",
        "subnational2Code": "US-MN-089",
        "lat": 48.3369678,
        "lng": -96.018877,
        "latestObsDt": "2023-09-12 14:04",
        "numSpeciesAllTime": 156
    },
    {
        "locId": "L7300218",
        "locName": "Agassiz NWR--Headquarters Trail",
        "countryCode": "US",
        "subnational1Code": "US-MN",
        "subnational2Code": "US-MN-089",
        "lat": 48.3021162,
        "lng": -95.9800386,
        "latestObsDt": "2023-10-15 08:13",
        "numSpeciesAllTime": 219
    },
    {
        "locId": "L6126355",
        "locName": "Agassiz NWR--Lansing Parker Pool",
        "countryCode": "US",
        "subnational1Code": "US-MN",
        "subnational2Code": "US-MN-089",
        "lat": 48.2977554,
        "lng": -96.0306787,
        "latestObsDt": "2023-09-09 11:51",
        "numSpeciesAllTime": 159
    },
    {
        "locId": "L1226218",
        "locName": "Agassiz Valley (Marshall Co.)",
        "countryCode": "US",
        "subnational1Code": "US-MN",
        "subnational2Code": "US-MN-089",
        "lat": 48.1806579,
        "lng": -96.6525006,
        "latestObsDt": "2024-02-26 17:14",
        "numSpeciesAllTime": 205
    },
    {
        "locId": "L2965626",
        "locName": "Agassiz Valley (Polk Co.)",
        "countryCode": "US",
        "subnational1Code": "US-MN",
        "subnational2Code": "US-MN-119",
        "lat": 48.17067,
        "lng": -96.64324,
        "latestObsDt": "2024-02-25 08:48",
        "numSpeciesAllTime": 228
    },
    {
        "locId": "L363672",
        "locName": "Agassiz-Olson WMA",
        "countryCode": "US",
        "subnational1Code": "US-MN",
        "subnational2Code": "US-MN-107",
        "lat": 47.4448075,
        "lng": -96.3961029,
        "latestObsDt": "2023-07-08 15:16",
        "numSpeciesAllTime": 165
    },
    {
        "locId": "L17267718",
        "locName": "Airlake Airport",
        "countryCode": "US",
        "subnational1Code": "US-MN",
        "subnational2Code": "US-MN-037",
        "lat": 44.6287409,
        "lng": -93.2275772,
        "latestObsDt": "2024-02-18 11:55",
        "numSpeciesAllTime": 13
    },
    {
        "locId": "L25937738",
        "locName": "Aitkin Campground and Boat Launch",
        "countryCode": "US",
        "subnational1Code": "US-MN",
        "subnational2Code": "US-MN-001",
        "lat": 46.5415526,
        "lng": -93.7124456,
        "latestObsDt": "2024-01-16 14:31",
        "numSpeciesAllTime": 31
    },
    {
        "locId": "L958473",
        "locName": "Aitkin Co. Hwy 18 & 5",
        "countryCode": "US",
        "subnational1Code": "US-MN",
        "subnational2Code": "US-MN-001",
        "lat": 46.825465,
        "lng": -93.4856486,
        "latestObsDt": "2024-02-17 09:33",
        "numSpeciesAllTime": 143
    },
    {
        "locId": "L1202877",
        "locName": "Aitkin Co. Twp Rd 380 (450th St)",
        "countryCode": "US",
        "subnational1Code": "US-MN",
        "subnational2Code": "US-MN-001",
        "lat": 46.6674625,
        "lng": -93.5130501,
        "latestObsDt": "2024-02-17 13:14",
        "numSpeciesAllTime": 111
    },
    {
        "locId": "L4600289",
        "locName": "Akeley WTP",
        "countryCode": "US",
        "subnational1Code": "US-MN",
        "subnational2Code": "US-MN-057",
        "lat": 46.9950801,
        "lng": -94.7113699,
        "latestObsDt": "2023-07-13 09:41",
        "numSpeciesAllTime": 126
    },
    {
        "locId": "L507464",
        "locName": "Albany (town)",
        "countryCode": "US",
        "subnational1Code": "US-MN",
        "subnational2Code": "US-MN-145",
        "lat": 45.6313937,
        "lng": -94.5697269,
        "latestObsDt": "2023-08-26 18:02",
        "numSpeciesAllTime": 154
    },
    {
        "locId": "L1334680",
        "locName": "Albany Ave. Marsh",
        "countryCode": "US",
        "subnational1Code": "US-MN",
        "subnational2Code": "US-MN-131",
        "lat": 44.4724527,
        "lng": -93.2866159,
        "latestObsDt": "2023-11-24 15:31",
        "numSpeciesAllTime": 43
    },
    {
        "locId": "L2169526",
        "locName": "Albany WTP",
        "countryCode": "US",
        "subnational1Code": "US-MN",
        "subnational2Code": "US-MN-145",
        "lat": 45.6161987,
        "lng": -94.5830154,
        "latestObsDt": "2023-12-26 12:20",
        "numSpeciesAllTime": 218
    },
    {
        "locId": "L1396988",
        "locName": "Albers Park",
        "countryCode": "US",
        "subnational1Code": "US-MN",
        "subnational2Code": "US-MN-131",
        "lat": 44.4622897,
        "lng": -93.3037918,
        "latestObsDt": "2023-11-11 09:27",
        "numSpeciesAllTime": 100
    },
    {
        "locId": "L20125439",
        "locName": "Albert Lea Welcome Center",
        "countryCode": "US",
        "subnational1Code": "US-MN",
        "subnational2Code": "US-MN-047",
        "lat": 43.5157532,
        "lng": -93.3530149,
        "latestObsDt": "2024-02-23 09:59",
        "numSpeciesAllTime": 53
    },
    {
        "locId": "L1666022",
        "locName": "Alberta Marsh WMA",
        "countryCode": "US",
        "subnational1Code": "US-MN",
        "subnational2Code": "US-MN-149",
        "lat": 45.5094561,
        "lng": -96.0593001,
        "latestObsDt": "2023-06-05 07:54",
        "numSpeciesAllTime": 85
    },
    {
        "locId": "L3834399",
        "locName": "Albertville WTP",
        "countryCode": "US",
        "subnational1Code": "US-MN",
        "subnational2Code": "US-MN-171",
        "lat": 45.24083,
        "lng": -93.64542,
        "latestObsDt": "2023-11-19 13:59",
        "numSpeciesAllTime": 121
    },
    {
        "locId": "L12489021",
        "locName": "Albion Lake",
        "countryCode": "US",
        "subnational1Code": "US-MN",
        "subnational2Code": "US-MN-171",
        "lat": 45.2164228,
        "lng": -94.0759136,
        "latestObsDt": "2023-04-29 12:00",
        "numSpeciesAllTime": 12
    },
    {
        "locId": "L3724888",
        "locName": "Albion WMA",
        "countryCode": "US",
        "subnational1Code": "US-MN",
        "subnational2Code": "US-MN-171",
        "lat": 45.2246202,
        "lng": -94.1160536,
        "latestObsDt": "2023-10-07 12:24",
        "numSpeciesAllTime": 176
    },
    {
        "locId": "L29392684",
        "locName": "Albright Mills County Park",
        "countryCode": "US",
        "subnational1Code": "US-MN",
        "subnational2Code": "US-MN-171",
        "lat": 45.1247767,
        "lng": -94.113543
    },
    {
        "locId": "L17406501",
        "locName": "Alder Road",
        "countryCode": "US",
        "subnational1Code": "US-MN",
        "subnational2Code": "US-MN-061",
        "lat": 47.5267404,
        "lng": -93.7261394,
        "latestObsDt": "2023-10-28 16:30",
        "numSpeciesAllTime": 47
    },
    {
        "locId": "L2907976",
        "locName": "Alesches' Accomodations",
        "countryCode": "US",
        "subnational1Code": "US-MN",
        "subnational2Code": "US-MN-137",
        "lat": 47.1396221,
        "lng": -92.7890371,
        "latestObsDt": "2024-02-25 07:34",
        "numSpeciesAllTime": 121
    },
    {
        "locId": "L23361500",
        "locName": "Alexander Park",
        "countryCode": "US",
        "subnational1Code": "US-MN",
        "subnational2Code": "US-MN-145",
        "lat": 45.455409,
        "lng": -94.423588,
        "latestObsDt": "2023-12-02 12:19",
        "numSpeciesAllTime": 16
    },
    {
        "locId": "L5801932",
        "locName": "Alexander Ramsey Park / Cansayapi",
        "countryCode": "US",
        "subnational1Code": "US-MN",
        "subnational2Code": "US-MN-127",
        "lat": 44.550662,
        "lng": -95.1252079,
        "latestObsDt": "2024-02-03 08:57",
        "numSpeciesAllTime": 140
    },
    {
        "locId": "L17558724",
        "locName": "Alexandria City Park",
        "countryCode": "US",
        "subnational1Code": "US-MN",
        "subnational2Code": "US-MN-041",
        "lat": 45.8982737,
        "lng": -95.3711043,
        "latestObsDt": "2023-07-24 08:52",
        "numSpeciesAllTime": 26
    },
    {
        "locId": "L6946854",
        "locName": "Alfsborg WMA",
        "countryCode": "US",
        "subnational1Code": "US-MN",
        "subnational2Code": "US-MN-143",
        "lat": 44.5183407,
        "lng": -94.3675007,
        "latestObsDt": "2024-01-28 15:44",
        "numSpeciesAllTime": 3
    },
    {
        "locId": "L2721283",
        "locName": "Alimagnet Lake Park",
        "countryCode": "US",
        "subnational1Code": "US-MN",
        "subnational2Code": "US-MN-037",
        "lat": 44.7428927,
        "lng": -93.2511377,
        "latestObsDt": "2023-09-23 09:26",
        "numSpeciesAllTime": 158
    },
    {
        "locId": "L7339764",
        "locName": "Allemansrätt Wilderness Park",
        "countryCode": "US",
        "subnational1Code": "US-MN",
        "subnational2Code": "US-MN-025",
        "lat": 45.401497,
        "lng": -92.840709,
        "latestObsDt": "2023-10-22 08:50",
        "numSpeciesAllTime": 158
    },
    {
        "locId": "L29460013",
        "locName": "Allen WMA & Barry Lake WPA",
        "countryCode": "US",
        "subnational1Code": "US-MN",
        "subnational2Code": "US-MN-011",
        "lat": 45.5614511,
        "lng": -96.5761561
    },
    {
        "locId": "L9389457",
        "locName": "Alm Park",
        "countryCode": "US",
        "subnational1Code": "US-MN",
        "subnational2Code": "US-MN-027",
        "lat": 46.860661,
        "lng": -96.778715,
        "latestObsDt": "2023-06-07 10:42",
        "numSpeciesAllTime": 38
    },
    {
        "locId": "L7323462",
        "locName": "Alvey Trail",
        "countryCode": "US",
        "subnational1Code": "US-MN",
        "subnational2Code": "US-MN-131",
        "lat": 44.3307095,
        "lng": -93.2753634,
        "latestObsDt": "2021-05-09 10:24",
        "numSpeciesAllTime": 65
    },
    {
        "locId": "L29392517",
        "locName": "Amber Lake",
        "countryCode": "US",
        "subnational1Code": "US-MN",
        "subnational2Code": "US-MN-091",
        "lat": 43.6068887,
        "lng": -94.4719801
    },
    {
        "locId": "L11035372",
        "locName": "Amboy Marsh",
        "countryCode": "US",
        "subnational1Code": "US-MN",
        "subnational2Code": "US-MN-013",
        "lat": 43.885024,
        "lng": -94.142909,
        "latestObsDt": "2020-05-15 14:49",
        "numSpeciesAllTime": 11
    },
    {
        "locId": "L7493718",
        "locName": "Ambush Park",
        "countryCode": "US",
        "subnational1Code": "US-MN",
        "subnational2Code": "US-MN-151",
        "lat": 45.3219861,
        "lng": -95.6179512,
        "latestObsDt": "2023-11-11 10:10",
        "numSpeciesAllTime": 79
    },
    {
        "locId": "L654625",
        "locName": "American Legion Memorial Park",
        "countryCode": "US",
        "subnational1Code": "US-MN",
        "subnational2Code": "US-MN-061",
        "lat": 47.2481543,
        "lng": -93.5495174,
        "latestObsDt": "2023-11-04 17:11",
        "numSpeciesAllTime": 51
    },
    {
        "locId": "L5222925",
        "locName": "Ames Crossing Rd",
        "countryCode": "US",
        "subnational1Code": "US-MN",
        "subnational2Code": "US-MN-037",
        "lat": 44.8533007,
        "lng": -93.1109717,
        "latestObsDt": "2024-02-05 14:39",
        "numSpeciesAllTime": 123
    },
    {
        "locId": "L15502312",
        "locName": "Amiret WMA",
        "countryCode": "US",
        "subnational1Code": "US-MN",
        "subnational2Code": "US-MN-083",
        "lat": 44.358821,
        "lng": -95.67697,
        "latestObsDt": "2021-06-23 05:03",
        "numSpeciesAllTime": 1
    },
    {
        "locId": "L12086478",
        "locName": "Anchor Inn Resort",
        "countryCode": "US",
        "subnational1Code": "US-MN",
        "subnational2Code": "US-MN-061",
        "lat": 47.6557044,
        "lng": -94.0350723,
        "latestObsDt": "2020-08-21 11:00",
        "numSpeciesAllTime": 23
    },
    {
        "locId": "L2055855",
        "locName": "Anchor Lake Rest Area",
        "countryCode": "US",
        "subnational1Code": "US-MN",
        "subnational2Code": "US-MN-137",
        "lat": 47.319625,
        "lng": -92.4702501,
        "latestObsDt": "2024-02-10 07:13",
        "numSpeciesAllTime": 59
    },
    {
        "locId": "L868742",
        "locName": "Anchor Matson Rd.",
        "countryCode": "US",
        "subnational1Code": "US-MN",
        "subnational2Code": "US-MN-029",
        "lat": 47.23414,
        "lng": -95.3023624,
        "latestObsDt": "2022-06-16 09:15",
        "numSpeciesAllTime": 61
    },
    {
        "locId": "L29392845",
        "locName": "Anderson Lake County Park",
        "countryCode": "US",
        "subnational1Code": "US-MN",
        "subnational2Code": "US-MN-129",
        "lat": 44.4972418,
        "lng": -94.8543932
    },
    {
        "locId": "L3916966",
        "locName": "Anderson Lakes Park Reserve",
        "countryCode": "US",
        "subnational1Code": "US-MN",
        "subnational2Code": "US-MN-053",
        "lat": 44.8376362,
        "lng": -93.4020925,
        "latestObsDt": "2024-02-24 14:00",
        "numSpeciesAllTime": 158
    },
    {
        "locId": "L660257",
        "locName": "Anderson Park",
        "countryCode": "US",
        "subnational1Code": "US-MN",
        "subnational2Code": "US-MN-063",
        "lat": 43.5274555,
        "lng": -95.1204228,
        "latestObsDt": "2023-11-18 15:20",
        "numSpeciesAllTime": 128
    },
    {
        "locId": "L375473",
        "locName": "Angle Inlet ",
        "countryCode": "US",
        "subnational1Code": "US-MN",
        "subnational2Code": "US-MN-077",
        "lat": 49.3465499,
        "lng": -95.0625193,
        "latestObsDt": "2023-06-22 09:10",
        "numSpeciesAllTime": 72
    },
    {
        "locId": "L7946410",
        "locName": "Angle Inlet School",
        "countryCode": "US",
        "subnational1Code": "US-MN",
        "subnational2Code": "US-MN-077",
        "lat": 49.352652,
        "lng": -95.081839,
        "latestObsDt": "2022-10-07 10:12",
        "numSpeciesAllTime": 14
    },
    {
        "locId": "L23807868",
        "locName": "Angus-Oslo #4 Impoundment",
        "countryCode": "US",
        "subnational1Code": "US-MN",
        "subnational2Code": "US-MN-119",
        "lat": 48.1056505,
        "lng": -96.5592083,
        "latestObsDt": "2024-02-25 14:38",
        "numSpeciesAllTime": 86
    },
    {
        "locId": "L26877700",
        "locName": "Ann Lake Public Boat Access",
        "countryCode": "US",
        "subnational1Code": "US-MN",
        "subnational2Code": "US-MN-065",
        "lat": 45.900589,
        "lng": -93.427645,
        "latestObsDt": "2024-02-20 09:14",
        "numSpeciesAllTime": 30
    },
    {
        "locId": "L20744637",
        "locName": "Ann Lake WMA",
        "countryCode": "US",
        "subnational1Code": "US-MN",
        "subnational2Code": "US-MN-065",
        "lat": 45.932271,
        "lng": -93.37517,
        "latestObsDt": "2023-08-17 12:50",
        "numSpeciesAllTime": 59
    },
    {
        "locId": "L3936870",
        "locName": "Anna Gronseth Prairie",
        "countryCode": "US",
        "subnational1Code": "US-MN",
        "subnational2Code": "US-MN-167",
        "lat": 46.42764,
        "lng": -96.33124,
        "latestObsDt": "2023-07-12 11:52",
        "numSpeciesAllTime": 75
    },
    {
        "locId": "L20458010",
        "locName": "Annandale Municipal Park",
        "countryCode": "US",
        "subnational1Code": "US-MN",
        "subnational2Code": "US-MN-171",
        "lat": 45.267519,
        "lng": -94.125201,
        "latestObsDt": "2024-01-17 16:36",
        "numSpeciesAllTime": 40
    },
    {
        "locId": "L21022608",
        "locName": "Annandale Rec. Park",
        "countryCode": "US",
        "subnational1Code": "US-MN",
        "subnational2Code": "US-MN-171",
        "lat": 45.262623,
        "lng": -94.10148,
        "latestObsDt": "2023-10-12 09:00",
        "numSpeciesAllTime": 50
    },
    {
        "locId": "L1326101",
        "locName": "Anoka Nature Preserve",
        "countryCode": "US",
        "subnational1Code": "US-MN",
        "subnational2Code": "US-MN-003",
        "lat": 45.2337549,
        "lng": -93.3903237,
        "latestObsDt": "2024-02-03 09:15",
        "numSpeciesAllTime": 127
    },
    {
        "locId": "L21344958",
        "locName": "Antelope Valley SNA",
        "countryCode": "US",
        "subnational1Code": "US-MN",
        "subnational2Code": "US-MN-173",
        "lat": 44.6792223,
        "lng": -96.1182311,
        "latestObsDt": "2023-09-24 10:43",
        "numSpeciesAllTime": 9
    },
    {
        "locId": "L14023088",
        "locName": "Antlers Park",
        "countryCode": "US",
        "subnational1Code": "US-MN",
        "subnational2Code": "US-MN-037",
        "lat": 44.6569909,
        "lng": -93.2626728,
        "latestObsDt": "2023-12-15 09:50",
        "numSpeciesAllTime": 75
    },
    {
        "locId": "L5005067",
        "locName": "Antonich Soccer Field",
        "countryCode": "US",
        "subnational1Code": "US-MN",
        "subnational2Code": "US-MN-075",
        "lat": 47.0366359,
        "lng": -91.6739881,
        "latestObsDt": "2023-10-28 11:39",
        "numSpeciesAllTime": 31
    },
    {
        "locId": "L26443662",
        "locName": "Arbor Lake",
        "countryCode": "US",
        "subnational1Code": "US-MN",
        "subnational2Code": "US-MN-053",
        "lat": 45.0969682,
        "lng": -93.4387228,
        "latestObsDt": "2024-01-31 10:27",
        "numSpeciesAllTime": 48
    },
    {
        "locId": "L10945575",
        "locName": "Arbor Meadows Park",
        "countryCode": "US",
        "subnational1Code": "US-MN",
        "subnational2Code": "US-MN-163",
        "lat": 44.826249,
        "lng": -92.909913,
        "latestObsDt": "2021-12-06 08:21",
        "numSpeciesAllTime": 38
    },
    {
        "locId": "L6576194",
        "locName": "Arcola Bluffs Day Use Area",
        "countryCode": "US",
        "subnational1Code": "US-MN",
        "subnational2Code": "US-MN-163",
        "lat": 45.1191943,
        "lng": -92.7543554,
        "latestObsDt": "2024-02-04 15:23",
        "numSpeciesAllTime": 124
    },
    {
        "locId": "L7427428",
        "locName": "Arden Hills Army Training Site (restricted access)",
        "countryCode": "US",
        "subnational1Code": "US-MN",
        "subnational2Code": "US-MN-123",
        "lat": 45.0831552,
        "lng": -93.1642857,
        "latestObsDt": "2023-09-29 10:08",
        "numSpeciesAllTime": 169
    },
    {
        "locId": "L7156530",
        "locName": "Arden Park",
        "countryCode": "US",
        "subnational1Code": "US-MN",
        "subnational2Code": "US-MN-053",
        "lat": 44.9073426,
        "lng": -93.3345544,
        "latestObsDt": "2024-02-26 08:17",
        "numSpeciesAllTime": 151
    },
    {
        "locId": "L723486",
        "locName": "Arkola Rd (Stickney - Owl)",
        "countryCode": "US",
        "subnational1Code": "US-MN",
        "subnational2Code": "US-MN-137",
        "lat": 47.1673097,
        "lng": -92.6859856,
        "latestObsDt": "2024-02-11 07:34",
        "numSpeciesAllTime": 106
    },
    {
        "locId": "L8095893",
        "locName": "Armstrong Wetland Restoration (Private Property — Road Viewing Only)",
        "countryCode": "US",
        "subnational1Code": "US-MN",
        "subnational2Code": "US-MN-147",
        "lat": 44.1456457,
        "lng": -93.0661988,
        "latestObsDt": "2024-02-26 17:20",
        "numSpeciesAllTime": 202
    },
    {
        "locId": "L7377544",
        "locName": "Arrowhead Point County Park",
        "countryCode": "US",
        "subnational1Code": "US-MN",
        "subnational2Code": "US-MN-047",
        "lat": 43.73601,
        "lng": -93.568952,
        "latestObsDt": "2023-06-17 13:25",
        "numSpeciesAllTime": 169
    },
    {
        "locId": "L864894",
        "locName": "Arthur V. Rohweder Memorial Hwy Wayside",
        "countryCode": "US",
        "subnational1Code": "US-MN",
        "subnational2Code": "US-MN-075",
        "lat": 46.947567,
        "lng": -91.7919946,
        "latestObsDt": "2024-02-24 09:54",
        "numSpeciesAllTime": 71
    },
    {
        "locId": "L18610375",
        "locName": "Artichoke Lake",
        "countryCode": "US",
        "subnational1Code": "US-MN",
        "subnational2Code": "US-MN-011",
        "lat": 45.383605,
        "lng": -96.148627,
        "latestObsDt": "2022-06-25 16:39",
        "numSpeciesAllTime": 30
    },
    {
        "locId": "L14430496",
        "locName": "Artichoke Lake WPA",
        "countryCode": "US",
        "subnational1Code": "US-MN",
        "subnational2Code": "US-MN-151",
        "lat": 45.3307889,
        "lng": -96.1077118,
        "latestObsDt": "2021-04-11 15:34",
        "numSpeciesAllTime": 2
    },
    {
        "locId": "L16174004",
        "locName": "Artichoke WPA",
        "countryCode": "US",
        "subnational1Code": "US-MN",
        "subnational2Code": "US-MN-011",
        "lat": 45.3787676,
        "lng": -96.1609225,
        "latestObsDt": "2024-02-17 12:09",
        "numSpeciesAllTime": 98
    },
    {
        "locId": "L657192",
        "locName": "Artz WMA",
        "countryCode": "US",
        "subnational1Code": "US-MN",
        "subnational2Code": "US-MN-063",
        "lat": 43.7007061,
        "lng": -94.9248791,
        "latestObsDt": "1993-05-03 00:00",
        "numSpeciesAllTime": 8
    },
    {
        "locId": "L18419868",
        "locName": "Arvig Park",
        "countryCode": "US",
        "subnational1Code": "US-MN",
        "subnational2Code": "US-MN-111",
        "lat": 46.603445,
        "lng": -95.5690626,
        "latestObsDt": "2024-02-04 13:03",
        "numSpeciesAllTime": 24
    },
    {
        "locId": "L8989776",
        "locName": "Ash Creek Farm Ponds",
        "countryCode": "US",
        "subnational1Code": "US-MN",
        "subnational2Code": "US-MN-133",
        "lat": 43.5224933,
        "lng": -96.1934008,
        "latestObsDt": "2022-04-15 13:20",
        "numSpeciesAllTime": 126
    },
    {
        "locId": "L29461447",
        "locName": "Ash Lake / Shuck WMA",
        "countryCode": "US",
        "subnational1Code": "US-MN",
        "subnational2Code": "US-MN-051",
        "lat": 46.0514813,
        "lng": -96.1427866
    },
    {
        "locId": "L5645335",
        "locName": "Ash Lake WMA",
        "countryCode": "US",
        "subnational1Code": "US-MN",
        "subnational2Code": "US-MN-081",
        "lat": 44.4242794,
        "lng": -96.2944794,
        "latestObsDt": "2023-09-24 12:46",
        "numSpeciesAllTime": 142
    },
    {
        "locId": "L27261302",
        "locName": "Ashmore WPA",
        "countryCode": "US",
        "subnational1Code": "US-MN",
        "subnational2Code": "US-MN-027",
        "lat": 47.0389803,
        "lng": -96.2525051,
        "latestObsDt": "2023-09-26 11:00",
        "numSpeciesAllTime": 1
    },
    {
        "locId": "L5782006",
        "locName": "Assumption Lake WMA",
        "countryCode": "US",
        "subnational1Code": "US-MN",
        "subnational2Code": "US-MN-019",
        "lat": 44.6915711,
        "lng": -93.8812247,
        "latestObsDt": "2023-08-13 07:41",
        "numSpeciesAllTime": 76
    },
    {
        "locId": "L21400975",
        "locName": "Atherton WMA",
        "countryCode": "US",
        "subnational1Code": "US-MN",
        "subnational2Code": "US-MN-167",
        "lat": 46.5494666,
        "lng": -96.4457788,
        "latestObsDt": "2024-02-25 16:49",
        "numSpeciesAllTime": 22
    },
    {
        "locId": "L7913607",
        "locName": "Atwater WTP",
        "countryCode": "US",
        "subnational1Code": "US-MN",
        "subnational2Code": "US-MN-067",
        "lat": 45.1342562,
        "lng": -94.7633316,
        "latestObsDt": "2023-08-29 11:33",
        "numSpeciesAllTime": 78
    },
    {
        "locId": "L470476",
        "locName": "Audubon Center of the North Woods",
        "countryCode": "US",
        "subnational1Code": "US-MN",
        "subnational2Code": "US-MN-115",
        "lat": 46.3089957,
        "lng": -92.878418,
        "latestObsDt": "2020-02-16 10:00",
        "numSpeciesAllTime": 76
    },
    {
        "locId": "L656321",
        "locName": "Audubon Center of the North Woods",
        "countryCode": "US",
        "subnational1Code": "US-MN",
        "subnational2Code": "US-MN-115",
        "lat": 46.123396,
        "lng": -93.0013302,
        "latestObsDt": "2024-02-26 15:19",
        "numSpeciesAllTime": 137
    },
    {
        "locId": "L2912944",
        "locName": "Audubon Center of the North Woods--Wetlands",
        "countryCode": "US",
        "subnational1Code": "US-MN",
        "subnational2Code": "US-MN-115",
        "lat": 46.1231407,
        "lng": -92.9901052,
        "latestObsDt": "2023-08-10 11:20",
        "numSpeciesAllTime": 67
    },
    {
        "locId": "L26789547",
        "locName": "Audubon Park",
        "countryCode": "US",
        "subnational1Code": "US-MN",
        "subnational2Code": "US-MN-053",
        "lat": 45.0199958,
        "lng": -93.239859,
        "latestObsDt": "2024-02-18 15:08",
        "numSpeciesAllTime": 10
    },
    {
        "locId": "L3651547",
        "locName": "Ault  and Penkava Marshes",
        "countryCode": "US",
        "subnational1Code": "US-MN",
        "subnational2Code": "US-MN-099",
        "lat": 43.730068,
        "lng": -93.0198123,
        "latestObsDt": "2023-09-10 13:28",
        "numSpeciesAllTime": 144
    },
    {
        "locId": "L22305712",
        "locName": "Aurora WMA",
        "countryCode": "US",
        "subnational1Code": "US-MN",
        "subnational2Code": "US-MN-147",
        "lat": 43.9643926,
        "lng": -93.1356451,
        "latestObsDt": "2024-02-25 09:21",
        "numSpeciesAllTime": 10
    },
    {
        "locId": "L632581",
        "locName": "Auto Club Park (Formerly Isaak Walton Club Park)",
        "countryCode": "US",
        "subnational1Code": "US-MN",
        "subnational2Code": "US-MN-053",
        "lat": 44.7924041,
        "lng": -93.3689833,
        "latestObsDt": "2023-12-16 14:49",
        "numSpeciesAllTime": 133
    },
    {
        "locId": "L7495081",
        "locName": "Avon Hills SNA--North Parking",
        "countryCode": "US",
        "subnational1Code": "US-MN",
        "subnational2Code": "US-MN-145",
        "lat": 45.6366119,
        "lng": -94.5007287,
        "latestObsDt": "2023-04-28 12:25",
        "numSpeciesAllTime": 100
    },
    {
        "locId": "L971965",
        "locName": "BWCA Bald Eagle Lake",
        "countryCode": "US",
        "subnational1Code": "US-MN",
        "subnational2Code": "US-MN-075",
        "lat": 47.828081,
        "lng": -91.5510035,
        "latestObsDt": "2023-09-01 06:32",
        "numSpeciesAllTime": 78
    },
    {
        "locId": "L1433152",
        "locName": "BWCA Basswood Lake--Pipestone Bay",
        "countryCode": "US",
        "subnational1Code": "US-MN",
        "subnational2Code": "US-MN-075",
        "lat": 48.0198965,
        "lng": -91.7041041,
        "latestObsDt": "2023-06-04 13:57",
        "numSpeciesAllTime": 114
    },
    {
        "locId": "L3929479",
        "locName": "BWCA Brant Lake",
        "countryCode": "US",
        "subnational1Code": "US-MN",
        "subnational2Code": "US-MN-031",
        "lat": 48.0683294,
        "lng": -90.8691645,
        "latestObsDt": "2023-07-24 10:15",
        "numSpeciesAllTime": 76
    },
    {
        "locId": "L16365527",
        "locName": "BWCA Brule Lake",
        "countryCode": "US",
        "subnational1Code": "US-MN",
        "subnational2Code": "US-MN-031",
        "lat": 47.9427954,
        "lng": -90.6844,
        "latestObsDt": "2023-06-10 12:11",
        "numSpeciesAllTime": 60
    },
    {
        "locId": "L17891413",
        "locName": "BWCA Caribou Lake",
        "countryCode": "US",
        "subnational1Code": "US-MN",
        "subnational2Code": "US-MN-031",
        "lat": 48.0241749,
        "lng": -90.5138377,
        "latestObsDt": "2023-08-30 22:59",
        "numSpeciesAllTime": 45
    },
    {
        "locId": "L1433172",
        "locName": "BWCA Crooked Lake--Pictographs",
        "countryCode": "US",
        "subnational1Code": "US-MN",
        "subnational2Code": "US-MN-075",
        "lat": 48.133032,
        "lng": -91.7010118,
        "latestObsDt": "2019-05-19 00:00",
        "numSpeciesAllTime": 18
    },
    {
        "locId": "L11744477",
        "locName": "BWCA Duncan Lake",
        "countryCode": "US",
        "subnational1Code": "US-MN",
        "subnational2Code": "US-MN-031",
        "lat": 48.0788529,
        "lng": -90.4608801,
        "latestObsDt": "2021-09-26 09:11",
        "numSpeciesAllTime": 45
    },
    {
        "locId": "L1915805",
        "locName": "BWCA Fairy Lake",
        "countryCode": "US",
        "subnational1Code": "US-MN",
        "subnational2Code": "US-MN-137",
        "lat": 48.1061703,
        "lng": -91.8276787,
        "latestObsDt": "2009-08-05 00:00",
        "numSpeciesAllTime": 6
    },
    {
        "locId": "L1433146",
        "locName": "BWCA Fall Lake/Newton Lake Portage",
        "countryCode": "US",
        "subnational1Code": "US-MN",
        "subnational2Code": "US-MN-075",
        "lat": 47.9703587,
        "lng": -91.7217026,
        "latestObsDt": "2023-10-04 10:37",
        "numSpeciesAllTime": 47
    },
    {
        "locId": "L1915812",
        "locName": "BWCA Fourtown Lake",
        "countryCode": "US",
        "subnational1Code": "US-MN",
        "subnational2Code": "US-MN-075",
        "lat": 48.0879413,
        "lng": -91.7880249,
        "latestObsDt": "2019-08-06 00:00",
        "numSpeciesAllTime": 51
    },
    {
        "locId": "L1901655",
        "locName": "BWCA Fourtown Lake--North Arm",
        "countryCode": "US",
        "subnational1Code": "US-MN",
        "subnational2Code": "US-MN-075",
        "lat": 48.0940141,
        "lng": -91.7893372,
        "latestObsDt": "1993-05-22 00:00",
        "numSpeciesAllTime": 3
    },
    {
        "locId": "L1915801",
        "locName": "BWCA Fourtown Lake--South",
        "countryCode": "US",
        "subnational1Code": "US-MN",
        "subnational2Code": "US-MN-137",
        "lat": 48.0773191,
        "lng": -91.8030989,
        "latestObsDt": "2023-08-20 11:40",
        "numSpeciesAllTime": 11
    },
    {
        "locId": "L16365711",
        "locName": "BWCA Gaskin Lake",
        "countryCode": "US",
        "subnational1Code": "US-MN",
        "subnational2Code": "US-MN-031",
        "lat": 48.003896,
        "lng": -90.5472957,
        "latestObsDt": "2023-09-05 10:00",
        "numSpeciesAllTime": 33
    },
    {
        "locId": "L1901606",
        "locName": "BWCA Harmon Lake",
        "countryCode": "US",
        "subnational1Code": "US-MN",
        "subnational2Code": "US-MN-075",
        "lat": 48.1393157,
        "lng": -91.0810898,
        "latestObsDt": "2020-07-06 07:30",
        "numSpeciesAllTime": 35
    },
    {
        "locId": "L7538536",
        "locName": "BWCA Horseshoe Lake",
        "countryCode": "US",
        "subnational1Code": "US-MN",
        "subnational2Code": "US-MN-031",
        "lat": 48.0126469,
        "lng": -90.4925065,
        "latestObsDt": "2020-09-14 10:00",
        "numSpeciesAllTime": 23
    },
    {
        "locId": "L3890617",
        "locName": "BWCA Isabella Lake",
        "countryCode": "US",
        "subnational1Code": "US-MN",
        "subnational2Code": "US-MN-075",
        "lat": 47.8139615,
        "lng": -91.2835979,
        "latestObsDt": "2023-06-23 14:56",
        "numSpeciesAllTime": 61
    },
    {
        "locId": "L11993536",
        "locName": "BWCA Jasper Lake",
        "countryCode": "US",
        "subnational1Code": "US-MN",
        "subnational2Code": "US-MN-031",
        "lat": 48.1140634,
        "lng": -91.0114339,
        "latestObsDt": "2023-05-20 05:05",
        "numSpeciesAllTime": 57
    },
    {
        "locId": "L4683879",
        "locName": "BWCA Kelso Lake",
        "countryCode": "US",
        "subnational1Code": "US-MN",
        "subnational2Code": "US-MN-031",
        "lat": 47.8971683,
        "lng": -90.9014046,
        "latestObsDt": "2023-09-04 10:07",
        "numSpeciesAllTime": 55
    },
    {
        "locId": "L1900405",
        "locName": "BWCA Lake Four",
        "countryCode": "US",
        "subnational1Code": "US-MN",
        "subnational2Code": "US-MN-075",
        "lat": 47.9016841,
        "lng": -91.4185022,
        "latestObsDt": "2023-07-28 11:15",
        "numSpeciesAllTime": 72
    },
    {
        "locId": "L1899594",
        "locName": "BWCA Lake Insula",
        "countryCode": "US",
        "subnational1Code": "US-MN",
        "subnational2Code": "US-MN-075",
        "lat": 47.9186894,
        "lng": -91.2870954,
        "latestObsDt": "2020-09-30 12:02",
        "numSpeciesAllTime": 96
    },
    {
        "locId": "L6246050",
        "locName": "BWCA Lakes One, Two, Three and Four",
        "countryCode": "US",
        "subnational1Code": "US-MN",
        "subnational2Code": "US-MN-075",
        "lat": 47.900923,
        "lng": -91.4504528,
        "latestObsDt": "2023-09-13 06:00",
        "numSpeciesAllTime": 96
    },
    {
        "locId": "L9370948",
        "locName": "BWCA Little Indian Sioux",
        "countryCode": "US",
        "subnational1Code": "US-MN",
        "subnational2Code": "US-MN-137",
        "lat": 48.1496439,
        "lng": -92.2094106,
        "latestObsDt": "2023-06-26 12:00",
        "numSpeciesAllTime": 82
    },
    {
        "locId": "L1433161",
        "locName": "BWCA Lower Basswood Falls",
        "countryCode": "US",
        "subnational1Code": "US-MN",
        "subnational2Code": "US-MN-075",
        "lat": 48.1128972,
        "lng": -91.7115583,
        "latestObsDt": "2022-07-01 06:40",
        "numSpeciesAllTime": 70
    },
    {
        "locId": "L1899587",
        "locName": "BWCA Malberg Lake",
        "countryCode": "US",
        "subnational1Code": "US-MN",
        "subnational2Code": "US-MN-075",
        "lat": 47.9515576,
        "lng": -91.1206697,
        "latestObsDt": "2021-06-15 00:00",
        "numSpeciesAllTime": 45
    },
    {
        "locId": "L7538584",
        "locName": "BWCA Meeds Lake",
        "countryCode": "US",
        "subnational1Code": "US-MN",
        "subnational2Code": "US-MN-031",
        "lat": 48.030099,
        "lng": -90.5481248,
        "latestObsDt": "2022-06-07 15:48",
        "numSpeciesAllTime": 31
    },
    {
        "locId": "L9969007",
        "locName": "BWCA North Kawishiwi",
        "countryCode": "US",
        "subnational1Code": "US-MN",
        "subnational2Code": "US-MN-075",
        "lat": 47.9043548,
        "lng": -91.7151471,
        "latestObsDt": "2023-06-16 11:15",
        "numSpeciesAllTime": 30
    },
    {
        "locId": "L8676781",
        "locName": "BWCA Parent Lake",
        "countryCode": "US",
        "subnational1Code": "US-MN",
        "subnational2Code": "US-MN-075",
        "lat": 47.962691,
        "lng": -91.3934651,
        "latestObsDt": "2023-08-13 08:00",
        "numSpeciesAllTime": 48
    },
    {
        "locId": "L1900419",
        "locName": "BWCA Perent Lake",
        "countryCode": "US",
        "subnational1Code": "US-MN",
        "subnational2Code": "US-MN-075",
        "lat": 47.7936544,
        "lng": -91.1123873,
        "latestObsDt": "2023-05-29 07:22",
        "numSpeciesAllTime": 88
    },
    {
        "locId": "L7753860",
        "locName": "BWCA Pipe Lake",
        "countryCode": "US",
        "subnational1Code": "US-MN",
        "subnational2Code": "US-MN-031",
        "lat": 47.8849524,
        "lng": -90.7249597,
        "latestObsDt": "2023-08-04 07:29",
        "numSpeciesAllTime": 13
    },
    {
        "locId": "L3929472",
        "locName": "BWCA Powell Lake",
        "countryCode": "US",
        "subnational1Code": "US-MN",
        "subnational2Code": "US-MN-031",
        "lat": 48.0615715,
        "lng": -90.9624195,
        "latestObsDt": "2018-09-26 13:11",
        "numSpeciesAllTime": 28
    },
    {
        "locId": "L1900410",
        "locName": "BWCA Rice Lake",
        "countryCode": "US",
        "subnational1Code": "US-MN",
        "subnational2Code": "US-MN-075",
        "lat": 47.8178472,
        "lng": -91.3694287,
        "latestObsDt": "2009-08-03 00:00",
        "numSpeciesAllTime": 23
    },
    {
        "locId": "L11744336",
        "locName": "BWCA Rose Lake (US)",
        "countryCode": "US",
        "subnational1Code": "US-MN",
        "subnational2Code": "US-MN-031",
        "lat": 48.0990905,
        "lng": -90.4303201,
        "latestObsDt": "2022-09-11 10:00",
        "numSpeciesAllTime": 30
    },
    {
        "locId": "L1901605",
        "locName": "BWCA Saganaga Lake--Southwest Arm (US)",
        "countryCode": "US",
        "subnational1Code": "US-MN",
        "subnational2Code": "US-MN-075",
        "lat": 48.1874384,
        "lng": -91.0327242,
        "latestObsDt": "2021-08-02 09:00",
        "numSpeciesAllTime": 63
    },
    {
        "locId": "L5513028",
        "locName": "BWCA Shell Lake",
        "countryCode": "US",
        "subnational1Code": "US-MN",
        "subnational2Code": "US-MN-137",
        "lat": 48.19996,
        "lng": -92.21306,
        "latestObsDt": "2022-05-28 20:29",
        "numSpeciesAllTime": 55
    },
    {
        "locId": "L1901610",
        "locName": "BWCA South Arm Knife Lake",
        "countryCode": "US",
        "subnational1Code": "US-MN",
        "subnational2Code": "US-MN-075",
        "lat": 48.1202061,
        "lng": -91.0984705,
        "latestObsDt": "2023-08-30 16:19",
        "numSpeciesAllTime": 57
    },
    {
        "locId": "L1901514",
        "locName": "BWCA Sucker Lake",
        "countryCode": "US",
        "subnational1Code": "US-MN",
        "subnational2Code": "US-MN-075",
        "lat": 48.0378649,
        "lng": -91.4242978,
        "latestObsDt": "2023-08-09 08:12",
        "numSpeciesAllTime": 45
    },
    {
        "locId": "L1915808",
        "locName": "BWCA Thunder Lake",
        "countryCode": "US",
        "subnational1Code": "US-MN",
        "subnational2Code": "US-MN-137",
        "lat": 48.1432961,
        "lng": -91.860466,
        "latestObsDt": "2020-07-15 10:00",
        "numSpeciesAllTime": 38
    },
    {
        "locId": "L3929470",
        "locName": "BWCA Tuscarora Lake",
        "countryCode": "US",
        "subnational1Code": "US-MN",
        "subnational2Code": "US-MN-031",
        "lat": 48.0420747,
        "lng": -90.8809662,
        "latestObsDt": "2023-09-09 08:01",
        "numSpeciesAllTime": 80
    },
    {
        "locId": "L16365703",
        "locName": "BWCA Winchell Lake",
        "countryCode": "US",
        "subnational1Code": "US-MN",
        "subnational2Code": "US-MN-031",
        "lat": 47.9910743,
        "lng": -90.6031345,
        "latestObsDt": "2023-08-14 00:00",
        "numSpeciesAllTime": 47
    },
    {
        "locId": "L9902893",
        "locName": "BWCA, 41 Island, Lac La Croix",
        "countryCode": "US",
        "subnational1Code": "US-MN",
        "subnational2Code": "US-MN-137",
        "lat": 48.3424017,
        "lng": -92.2098644,
        "latestObsDt": "2022-09-09 06:39",
        "numSpeciesAllTime": 26
    },
    {
        "locId": "L2113611",
        "locName": "Babcock Park",
        "countryCode": "US",
        "subnational1Code": "US-MN",
        "subnational2Code": "US-MN-141",
        "lat": 45.292309,
        "lng": -93.5590124,
        "latestObsDt": "2024-02-21 11:34",
        "numSpeciesAllTime": 121
    },
    {
        "locId": "L29461254",
        "locName": "Badger Lake",
        "countryCode": "US",
        "subnational1Code": "US-MN",
        "subnational2Code": "US-MN-119",
        "lat": 47.6780287,
        "lng": -96.0085488
    },
    {
        "locId": "L15065980",
        "locName": "Badger Lake WMA",
        "countryCode": "US",
        "subnational1Code": "US-MN",
        "subnational2Code": "US-MN-101",
        "lat": 43.920953,
        "lng": -95.731103,
        "latestObsDt": "2021-05-15 17:52",
        "numSpeciesAllTime": 1
    },
    {
        "locId": "L21344994",
        "locName": "Badoura Jack Pine Woodland SNA",
        "countryCode": "US",
        "subnational1Code": "US-MN",
        "subnational2Code": "US-MN-057",
        "lat": 46.8668825,
        "lng": -94.6938886,
        "latestObsDt": "2023-06-24 10:41",
        "numSpeciesAllTime": 21
    },
    {
        "locId": "L6340785",
        "locName": "Bagley Sewage Ponds",
        "countryCode": "US",
        "subnational1Code": "US-MN",
        "subnational2Code": "US-MN-029",
        "lat": 47.5225914,
        "lng": -95.3790092,
        "latestObsDt": "2024-02-26 14:21",
        "numSpeciesAllTime": 122
    },
    {
        "locId": "L4791356",
        "locName": "Bah Lakes WPA",
        "countryCode": "US",
        "subnational1Code": "US-MN",
        "subnational2Code": "US-MN-051",
        "lat": 46.027876,
        "lng": -95.770744,
        "latestObsDt": "2023-08-26 18:30",
        "numSpeciesAllTime": 25
    },
    {
        "locId": "L4843266",
        "locName": "Bailey Lake",
        "countryCode": "US",
        "subnational1Code": "US-MN",
        "subnational2Code": "US-MN-137",
        "lat": 47.5274599,
        "lng": -92.5388718,
        "latestObsDt": "2024-02-16 16:18",
        "numSpeciesAllTime": 105
    },
    {
        "locId": "L7117451",
        "locName": "Bailey Point Nature Preserve",
        "countryCode": "US",
        "subnational1Code": "US-MN",
        "subnational2Code": "US-MN-141",
        "lat": 45.3008825,
        "lng": -93.5729975,
        "latestObsDt": "2024-02-22 10:25",
        "numSpeciesAllTime": 145
    },
    {
        "locId": "L17821271",
        "locName": "Bailey School Forest Park",
        "countryCode": "US",
        "subnational1Code": "US-MN",
        "subnational2Code": "US-MN-163",
        "lat": 44.8823379,
        "lng": -92.985591,
        "latestObsDt": "2023-09-16 19:52",
        "numSpeciesAllTime": 7
    },
    {
        "locId": "L256147",
        "locName": "Baker Park Reserve",
        "countryCode": "US",
        "subnational1Code": "US-MN",
        "subnational2Code": "US-MN-053",
        "lat": 45.007191,
        "lng": -93.6157503,
        "latestObsDt": "2024-02-25 15:09",
        "numSpeciesAllTime": 204
    },
    {
        "locId": "L9088638",
        "locName": "Balaton Memorial Park",
        "countryCode": "US",
        "subnational1Code": "US-MN",
        "subnational2Code": "US-MN-083",
        "lat": 44.2389516,
        "lng": -95.8678134,
        "latestObsDt": "2023-12-13 15:48",
        "numSpeciesAllTime": 48
    },
    {
        "locId": "L21345030",
        "locName": "Bald Eagle Bluff SNA",
        "countryCode": "US",
        "subnational1Code": "US-MN",
        "subnational2Code": "US-MN-157",
        "lat": 44.4092178,
        "lng": -92.1057263,
        "latestObsDt": "2023-06-03 12:27",
        "numSpeciesAllTime": 30
    },
    {
        "locId": "L5129495",
        "locName": "Bald Eagle Lake (Ramsey County)",
        "countryCode": "US",
        "subnational1Code": "US-MN",
        "subnational2Code": "US-MN-123",
        "lat": 45.1124212,
        "lng": -93.0151463,
        "latestObsDt": "2024-01-01 15:50",
        "numSpeciesAllTime": 130
    },
    {
        "locId": "L5131873",
        "locName": "Bald Eagle Lake (Washington County)",
        "countryCode": "US",
        "subnational1Code": "US-MN",
        "subnational2Code": "US-MN-163",
        "lat": 45.1321568,
        "lng": -93.0177319,
        "latestObsDt": "2023-11-01 10:33",
        "numSpeciesAllTime": 42
    },
    {
        "locId": "L5399934",
        "locName": "Baldwin Lake Trails",
        "countryCode": "US",
        "subnational1Code": "US-MN",
        "subnational2Code": "US-MN-003",
        "lat": 45.1451341,
        "lng": -93.1377983,
        "latestObsDt": "2024-02-12 08:30",
        "numSpeciesAllTime": 130
    },
    {
        "locId": "L23807413",
        "locName": "Balke Lake WPA",
        "countryCode": "US",
        "subnational1Code": "US-MN",
        "subnational2Code": "US-MN-005",
        "lat": 46.9998657,
        "lng": -96.0768986,
        "latestObsDt": "2023-07-30 12:59",
        "numSpeciesAllTime": 15
    },
    {
        "locId": "L654585",
        "locName": "Balsam-Deer Islands WMA",
        "countryCode": "US",
        "subnational1Code": "US-MN",
        "subnational2Code": "US-MN-061",
        "lat": 47.3776621,
        "lng": -93.6479759,
        "latestObsDt": "2019-08-03 07:32",
        "numSpeciesAllTime": 18
    },
    {
        "locId": "L9279120",
        "locName": "Bancroft Bay Park",
        "countryCode": "US",
        "subnational1Code": "US-MN",
        "subnational2Code": "US-MN-047",
        "lat": 43.6728383,
        "lng": -93.3770084,
        "latestObsDt": "2024-01-14 09:53",
        "numSpeciesAllTime": 135
    },
    {
        "locId": "L1305275",
        "locName": "Banks WMA",
        "countryCode": "US",
        "subnational1Code": "US-MN",
        "subnational2Code": "US-MN-033",
        "lat": 43.8714776,
        "lng": -95.038476,
        "latestObsDt": "2023-09-11 06:45",
        "numSpeciesAllTime": 91
    },
    {
        "locId": "L1797479",
        "locName": "Banning SP",
        "countryCode": "US",
        "subnational1Code": "US-MN",
        "subnational2Code": "US-MN-115",
        "lat": 46.1757234,
        "lng": -92.8509598,
        "latestObsDt": "2024-02-26 09:57",
        "numSpeciesAllTime": 148
    },
    {
        "locId": "L23669256",
        "locName": "Barbara Savanick Park",
        "countryCode": "US",
        "subnational1Code": "US-MN",
        "subnational2Code": "US-MN-037",
        "lat": 44.7460379,
        "lng": -93.1635507,
        "latestObsDt": "2024-01-04 15:40",
        "numSpeciesAllTime": 27
    },
    {
        "locId": "L684365",
        "locName": "Barn Bluff",
        "countryCode": "US",
        "subnational1Code": "US-MN",
        "subnational2Code": "US-MN-049",
        "lat": 44.569926,
        "lng": -92.5270271,
        "latestObsDt": "2023-09-25 17:14",
        "numSpeciesAllTime": 107
    },
    {
        "locId": "L20578484",
        "locName": "Barnesville (town)",
        "countryCode": "US",
        "subnational1Code": "US-MN",
        "subnational2Code": "US-MN-027",
        "lat": 46.6533578,
        "lng": -96.4200929,
        "latestObsDt": "2024-02-26 08:03",
        "numSpeciesAllTime": 101
    },
    {
        "locId": "L21223564",
        "locName": "Barnesville WMA",
        "countryCode": "US",
        "subnational1Code": "US-MN",
        "subnational2Code": "US-MN-027",
        "lat": 46.7027719,
        "lng": -96.3035654,
        "latestObsDt": "2023-11-02 16:49",
        "numSpeciesAllTime": 49
    },
    {
        "locId": "L635859",
        "locName": "Barnesville WTP",
        "countryCode": "US",
        "subnational1Code": "US-MN",
        "subnational2Code": "US-MN-027",
        "lat": 46.6493183,
        "lng": -96.4334822,
        "latestObsDt": "2023-11-17 16:51",
        "numSpeciesAllTime": 91
    },
    {
        "locId": "L9703037",
        "locName": "Barnum City Park",
        "countryCode": "US",
        "subnational1Code": "US-MN",
        "subnational2Code": "US-MN-017",
        "lat": 46.502765,
        "lng": -92.689886,
        "latestObsDt": "2023-05-20 10:50",
        "numSpeciesAllTime": 26
    },
    {
        "locId": "L4788144",
        "locName": "Barsness Park",
        "countryCode": "US",
        "subnational1Code": "US-MN",
        "subnational2Code": "US-MN-121",
        "lat": 45.6401522,
        "lng": -95.3763799,
        "latestObsDt": "2024-02-24 08:44",
        "numSpeciesAllTime": 117
    },
    {
        "locId": "L1919708",
        "locName": "Bartlet Lake",
        "countryCode": "US",
        "subnational1Code": "US-MN",
        "subnational2Code": "US-MN-169",
        "lat": 44.0750379,
        "lng": -91.6979456,
        "latestObsDt": "2023-08-27 10:30",
        "numSpeciesAllTime": 128
    },
    {
        "locId": "L17747886",
        "locName": "Bartsh Lake",
        "countryCode": "US",
        "subnational1Code": "US-MN",
        "subnational2Code": "US-MN-033",
        "lat": 43.992149,
        "lng": -95.0322269,
        "latestObsDt": "2022-02-09 11:12",
        "numSpeciesAllTime": 5
    },
    {
        "locId": "L16930281",
        "locName": "Bashaw WMA",
        "countryCode": "US",
        "subnational1Code": "US-MN",
        "subnational2Code": "US-MN-015",
        "lat": 44.148675,
        "lng": -94.941064,
        "latestObsDt": "2024-01-28 14:50",
        "numSpeciesAllTime": 12
    },
    {
        "locId": "L654587",
        "locName": "Bass Brook WMA",
        "countryCode": "US",
        "subnational1Code": "US-MN",
        "subnational2Code": "US-MN-061",
        "lat": 47.2480086,
        "lng": -93.5961771,
        "latestObsDt": "2024-02-13 15:45",
        "numSpeciesAllTime": 108
    },
    {
        "locId": "L28094377",
        "locName": "Bass Creek Park",
        "countryCode": "US",
        "subnational1Code": "US-MN",
        "subnational2Code": "US-MN-053",
        "lat": 45.0756269,
        "lng": -93.3928227,
        "latestObsDt": "2023-12-16 13:24",
        "numSpeciesAllTime": 10
    },
    {
        "locId": "L24908978",
        "locName": "Bass Lake (Annandale)",
        "countryCode": "US",
        "subnational1Code": "US-MN",
        "subnational2Code": "US-MN-171",
        "lat": 45.322337,
        "lng": -94.101661,
        "latestObsDt": "2023-07-23 16:57",
        "numSpeciesAllTime": 27
    },
    {
        "locId": "L2803829",
        "locName": "Bass Lake (Faribault Co.)",
        "countryCode": "US",
        "subnational1Code": "US-MN",
        "subnational2Code": "US-MN-043",
        "lat": 43.8204708,
        "lng": -94.0780735,
        "latestObsDt": "2023-09-06 08:56",
        "numSpeciesAllTime": 58
    },
    {
        "locId": "L19923925",
        "locName": "Bass Lake County Park",
        "countryCode": "US",
        "subnational1Code": "US-MN",
        "subnational2Code": "US-MN-061",
        "lat": 47.792729,
        "lng": -93.4077622,
        "latestObsDt": "2022-11-27 09:00",
        "numSpeciesAllTime": 40
    },
    {
        "locId": "L4377497",
        "locName": "Bass Lake Preserve",
        "countryCode": "US",
        "subnational1Code": "US-MN",
        "subnational2Code": "US-MN-053",
        "lat": 44.9401216,
        "lng": -93.3361638,
        "latestObsDt": "2024-02-26 13:20",
        "numSpeciesAllTime": 165
    },
    {
        "locId": "L3119829",
        "locName": "Bass Lake Trails",
        "countryCode": "US",
        "subnational1Code": "US-MN",
        "subnational2Code": "US-MN-137",
        "lat": 47.9583106,
        "lng": -91.8634701,
        "latestObsDt": "2023-12-23 12:03",
        "numSpeciesAllTime": 104
    },
    {
        "locId": "L1252506",
        "locName": "Bassett Creek Park",
        "countryCode": "US",
        "subnational1Code": "US-MN",
        "subnational2Code": "US-MN-053",
        "lat": 45.0120254,
        "lng": -93.35392,
        "latestObsDt": "2024-02-25 15:36",
        "numSpeciesAllTime": 143
    },
    {
        "locId": "L1430669",
        "locName": "Bassett Creek--Mallard Creek Apartments",
        "countryCode": "US",
        "subnational1Code": "US-MN",
        "subnational2Code": "US-MN-053",
        "lat": 44.987672,
        "lng": -93.3874592,
        "latestObsDt": "2023-05-06 13:42",
        "numSpeciesAllTime": 58
    },
    {
        "locId": "L6961177",
        "locName": "Bassett's Creek Park",
        "countryCode": "US",
        "subnational1Code": "US-MN",
        "subnational2Code": "US-MN-053",
        "lat": 44.979371,
        "lng": -93.3111763,
        "latestObsDt": "2023-10-15 11:00",
        "numSpeciesAllTime": 71
    },
    {
        "locId": "L7185545",
        "locName": "Bassett's Creek Playground",
        "countryCode": "US",
        "subnational1Code": "US-MN",
        "subnational2Code": "US-MN-053",
        "lat": 44.9784829,
        "lng": -93.313058,
        "latestObsDt": "2024-02-04 16:00",
        "numSpeciesAllTime": 116
    },
    {
        "locId": "L28031212",
        "locName": "Basswood Park",
        "countryCode": "US",
        "subnational1Code": "US-MN",
        "subnational2Code": "US-MN-053",
        "lat": 45.0735886,
        "lng": -93.4754035
    },
    {
        "locId": "L360158",
        "locName": "Bat Lake / Delft WMA",
        "countryCode": "US",
        "subnational1Code": "US-MN",
        "subnational2Code": "US-MN-033",
        "lat": 43.9719,
        "lng": -95.0758,
        "latestObsDt": "2024-01-01 13:02",
        "numSpeciesAllTime": 105
    },
    {
        "locId": "L2235838",
        "locName": "Battle Creek Park--West",
        "countryCode": "US",
        "subnational1Code": "US-MN",
        "subnational2Code": "US-MN-123",
        "lat": 44.9374939,
        "lng": -93.0120134,
        "latestObsDt": "2024-02-25 07:52",
        "numSpeciesAllTime": 176
    },
    {
        "locId": "L1152918",
        "locName": "Battle Creek Park--east",
        "countryCode": "US",
        "subnational1Code": "US-MN",
        "subnational2Code": "US-MN-123",
        "lat": 44.9369845,
        "lng": -92.9970145,
        "latestObsDt": "2024-02-26 12:00",
        "numSpeciesAllTime": 179
    },
    {
        "locId": "L22262227",
        "locName": "Battle Lake",
        "countryCode": "US",
        "subnational1Code": "US-MN",
        "subnational2Code": "US-MN-071",
        "lat": 47.8708757,
        "lng": -94.3413362,
        "latestObsDt": "2018-10-05 00:00",
        "numSpeciesAllTime": 5
    },
    {
        "locId": "L11958601",
        "locName": "Battle Point Park",
        "countryCode": "US",
        "subnational1Code": "US-MN",
        "subnational2Code": "US-MN-153",
        "lat": 45.9313349,
        "lng": -95.0987008,
        "latestObsDt": "2023-08-16 15:58",
        "numSpeciesAllTime": 98
    },
    {
        "locId": "L892593",
        "locName": "Battleground State Forest",
        "countryCode": "US",
        "subnational1Code": "US-MN",
        "subnational2Code": "US-MN-021",
        "lat": 47.2011436,
        "lng": -94.2383194,
        "latestObsDt": "2022-04-23 13:00",
        "numSpeciesAllTime": 59
    },
    {
        "locId": "L6254293",
        "locName": "Baudette WTP",
        "countryCode": "US",
        "subnational1Code": "US-MN",
        "subnational2Code": "US-MN-077",
        "lat": 48.7203916,
        "lng": -94.5992846,
        "latestObsDt": "2023-05-19 16:30",
        "numSpeciesAllTime": 74
    },
    {
        "locId": "L361881",
        "locName": "Baudette--Rice Paddies Area",
        "countryCode": "US",
        "subnational1Code": "US-MN",
        "subnational2Code": "US-MN-077",
        "lat": 48.526624,
        "lng": -94.5497239,
        "latestObsDt": "2023-02-08 10:31",
        "numSpeciesAllTime": 78
    },
    {
        "locId": "L5733586",
        "locName": "Baugh St. Pond (Isanti Co.)",
        "countryCode": "US",
        "subnational1Code": "US-MN",
        "subnational2Code": "US-MN-059",
        "lat": 45.6232674,
        "lng": -93.5049605,
        "latestObsDt": "2023-10-24 15:30",
        "numSpeciesAllTime": 51
    },
    {
        "locId": "L21526401",
        "locName": "Bauman WPA",
        "countryCode": "US",
        "subnational1Code": "US-MN",
        "subnational2Code": "US-MN-011",
        "lat": 45.4538284,
        "lng": -96.4544955,
        "latestObsDt": "2023-11-22 10:08",
        "numSpeciesAllTime": 29
    },
    {
        "locId": "L1395955",
        "locName": "Bay Point Park",
        "countryCode": "US",
        "subnational1Code": "US-MN",
        "subnational2Code": "US-MN-049",
        "lat": 44.5660937,
        "lng": -92.5460757,
        "latestObsDt": "2024-02-21 12:00",
        "numSpeciesAllTime": 112
    },
    {
        "locId": "L5718062",
        "locName": "Baylor Regional Park",
        "countryCode": "US",
        "subnational1Code": "US-MN",
        "subnational2Code": "US-MN-019",
        "lat": 44.8104004,
        "lng": -93.9404869,
        "latestObsDt": "2024-01-07 14:53",
        "numSpeciesAllTime": 160
    },
    {
        "locId": "L5686653",
        "locName": "Bayport WMA--North Unit",
        "countryCode": "US",
        "subnational1Code": "US-MN",
        "subnational2Code": "US-MN-163",
        "lat": 45.0242054,
        "lng": -92.8124893,
        "latestObsDt": "2024-02-01 08:01",
        "numSpeciesAllTime": 47
    },
    {
        "locId": "L3561775",
        "locName": "Bayport WMA--South Unit",
        "countryCode": "US",
        "subnational1Code": "US-MN",
        "subnational2Code": "US-MN-163",
        "lat": 44.9874,
        "lng": -92.79358,
        "latestObsDt": "2023-06-03 08:15",
        "numSpeciesAllTime": 35
    },
    {
        "locId": "L267687",
        "locName": "Bayside Park",
        "countryCode": "US",
        "subnational1Code": "US-MN",
        "subnational2Code": "US-MN-075",
        "lat": 47.26931,
        "lng": -91.2768,
        "latestObsDt": "2023-12-22 10:40",
        "numSpeciesAllTime": 129
    },
    {
        "locId": "L15014153",
        "locName": "Bayview WTP",
        "countryCode": "US",
        "subnational1Code": "US-MN",
        "subnational2Code": "US-MN-095",
        "lat": 46.1235301,
        "lng": -93.588649,
        "latestObsDt": "2021-05-19 13:12",
        "numSpeciesAllTime": 8
    },
    {
        "locId": "L358400",
        "locName": "Bde Maka Ska",
        "countryCode": "US",
        "subnational1Code": "US-MN",
        "subnational2Code": "US-MN-053",
        "lat": 44.9411696,
        "lng": -93.3118629,
        "latestObsDt": "2024-02-23 16:20",
        "numSpeciesAllTime": 185
    },
    {
        "locId": "L9508797",
        "locName": "Beaches Lake WMA",
        "countryCode": "US",
        "subnational1Code": "US-MN",
        "subnational2Code": "US-MN-069",
        "lat": 48.8262584,
        "lng": -96.4479528,
        "latestObsDt": "2022-09-29 15:30",
        "numSpeciesAllTime": 78
    },
    {
        "locId": "L9375848",
        "locName": "Bean Dam WMA",
        "countryCode": "US",
        "subnational1Code": "US-MN",
        "subnational2Code": "US-MN-065",
        "lat": 46.1003395,
        "lng": -93.1816718,
        "latestObsDt": "2021-04-10 12:31",
        "numSpeciesAllTime": 32
    },
    {
        "locId": "L18171841",
        "locName": "Bean Lake",
        "countryCode": "US",
        "subnational1Code": "US-MN",
        "subnational2Code": "US-MN-033",
        "lat": 44.071492,
        "lng": -95.374187,
        "latestObsDt": "2022-03-19 10:05",
        "numSpeciesAllTime": 8
    },
    {
        "locId": "L151699",
        "locName": "Bear Cave Park",
        "countryCode": "US",
        "subnational1Code": "US-MN",
        "subnational2Code": "US-MN-109",
        "lat": 43.859795,
        "lng": -92.50004,
        "latestObsDt": "2024-02-17 13:53",
        "numSpeciesAllTime": 103
    },
    {
        "locId": "L1167687",
        "locName": "Bear Head Lake SP",
        "countryCode": "US",
        "subnational1Code": "US-MN",
        "subnational2Code": "US-MN-137",
        "lat": 47.7945047,
        "lng": -92.0787656,
        "latestObsDt": "2023-10-22 09:07",
        "numSpeciesAllTime": 134
    },
    {
        "locId": "L2170666",
        "locName": "Bear Island Lake -- Northeast Bay",
        "countryCode": "US",
        "subnational1Code": "US-MN",
        "subnational2Code": "US-MN-137",
        "lat": 47.7839014,
        "lng": -91.9562101,
        "latestObsDt": "2024-02-25 10:20",
        "numSpeciesAllTime": 100
    },
    {
        "locId": "L14554268",
        "locName": "Bear Lake",
        "countryCode": "US",
        "subnational1Code": "US-MN",
        "subnational2Code": "US-MN-047",
        "lat": 43.5505872,
        "lng": -93.4992086,
        "latestObsDt": "2021-04-21 08:31",
        "numSpeciesAllTime": 16
    },
    {
        "locId": "L8119236",
        "locName": "Bear Lake (Carlton Co.)",
        "countryCode": "US",
        "subnational1Code": "US-MN",
        "subnational2Code": "US-MN-017",
        "lat": 46.5000903,
        "lng": -92.6804646,
        "latestObsDt": "2024-02-02 14:25",
        "numSpeciesAllTime": 30
    },
    {
        "locId": "L6329529",
        "locName": "Bear Lake Campground",
        "countryCode": "US",
        "subnational1Code": "US-MN",
        "subnational2Code": "US-MN-061",
        "lat": 47.6775265,
        "lng": -93.2667468,
        "latestObsDt": "2017-10-07 10:36",
        "numSpeciesAllTime": 22
    },
    {
        "locId": "L2026894",
        "locName": "Beards Plaisance",
        "countryCode": "US",
        "subnational1Code": "US-MN",
        "subnational2Code": "US-MN-053",
        "lat": 44.92072,
        "lng": -93.31354,
        "latestObsDt": "2024-01-10 12:57",
        "numSpeciesAllTime": 95
    },
    {
        "locId": "L386324",
        "locName": "Beardsley WTP",
        "countryCode": "US",
        "subnational1Code": "US-MN",
        "subnational2Code": "US-MN-011",
        "lat": 45.5653859,
        "lng": -96.6965532,
        "latestObsDt": "2022-06-04 09:09",
        "numSpeciesAllTime": 31
    },
    {
        "locId": "L11636873",
        "locName": "Bears Ear WMA",
        "countryCode": "US",
        "subnational1Code": "US-MN",
        "subnational2Code": "US-MN-115",
        "lat": 45.8063663,
        "lng": -93.0541111,
        "latestObsDt": "2023-10-25 08:22",
        "numSpeciesAllTime": 110
    },
    {
        "locId": "L10573090",
        "locName": "Bearskin Lodge Grand Marais MN",
        "countryCode": "US",
        "subnational1Code": "US-MN",
        "subnational2Code": "US-MN-031",
        "lat": 48.0350379,
        "lng": -90.4038548,
        "latestObsDt": "2023-09-15 08:20",
        "numSpeciesAllTime": 86
    },
    {
        "locId": "L267699",
        "locName": "Beaver Bay",
        "countryCode": "US",
        "subnational1Code": "US-MN",
        "subnational2Code": "US-MN-075",
        "lat": 47.26009,
        "lng": -91.29609,
        "latestObsDt": "2023-12-29 12:30",
        "numSpeciesAllTime": 123
    },
    {
        "locId": "L267698",
        "locName": "Beaver Bay WTP",
        "countryCode": "US",
        "subnational1Code": "US-MN",
        "subnational2Code": "US-MN-075",
        "lat": 47.26792,
        "lng": -91.31245,
        "latestObsDt": "2023-11-22 13:09",
        "numSpeciesAllTime": 164
    },
    {
        "locId": "L252665",
        "locName": "Beaver Creek Valley State Park",
        "countryCode": "US",
        "subnational1Code": "US-MN",
        "subnational2Code": "US-MN-055",
        "lat": 43.6434452,
        "lng": -91.5816564,
        "latestObsDt": "2024-02-04 11:47",
        "numSpeciesAllTime": 169
    },
    {
        "locId": "L385432",
        "locName": "Beaver Creek WMA",
        "countryCode": "US",
        "subnational1Code": "US-MN",
        "subnational2Code": "US-MN-045",
        "lat": 43.5315004,
        "lng": -92.4054909,
        "latestObsDt": "2023-09-08 10:54",
        "numSpeciesAllTime": 90
    },
    {
        "locId": "L4542086",
        "locName": "Beaver Creek WMA",
        "countryCode": "US",
        "subnational1Code": "US-MN",
        "subnational2Code": "US-MN-101",
        "lat": 44.0705517,
        "lng": -95.7012928,
        "latestObsDt": "2024-02-04 12:48",
        "numSpeciesAllTime": 91
    },
    {
        "locId": "L363263",
        "locName": "Beaver Falls County Park",
        "countryCode": "US",
        "subnational1Code": "US-MN",
        "subnational2Code": "US-MN-129",
        "lat": 44.58,
        "lng": -95.05,
        "latestObsDt": "2024-02-17 09:33",
        "numSpeciesAllTime": 120
    },
    {
        "locId": "L5544236",
        "locName": "Beaver Falls WMA",
        "countryCode": "US",
        "subnational1Code": "US-MN",
        "subnational2Code": "US-MN-129",
        "lat": 44.5744312,
        "lng": -95.0097013,
        "latestObsDt": "2023-09-30 12:10",
        "numSpeciesAllTime": 117
    },
    {
        "locId": "L6083106",
        "locName": "Beaver Island Trail",
        "countryCode": "US",
        "subnational1Code": "US-MN",
        "subnational2Code": "US-MN-145",
        "lat": 45.5428809,
        "lng": -94.1486008,
        "latestObsDt": "2024-02-26 13:29",
        "numSpeciesAllTime": 178
    },
    {
        "locId": "L2782300",
        "locName": "Beaver Lake (Ramsey Co.)",
        "countryCode": "US",
        "subnational1Code": "US-MN",
        "subnational2Code": "US-MN-123",
        "lat": 44.9763302,
        "lng": -93.0022606,
        "latestObsDt": "2023-12-10 12:39",
        "numSpeciesAllTime": 102
    },
    {
        "locId": "L2177895",
        "locName": "Becklin Homestead Park & WMA",
        "countryCode": "US",
        "subnational1Code": "US-MN",
        "subnational2Code": "US-MN-059",
        "lat": 45.5983054,
        "lng": -93.2760179,
        "latestObsDt": "2023-09-20 10:10",
        "numSpeciesAllTime": 89
    },
    {
        "locId": "L11610257",
        "locName": "Beckmans Slough",
        "countryCode": "US",
        "subnational1Code": "US-MN",
        "subnational2Code": "US-MN-093",
        "lat": 45.0433375,
        "lng": -94.3283415,
        "latestObsDt": "2021-04-03 13:48",
        "numSpeciesAllTime": 53
    },
    {
        "locId": "L380680",
        "locName": "Beebe Lake",
        "countryCode": "US",
        "subnational1Code": "US-MN",
        "subnational2Code": "US-MN-171",
        "lat": 45.1743,
        "lng": -93.7434,
        "latestObsDt": "2023-12-07 12:53",
        "numSpeciesAllTime": 96
    },
    {
        "locId": "L19196713",
        "locName": "Bejou WMA",
        "countryCode": "US",
        "subnational1Code": "US-MN",
        "subnational2Code": "US-MN-087",
        "lat": 47.430038,
        "lng": -96.0260067,
        "latestObsDt": "2023-05-24 18:15",
        "numSpeciesAllTime": 37
    },
    {
        "locId": "L3936872",
        "locName": "Belgium Prairie",
        "countryCode": "US",
        "subnational1Code": "US-MN",
        "subnational2Code": "US-MN-119",
        "lat": 47.99628,
        "lng": -96.55252,
        "latestObsDt": "2023-07-25 10:43",
        "numSpeciesAllTime": 95
    },
    {
        "locId": "L9515082",
        "locName": "Bell Museum",
        "countryCode": "US",
        "subnational1Code": "US-MN",
        "subnational2Code": "US-MN-123",
        "lat": 44.9911633,
        "lng": -93.187902,
        "latestObsDt": "2023-12-19 10:58",
        "numSpeciesAllTime": 79
    },
    {
        "locId": "L8045884",
        "locName": "Bellaire Beach",
        "countryCode": "US",
        "subnational1Code": "US-MN",
        "subnational2Code": "US-MN-123",
        "lat": 45.070806,
        "lng": -92.994954,
        "latestObsDt": "2023-12-29 15:41",
        "numSpeciesAllTime": 79
    },
    {
        "locId": "L5612930",
        "locName": "Belle Lake (Meeker Co.)",
        "countryCode": "US",
        "subnational1Code": "US-MN",
        "subnational2Code": "US-MN-093",
        "lat": 44.9938493,
        "lng": -94.423027,
        "latestObsDt": "2023-06-13 16:21",
        "numSpeciesAllTime": 81
    },
    {
        "locId": "L5752052",
        "locName": "Belle Plaine WTP",
        "countryCode": "US",
        "subnational1Code": "US-MN",
        "subnational2Code": "US-MN-139",
        "lat": 44.6263347,
        "lng": -93.7995139,
        "latestObsDt": "2024-01-21 11:10",
        "numSpeciesAllTime": 72
    },
    {
        "locId": "L152124",
        "locName": "Belle Prairie Park",
        "countryCode": "US",
        "subnational1Code": "US-MN",
        "subnational2Code": "US-MN-097",
        "lat": 46.03404,
        "lng": -94.33595,
        "latestObsDt": "2024-02-18 11:37",
        "numSpeciesAllTime": 111
    },
    {
        "locId": "L15725165",
        "locName": "Bellechester WTP",
        "countryCode": "US",
        "subnational1Code": "US-MN",
        "subnational2Code": "US-MN-157",
        "lat": 44.365494,
        "lng": -92.505973,
        "latestObsDt": "2021-07-11 08:50",
        "numSpeciesAllTime": 3
    },
    {
        "locId": "L21339756",
        "locName": "Bellmore WPA",
        "countryCode": "US",
        "subnational1Code": "US-MN",
        "subnational2Code": "US-MN-167",
        "lat": 46.6111043,
        "lng": -96.3332178,
        "latestObsDt": "2023-08-26 19:36",
        "numSpeciesAllTime": 11
    },
    {
        "locId": "L23870459",
        "locName": "Belmont Park",
        "countryCode": "US",
        "subnational1Code": "US-MN",
        "subnational2Code": "US-MN-037",
        "lat": 44.763393,
        "lng": -93.234613,
        "latestObsDt": "2023-12-03 15:00",
        "numSpeciesAllTime": 28
    },
    {
        "locId": "L660389",
        "locName": "Belmont Park",
        "countryCode": "US",
        "subnational1Code": "US-MN",
        "subnational2Code": "US-MN-063",
        "lat": 43.7157519,
        "lng": -95.0388086,
        "latestObsDt": "2023-11-18 08:42",
        "numSpeciesAllTime": 64
    },
    {
        "locId": "L2601777",
        "locName": "Below Sartell Dam",
        "countryCode": "US",
        "subnational1Code": "US-MN",
        "subnational2Code": "US-MN-145",
        "lat": 45.6189078,
        "lng": -94.2037926,
        "latestObsDt": "2024-01-20 09:46",
        "numSpeciesAllTime": 32
    },
    {
        "locId": "L6248671",
        "locName": "Beltrami Island SF (LOTW Co.)",
        "countryCode": "US",
        "subnational1Code": "US-MN",
        "subnational2Code": "US-MN-077",
        "lat": 48.7414839,
        "lng": -95.0620794,
        "latestObsDt": "2023-05-13 21:02",
        "numSpeciesAllTime": 121
    },
    {
        "locId": "L376847",
        "locName": "Beltrami Island SF (Roseau Co.)",
        "countryCode": "US",
        "subnational1Code": "US-MN",
        "subnational2Code": "US-MN-135",
        "lat": 48.7354743,
        "lng": -95.1330185,
        "latestObsDt": "2023-11-18 11:11",
        "numSpeciesAllTime": 154
    },
    {
        "locId": "L12408822",
        "locName": "Beltrami Island SF--Blueberry Hill CG",
        "countryCode": "US",
        "subnational1Code": "US-MN",
        "subnational2Code": "US-MN-077",
        "lat": 48.7856729,
        "lng": -95.0358689,
        "latestObsDt": "2023-12-12 11:15",
        "numSpeciesAllTime": 37
    },
    {
        "locId": "L19457347",
        "locName": "Beltrami Island SF—Bemis Hill CG",
        "countryCode": "US",
        "subnational1Code": "US-MN",
        "subnational2Code": "US-MN-135",
        "lat": 48.7113958,
        "lng": -95.4605591,
        "latestObsDt": "2023-09-16 15:22",
        "numSpeciesAllTime": 65
    },
    {
        "locId": "L25801759",
        "locName": "Belwin Conservancy--Oxbow Trails",
        "countryCode": "US",
        "subnational1Code": "US-MN",
        "subnational2Code": "US-MN-163",
        "lat": 44.9135399,
        "lng": -92.7794008,
        "latestObsDt": "2024-02-22 09:25",
        "numSpeciesAllTime": 100
    },
    {
        "locId": "L7504010",
        "locName": "Belwin Conservancy—Stagecoach Prairie",
        "countryCode": "US",
        "subnational1Code": "US-MN",
        "subnational2Code": "US-MN-163",
        "lat": 44.937217,
        "lng": -92.796323,
        "latestObsDt": "2024-02-20 07:57",
        "numSpeciesAllTime": 98
    },
    {
        "locId": "L4700908",
        "locName": "Belwin North Unit",
        "countryCode": "US",
        "subnational1Code": "US-MN",
        "subnational2Code": "US-MN-163",
        "lat": 44.9484526,
        "lng": -92.7917933,
        "latestObsDt": "2024-02-23 09:38",
        "numSpeciesAllTime": 139
    },
    {
        "locId": "L3834007",
        "locName": "Belwin Trailhead",
        "countryCode": "US",
        "subnational1Code": "US-MN",
        "subnational2Code": "US-MN-163",
        "lat": 44.9323973,
        "lng": -92.7956468,
        "latestObsDt": "2024-02-15 08:56",
        "numSpeciesAllTime": 167
    },
    {
        "locId": "L729673",
        "locName": "Bemidji Slough WMA",
        "countryCode": "US",
        "subnational1Code": "US-MN",
        "subnational2Code": "US-MN-007",
        "lat": 47.4256484,
        "lng": -94.8678017,
        "latestObsDt": "2023-09-04 16:38",
        "numSpeciesAllTime": 89
    },
    {
        "locId": "L3946500",
        "locName": "Bemidji--Paul Bunyan Bike Trail",
        "countryCode": "US",
        "subnational1Code": "US-MN",
        "subnational2Code": "US-MN-007",
        "lat": 47.4681333,
        "lng": -94.847689,
        "latestObsDt": "2024-02-16 14:30",
        "numSpeciesAllTime": 158
    },
    {
        "locId": "L9008155",
        "locName": "BenLacs State WMA",
        "countryCode": "US",
        "subnational1Code": "US-MN",
        "subnational2Code": "US-MN-009",
        "lat": 45.6177636,
        "lng": -93.7640787,
        "latestObsDt": "2023-10-24 14:19",
        "numSpeciesAllTime": 101
    },
    {
        "locId": "L832242",
        "locName": "Bend in the River Regional Park",
        "countryCode": "US",
        "subnational1Code": "US-MN",
        "subnational2Code": "US-MN-009",
        "lat": 45.7282923,
        "lng": -94.2137718,
        "latestObsDt": "2023-11-12 15:03",
        "numSpeciesAllTime": 162
    },
    {
        "locId": "L12756062",
        "locName": "Bennett WMA",
        "countryCode": "US",
        "subnational1Code": "US-MN",
        "subnational2Code": "US-MN-033",
        "lat": 43.883795,
        "lng": -94.994731,
        "latestObsDt": "2023-01-02 08:51",
        "numSpeciesAllTime": 12
    },
    {
        "locId": "L730119",
        "locName": "Benson Prairie",
        "countryCode": "US",
        "subnational1Code": "US-MN",
        "subnational2Code": "US-MN-123",
        "lat": 45.1196137,
        "lng": -93.0047286,
        "latestObsDt": "2024-01-27 13:15",
        "numSpeciesAllTime": 134
    },
    {
        "locId": "L3874151",
        "locName": "Benton Beach Park",
        "countryCode": "US",
        "subnational1Code": "US-MN",
        "subnational2Code": "US-MN-009",
        "lat": 45.746035,
        "lng": -94.165636,
        "latestObsDt": "2024-02-21 09:45",
        "numSpeciesAllTime": 179
    },
    {
        "locId": "L2158991",
        "locName": "Bergdahl WMA",
        "countryCode": "US",
        "subnational1Code": "US-MN",
        "subnational2Code": "US-MN-165",
        "lat": 44.089866,
        "lng": -94.385004,
        "latestObsDt": "2022-11-05 09:41",
        "numSpeciesAllTime": 99
    },
    {
        "locId": "L2835276",
        "locName": "Bergquist Wildlife Area",
        "countryCode": "US",
        "subnational1Code": "US-MN",
        "subnational2Code": "US-MN-067",
        "lat": 45.1238077,
        "lng": -95.0675726,
        "latestObsDt": "2023-11-11 16:34",
        "numSpeciesAllTime": 139
    },
    {
        "locId": "L27702861",
        "locName": "Bergville Lake",
        "countryCode": "US",
        "subnational1Code": "US-MN",
        "subnational2Code": "US-MN-061",
        "lat": 47.783184,
        "lng": -94.267377,
        "latestObsDt": "2023-10-27 11:09",
        "numSpeciesAllTime": 5
    },
    {
        "locId": "L1334722",
        "locName": "Berry Park",
        "countryCode": "US",
        "subnational1Code": "US-MN",
        "subnational2Code": "US-MN-053",
        "lat": 44.9323666,
        "lng": -93.3102936,
        "latestObsDt": "2024-02-06 15:28",
        "numSpeciesAllTime": 98
    },
    {
        "locId": "L3780116",
        "locName": "Bethel State Wildlife Area and Larch Street",
        "countryCode": "US",
        "subnational1Code": "US-MN",
        "subnational2Code": "US-MN-003",
        "lat": 45.41115,
        "lng": -93.2937902,
        "latestObsDt": "2023-09-22 15:20",
        "numSpeciesAllTime": 98
    },
    {
        "locId": "L6304571",
        "locName": "Bhagyam WPA",
        "countryCode": "US",
        "subnational1Code": "US-MN",
        "subnational2Code": "US-MN-047",
        "lat": 43.5245305,
        "lng": -93.4043884,
        "latestObsDt": "2023-05-22 18:58",
        "numSpeciesAllTime": 106
    },
    {
        "locId": "L9007854",
        "locName": "Bibles State WMA",
        "countryCode": "US",
        "subnational1Code": "US-MN",
        "subnational2Code": "US-MN-009",
        "lat": 45.6133399,
        "lng": -93.8206029,
        "latestObsDt": "2023-05-12 18:23",
        "numSpeciesAllTime": 71
    },
    {
        "locId": "L4866340",
        "locName": "Big Bog SRA--South Unit Campground and Day Use Area",
        "countryCode": "US",
        "subnational1Code": "US-MN",
        "subnational2Code": "US-MN-007",
        "lat": 48.1717239,
        "lng": -94.5119262,
        "latestObsDt": "2023-11-23 12:38",
        "numSpeciesAllTime": 121
    },
    {
        "locId": "L1194459",
        "locName": "Big Bog State Recreation Area",
        "countryCode": "US",
        "subnational1Code": "US-MN",
        "subnational2Code": "US-MN-007",
        "lat": 48.2857058,
        "lng": -94.5655145,
        "latestObsDt": "2024-02-25 12:50",
        "numSpeciesAllTime": 167
    },
    {
        "locId": "L3235629",
        "locName": "Big Carnelian Lake",
        "countryCode": "US",
        "subnational1Code": "US-MN",
        "subnational2Code": "US-MN-163",
        "lat": 45.1358579,
        "lng": -92.8086805,
        "latestObsDt": "2023-05-28 13:27",
        "numSpeciesAllTime": 58
    },
    {
        "locId": "L2457476",
        "locName": "Big Falls WTP",
        "countryCode": "US",
        "subnational1Code": "US-MN",
        "subnational2Code": "US-MN-071",
        "lat": 48.1962742,
        "lng": -93.8268256,
        "latestObsDt": "2023-10-20 15:45",
        "numSpeciesAllTime": 103
    },
    {
        "locId": "L19924553",
        "locName": "Big Fork River Wayside Park",
        "countryCode": "US",
        "subnational1Code": "US-MN",
        "subnational2Code": "US-MN-061",
        "lat": 47.8408024,
        "lng": -93.502932,
        "latestObsDt": "2023-06-30 09:17",
        "numSpeciesAllTime": 35
    },
    {
        "locId": "L21345035",
        "locName": "Big Island SNA",
        "countryCode": "US",
        "subnational1Code": "US-MN",
        "subnational2Code": "US-MN-137",
        "lat": 48.0717706,
        "lng": -92.9262257,
        "latestObsDt": "2023-09-05 17:00",
        "numSpeciesAllTime": 44
    },
    {
        "locId": "L18618539",
        "locName": "Big John's WMA",
        "countryCode": "US",
        "subnational1Code": "US-MN",
        "subnational2Code": "US-MN-133",
        "lat": 43.5005937,
        "lng": -96.1828135,
        "latestObsDt": "2022-11-01 13:50",
        "numSpeciesAllTime": 59
    },
    {
        "locId": "L5946428",
        "locName": "Big Lake",
        "countryCode": "US",
        "subnational1Code": "US-MN",
        "subnational2Code": "US-MN-137",
        "lat": 48.0832129,
        "lng": -91.995306,
        "latestObsDt": "2023-10-01 13:00",
        "numSpeciesAllTime": 103
    },
    {
        "locId": "L13014437",
        "locName": "Big Lake--Lakeside Park",
        "countryCode": "US",
        "subnational1Code": "US-MN",
        "subnational2Code": "US-MN-141",
        "lat": 45.3349314,
        "lng": -93.7571349,
        "latestObsDt": "2023-12-31 16:01",
        "numSpeciesAllTime": 58
    },
    {
        "locId": "L1276216",
        "locName": "Big Marine Park Reserve",
        "countryCode": "US",
        "subnational1Code": "US-MN",
        "subnational2Code": "US-MN-163",
        "lat": 45.2017463,
        "lng": -92.872442,
        "latestObsDt": "2024-02-04 09:30",
        "numSpeciesAllTime": 199
    },
    {
        "locId": "L20758635",
        "locName": "Big Marine Park Reserve--south of 170th (undeveloped)",
        "countryCode": "US",
        "subnational1Code": "US-MN",
        "subnational2Code": "US-MN-163",
        "lat": 45.1881989,
        "lng": -92.8600441,
        "latestObsDt": "2023-11-10 15:44",
        "numSpeciesAllTime": 76
    },
    {
        "locId": "L27856411",
        "locName": "Big Ole Central Park",
        "countryCode": "US",
        "subnational1Code": "US-MN",
        "subnational2Code": "US-MN-041",
        "lat": 45.8909381,
        "lng": -95.3765027,
        "latestObsDt": "2023-11-04 10:56",
        "numSpeciesAllTime": 21
    },