[
    {
        "locId": "L10913808",
        "locName": "\"The Maze\" Trail",
        "countryCode": "US",
        "subnational1Code": "US-UT",
        "subnational2Code": "US-UT-053",
        "lat": 37.294524,
        "lng": -113.692871,
        "latestObsDt": "2024-02-19 12:29",
        "numSpeciesAllTime": 18
    },
    {
        "locId": "L5213421",
        "locName": "11800 S",
        "countryCode": "US",
        "subnational1Code": "US-UT",
        "subnational2Code": "US-UT-035",
        "lat": 40.5369599,
        "lng": -112.0426726,
        "latestObsDt": "2023-07-30 19:16",
        "numSpeciesAllTime": 38
    },
    {
        "locId": "L13080644",
        "locName": "11th Ave Park",
        "countryCode": "US",
        "subnational1Code": "US-UT",
        "subnational2Code": "US-UT-035",
        "lat": 40.7830761,
        "lng": -111.8632221,
        "latestObsDt": "2024-02-24 09:57",
        "numSpeciesAllTime": 75
    },
    {
        "locId": "L1668698",
        "locName": "1200 W 1700 N (Cache Co.)",
        "countryCode": "US",
        "subnational1Code": "US-UT",
        "subnational2Code": "US-UT-005",
        "lat": 41.7625926,
        "lng": -111.8646137,
        "latestObsDt": "2024-02-24 11:11",
        "numSpeciesAllTime": 90
    },
    {
        "locId": "L825338",
        "locName": "16-16 Pond",
        "countryCode": "US",
        "subnational1Code": "US-UT",
        "subnational2Code": "US-UT-005",
        "lat": 41.696821,
        "lng": -111.8718481,
        "latestObsDt": "2023-05-05 18:52",
        "numSpeciesAllTime": 67
    },
    {
        "locId": "L353813",
        "locName": "20-20 Ponds",
        "countryCode": "US",
        "subnational1Code": "US-UT",
        "subnational2Code": "US-UT-005",
        "lat": 41.6939434,
        "lng": -111.8824224,
        "latestObsDt": "2024-01-01 14:28",
        "numSpeciesAllTime": 99
    },
    {
        "locId": "L1589734",
        "locName": "21st St Pond",
        "countryCode": "US",
        "subnational1Code": "US-UT",
        "subnational2Code": "US-UT-057",
        "lat": 41.2340965,
        "lng": -111.9930973,
        "latestObsDt": "2024-01-24 14:28",
        "numSpeciesAllTime": 95
    },
    {
        "locId": "L2694181",
        "locName": "2700 N Pond",
        "countryCode": "US",
        "subnational1Code": "US-UT",
        "subnational2Code": "US-UT-057",
        "lat": 41.3070845,
        "lng": -111.9990921,
        "latestObsDt": "2021-06-18 12:31",
        "numSpeciesAllTime": 39
    },
    {
        "locId": "L474280",
        "locName": "3200 West (SLC Airport to 3200 N)",
        "countryCode": "US",
        "subnational1Code": "US-UT",
        "subnational2Code": "US-UT-035",
        "lat": 40.828359,
        "lng": -111.9680222,
        "latestObsDt": "2024-02-26 16:12",
        "numSpeciesAllTime": 168
    },
    {
        "locId": "L151125",
        "locName": "36th Street Trailhead",
        "countryCode": "US",
        "subnational1Code": "US-UT",
        "subnational2Code": "US-UT-057",
        "lat": 41.19861,
        "lng": -111.93672,
        "latestObsDt": "2023-10-06 10:04",
        "numSpeciesAllTime": 64
    },
    {
        "locId": "L11131233",
        "locName": "3way Pond",
        "countryCode": "US",
        "subnational1Code": "US-UT",
        "subnational2Code": "US-UT-019",
        "lat": 39.125528,
        "lng": -109.342284,
        "latestObsDt": "2024-02-26 11:53",
        "numSpeciesAllTime": 124
    },
    {
        "locId": "L504335",
        "locName": "4000 West & Lake Shore (Utah Co.)",
        "countryCode": "US",
        "subnational1Code": "US-UT",
        "subnational2Code": "US-UT-049",
        "lat": 40.1437905,
        "lng": -111.7493248,
        "latestObsDt": "2024-02-08 14:37",
        "numSpeciesAllTime": 175
    },
    {
        "locId": "L8604168",
        "locName": "4000 West 2700 South, Syracuse, UT 84075",
        "countryCode": "US",
        "subnational1Code": "US-UT",
        "subnational2Code": "US-UT-011",
        "lat": 41.0748147,
        "lng": -112.1031871,
        "latestObsDt": "2023-11-06 09:52",
        "numSpeciesAllTime": 70
    },
    {
        "locId": "L5131229",
        "locName": "4200 N Fields",
        "countryCode": "US",
        "subnational1Code": "US-UT",
        "subnational2Code": "US-UT-005",
        "lat": 41.8090045,
        "lng": -111.8603039,
        "latestObsDt": "2024-02-20 12:56",
        "numSpeciesAllTime": 55
    },
    {
        "locId": "L1157115",
        "locName": "4400 West 5200 South in Lakeshore (Utah Co)",
        "countryCode": "US",
        "subnational1Code": "US-UT",
        "subnational2Code": "US-UT-049",
        "lat": 40.1367266,
        "lng": -111.7576504,
        "latestObsDt": "2024-02-08 14:40",
        "numSpeciesAllTime": 123
    },
    {
        "locId": "L553245",
        "locName": "5600 West Traps (Salt Lake Co.)",
        "countryCode": "US",
        "subnational1Code": "US-UT",
        "subnational2Code": "US-UT-035",
        "lat": 40.7558072,
        "lng": -112.0095849,
        "latestObsDt": "2023-03-05 17:10",
        "numSpeciesAllTime": 43
    },
    {
        "locId": "L607049",
        "locName": "5th West Sportsman Access",
        "countryCode": "US",
        "subnational1Code": "US-UT",
        "subnational2Code": "US-UT-049",
        "lat": 40.2058859,
        "lng": -111.6677642,
        "latestObsDt": "2024-02-23 07:30",
        "numSpeciesAllTime": 112
    },
    {
        "locId": "L596320",
        "locName": "8000 West 2200 South Trap (Salt Lake Co.)",
        "countryCode": "US",
        "subnational1Code": "US-UT",
        "subnational2Code": "US-UT-035",
        "lat": 40.7222827,
        "lng": -112.0818329,
        "latestObsDt": "2023-11-18 13:37",
        "numSpeciesAllTime": 79
    },
    {
        "locId": "L5945472",
        "locName": "8600 West--Portage to Nucor Steel",
        "countryCode": "US",
        "subnational1Code": "US-UT",
        "subnational2Code": "US-UT-003",
        "lat": 41.9346253,
        "lng": -112.2308135,
        "latestObsDt": "2023-07-09 10:30",
        "numSpeciesAllTime": 58
    },
    {
        "locId": "L1309094",
        "locName": "ATK Ranch--North Pond",
        "countryCode": "US",
        "subnational1Code": "US-UT",
        "subnational2Code": "US-UT-003",
        "lat": 41.5324831,
        "lng": -112.4794006,
        "latestObsDt": "2023-06-03 08:50",
        "numSpeciesAllTime": 73
    },
    {
        "locId": "L1278252",
        "locName": "ATK Ranch--South Pond",
        "countryCode": "US",
        "subnational1Code": "US-UT",
        "subnational2Code": "US-UT-003",
        "lat": 41.5215917,
        "lng": -112.4760532,
        "latestObsDt": "2024-02-24 12:45",
        "numSpeciesAllTime": 92
    },
    {
        "locId": "L607066",
        "locName": "Abajo Mountains -- West Side",
        "countryCode": "US",
        "subnational1Code": "US-UT",
        "subnational2Code": "US-UT-037",
        "lat": 37.8379878,
        "lng": -109.7721291,
        "latestObsDt": "2022-07-15 08:30",
        "numSpeciesAllTime": 51
    },
    {
        "locId": "L3563381",
        "locName": "Abajo Mountains--Foy Lake",
        "countryCode": "US",
        "subnational1Code": "US-UT",
        "subnational2Code": "US-UT-037",
        "lat": 37.9018387,
        "lng": -109.5100048,
        "latestObsDt": "2023-08-17 15:30",
        "numSpeciesAllTime": 61
    },
    {
        "locId": "L3563379",
        "locName": "Abajo Mountains--Monticello Lake",
        "countryCode": "US",
        "subnational1Code": "US-UT",
        "subnational2Code": "US-UT-037",
        "lat": 37.8950065,
        "lng": -109.4681436,
        "latestObsDt": "2023-09-02 08:11",
        "numSpeciesAllTime": 76
    },
    {
        "locId": "L3563386",
        "locName": "Abajo Mountains--Rd 101 North Slope",
        "countryCode": "US",
        "subnational1Code": "US-UT",
        "subnational2Code": "US-UT-037",
        "lat": 37.9078068,
        "lng": -109.4867206,
        "latestObsDt": "2023-06-16 12:30",
        "numSpeciesAllTime": 42
    },
    {
        "locId": "L1533307",
        "locName": "Adagio Apartments Pond",
        "countryCode": "US",
        "subnational1Code": "US-UT",
        "subnational2Code": "US-UT-035",
        "lat": 40.5068093,
        "lng": -111.8867161,
        "latestObsDt": "2023-12-02 09:26",
        "numSpeciesAllTime": 41
    },
    {
        "locId": "L7162342",
        "locName": "Adair Lake",
        "countryCode": "US",
        "subnational1Code": "US-UT",
        "subnational2Code": "US-UT-025",
        "lat": 37.3771316,
        "lng": -112.1701956,
        "latestObsDt": "2018-04-01 12:17",
        "numSpeciesAllTime": 28
    },
    {
        "locId": "L1498503",
        "locName": "Adams Park",
        "countryCode": "US",
        "subnational1Code": "US-UT",
        "subnational2Code": "US-UT-005",
        "lat": 41.7422196,
        "lng": -111.8217353,
        "latestObsDt": "2024-02-17 16:37",
        "numSpeciesAllTime": 40
    },
    {
        "locId": "L15319690",
        "locName": "Adelaide Campground",
        "countryCode": "US",
        "subnational1Code": "US-UT",
        "subnational2Code": "US-UT-027",
        "lat": 38.7540314,
        "lng": -112.3656483,
        "latestObsDt": "2024-01-11 16:00",
        "numSpeciesAllTime": 22
    },
    {
        "locId": "L3651980",
        "locName": "Affleck Park & Campground",
        "countryCode": "US",
        "subnational1Code": "US-UT",
        "subnational2Code": "US-UT-035",
        "lat": 40.8104962,
        "lng": -111.6793942,
        "latestObsDt": "2023-11-21 15:00",
        "numSpeciesAllTime": 82
    },
    {
        "locId": "L22453163",
        "locName": "Ag Fields Southeast of Willard Reservoir--8700 S",
        "countryCode": "US",
        "subnational1Code": "US-UT",
        "subnational2Code": "US-UT-003",
        "lat": 41.3518372,
        "lng": -112.0503229,
        "latestObsDt": "2024-01-08 16:06",
        "numSpeciesAllTime": 39
    },
    {
        "locId": "L1394437",
        "locName": "Airport Rd",
        "countryCode": "US",
        "subnational1Code": "US-UT",
        "subnational2Code": "US-UT-005",
        "lat": 41.7836863,
        "lng": -111.8768656,
        "latestObsDt": "2024-02-25 11:47",
        "numSpeciesAllTime": 98
    },
    {
        "locId": "L12575037",
        "locName": "Allen Park",
        "countryCode": "US",
        "subnational1Code": "US-UT",
        "subnational2Code": "US-UT-035",
        "lat": 40.730357,
        "lng": -111.850177,
        "latestObsDt": "2024-02-19 14:14",
        "numSpeciesAllTime": 64
    },
    {
        "locId": "L1444823",
        "locName": "Allred's Pond",
        "countryCode": "US",
        "subnational1Code": "US-UT",
        "subnational2Code": "US-UT-049",
        "lat": 40.3932832,
        "lng": -111.9069438,
        "latestObsDt": "2023-04-08 12:04",
        "numSpeciesAllTime": 101
    },
    {
        "locId": "L608977",
        "locName": "Alpine Loop Rd.",
        "countryCode": "US",
        "subnational1Code": "US-UT",
        "subnational2Code": "US-UT-049",
        "lat": 40.4338332,
        "lng": -111.6152787,
        "latestObsDt": "2023-09-18 23:10",
        "numSpeciesAllTime": 105
    },
    {
        "locId": "L1397007",
        "locName": "Alpine Loop Rd.--Mutual Dell",
        "countryCode": "US",
        "subnational1Code": "US-UT",
        "subnational2Code": "US-UT-049",
        "lat": 40.4472657,
        "lng": -111.644121,
        "latestObsDt": "2023-12-08 13:07",
        "numSpeciesAllTime": 49
    },
    {
        "locId": "L1400956",
        "locName": "Alpine Loop Rd.--Pine Hollow Trailhead",
        "countryCode": "US",
        "subnational1Code": "US-UT",
        "subnational2Code": "US-UT-049",
        "lat": 40.4500872,
        "lng": -111.6432006,
        "latestObsDt": "2024-02-19 12:20",
        "numSpeciesAllTime": 58
    },
    {
        "locId": "L504337",
        "locName": "Alpine Loop Rd.--Timpooneke CG & Trailhead",
        "countryCode": "US",
        "subnational1Code": "US-UT",
        "subnational2Code": "US-UT-049",
        "lat": 40.4311342,
        "lng": -111.638791,
        "latestObsDt": "2023-07-26 07:12",
        "numSpeciesAllTime": 81
    },
    {
        "locId": "L571255",
        "locName": "Alpine Loop Scenic Byway--Aspen Grove TH",
        "countryCode": "US",
        "subnational1Code": "US-UT",
        "subnational2Code": "US-UT-049",
        "lat": 40.4048157,
        "lng": -111.6058978,
        "latestObsDt": "2024-02-26 14:08",
        "numSpeciesAllTime": 108
    },
    {
        "locId": "L4765673",
        "locName": "Alpine Loop Scenic Byway--Summit Trail",
        "countryCode": "US",
        "subnational1Code": "US-UT",
        "subnational2Code": "US-UT-049",
        "lat": 40.4322163,
        "lng": -111.6135943,
        "latestObsDt": "2023-09-08 16:30",
        "numSpeciesAllTime": 57
    },
    {
        "locId": "L1407733",
        "locName": "Alta Canyon Park (incl. Woodlot @ 9800 S 1900 E)",
        "countryCode": "US",
        "subnational1Code": "US-UT",
        "subnational2Code": "US-UT-035",
        "lat": 40.5762169,
        "lng": -111.8371618,
        "latestObsDt": "2023-01-07 07:55",
        "numSpeciesAllTime": 27
    },
    {
        "locId": "L693440",
        "locName": "Amalga Barrens",
        "countryCode": "US",
        "subnational1Code": "US-UT",
        "subnational2Code": "US-UT-005",
        "lat": 41.8599089,
        "lng": -111.9320583,
        "latestObsDt": "2024-02-25 15:15",
        "numSpeciesAllTime": 168
    },
    {
        "locId": "L476481",
        "locName": "Amalga Barrens Sanctuary",
        "countryCode": "US",
        "subnational1Code": "US-UT",
        "subnational2Code": "US-UT-005",
        "lat": 41.8521735,
        "lng": -111.9323158,
        "latestObsDt": "2024-01-08 11:29",
        "numSpeciesAllTime": 69
    },
    {
        "locId": "L4934496",
        "locName": "Amalga Cheese Plant Pond",
        "countryCode": "US",
        "subnational1Code": "US-UT",
        "subnational2Code": "US-UT-005",
        "lat": 41.8445971,
        "lng": -111.8869972,
        "latestObsDt": "2023-03-25 10:45",
        "numSpeciesAllTime": 53
    },
    {
        "locId": "L4081206",
        "locName": "Amalga city and surrounding fields",
        "countryCode": "US",
        "subnational1Code": "US-UT",
        "subnational2Code": "US-UT-005",
        "lat": 41.8632968,
        "lng": -111.8954945,
        "latestObsDt": "2023-12-16 11:26",
        "numSpeciesAllTime": 94
    },
    {
        "locId": "L2182218",
        "locName": "Ambassador Duck Club (private)",
        "countryCode": "US",
        "subnational1Code": "US-UT",
        "subnational2Code": "US-UT-035",
        "lat": 40.8211493,
        "lng": -112.0785713,
        "latestObsDt": "2023-08-21 07:47",
        "numSpeciesAllTime": 133
    },
    {
        "locId": "L19101048",
        "locName": "American Fork Amphitheater",
        "countryCode": "US",
        "subnational1Code": "US-UT",
        "subnational2Code": "US-UT-049",
        "lat": 40.3930792,
        "lng": -111.7751598,
        "latestObsDt": "2023-08-01 19:52",
        "numSpeciesAllTime": 15
    },
    {
        "locId": "L504317",
        "locName": "American Fork Boat Harbor Area",
        "countryCode": "US",
        "subnational1Code": "US-UT",
        "subnational2Code": "US-UT-049",
        "lat": 40.3431833,
        "lng": -111.8021107,
        "latestObsDt": "2024-02-16 14:19",
        "numSpeciesAllTime": 178
    },
    {
        "locId": "L504749",
        "locName": "American Fork Canyon ",
        "countryCode": "US",
        "subnational1Code": "US-UT",
        "subnational2Code": "US-UT-049",
        "lat": 40.4468817,
        "lng": -111.686883,
        "latestObsDt": "2024-01-28 07:55",
        "numSpeciesAllTime": 95
    },
    {
        "locId": "L506735",
        "locName": "American Fork Canyon--Granite Flat CG",
        "countryCode": "US",
        "subnational1Code": "US-UT",
        "subnational2Code": "US-UT-049",
        "lat": 40.4905978,
        "lng": -111.6554475,
        "latestObsDt": "2023-08-26 08:30",
        "numSpeciesAllTime": 71
    },
    {
        "locId": "L1400968",
        "locName": "American Fork Canyon--Martin & Roadhouse Picnic Areas",
        "countryCode": "US",
        "subnational1Code": "US-UT",
        "subnational2Code": "US-UT-049",
        "lat": 40.4627376,
        "lng": -111.6571743,
        "latestObsDt": "2024-01-18 00:00",
        "numSpeciesAllTime": 25
    },
    {
        "locId": "L1400978",
        "locName": "American Fork Canyon--Mouth",
        "countryCode": "US",
        "subnational1Code": "US-UT",
        "subnational2Code": "US-UT-049",
        "lat": 40.4323865,
        "lng": -111.7485169,
        "latestObsDt": "2024-02-19 12:47",
        "numSpeciesAllTime": 73
    },
    {
        "locId": "L1558804",
        "locName": "American Fork Canyon--Silver Lake Hike",
        "countryCode": "US",
        "subnational1Code": "US-UT",
        "subnational2Code": "US-UT-049",
        "lat": 40.5211368,
        "lng": -111.6720207,
        "latestObsDt": "2023-10-21 10:38",
        "numSpeciesAllTime": 73
    },
    {
        "locId": "L1397014",
        "locName": "American Fork Canyon--Swinging Bridge Picnic Area & Trail",
        "countryCode": "US",
        "subnational1Code": "US-UT",
        "subnational2Code": "US-UT-049",
        "lat": 40.4434854,
        "lng": -111.7097171,
        "latestObsDt": "2023-11-16 10:51",
        "numSpeciesAllTime": 56
    },
    {
        "locId": "L5987418",
        "locName": "American Fork Canyon--Timpanogos Cave Trail",
        "countryCode": "US",
        "subnational1Code": "US-UT",
        "subnational2Code": "US-UT-049",
        "lat": 40.4401812,
        "lng": -111.7111999,
        "latestObsDt": "2023-10-13 11:29",
        "numSpeciesAllTime": 54
    },
    {
        "locId": "L7893843",
        "locName": "Amethyst Basin",
        "countryCode": "US",
        "subnational1Code": "US-UT",
        "subnational2Code": "US-UT-043",
        "lat": 40.7576965,
        "lng": -110.7684794,
        "latestObsDt": "2023-07-24 08:52",
        "numSpeciesAllTime": 27
    },
    {
        "locId": "L504738",
        "locName": "Anderson Park ",
        "countryCode": "US",
        "subnational1Code": "US-UT",
        "subnational2Code": "US-UT-049",
        "lat": 40.3631085,
        "lng": -111.7205018,
        "latestObsDt": "2024-02-18 15:51",
        "numSpeciesAllTime": 85
    },
    {
        "locId": "L11056885",
        "locName": "Andy Adams Community Fishery",
        "countryCode": "US",
        "subnational1Code": "US-UT",
        "subnational2Code": "US-UT-011",
        "lat": 41.0731833,
        "lng": -111.9319138,
        "latestObsDt": "2024-02-09 16:09",
        "numSpeciesAllTime": 120
    },
    {
        "locId": "L2054664",
        "locName": "Angel Canyon Rd (.incl Best Friends Animal Society)",
        "countryCode": "US",
        "subnational1Code": "US-UT",
        "subnational2Code": "US-UT-025",
        "lat": 37.1311714,
        "lng": -112.5419712,
        "latestObsDt": "2024-02-24 15:45",
        "numSpeciesAllTime": 97
    },
    {
        "locId": "L12199525",
        "locName": "Angela Heddlesten Memorial",
        "countryCode": "US",
        "subnational1Code": "US-UT",
        "subnational2Code": "US-UT-051",
        "lat": 40.2995202,
        "lng": -111.1306306,
        "latestObsDt": "2020-09-12 18:10",
        "numSpeciesAllTime": 12
    },
    {
        "locId": "L4186163",
        "locName": "Angle",
        "countryCode": "US",
        "subnational1Code": "US-UT",
        "subnational2Code": "US-UT-031",
        "lat": 38.2494376,
        "lng": -111.9721842,
        "latestObsDt": "2023-06-22 09:21",
        "numSpeciesAllTime": 77
    },
    {
        "locId": "L7479807",
        "locName": "Anhder Park",
        "countryCode": "US",
        "subnational1Code": "US-UT",
        "subnational2Code": "US-UT-005",
        "lat": 41.6746236,
        "lng": -111.8403473,
        "latestObsDt": "2023-03-14 16:00",
        "numSpeciesAllTime": 16
    },
    {
        "locId": "L2465614",
        "locName": "Annabella",
        "countryCode": "US",
        "subnational1Code": "US-UT",
        "subnational2Code": "US-UT-041",
        "lat": 38.7085535,
        "lng": -112.0612335,
        "latestObsDt": "2023-10-13 14:33",
        "numSpeciesAllTime": 26
    },
    {
        "locId": "L1225688",
        "locName": "Ant Flat Rd",
        "countryCode": "US",
        "subnational1Code": "US-UT",
        "subnational2Code": "US-UT-005",
        "lat": 41.5093998,
        "lng": -111.5726866,
        "latestObsDt": "2023-10-28 12:47",
        "numSpeciesAllTime": 118
    },
    {
        "locId": "L981860",
        "locName": "Antelope Dr.",
        "countryCode": "US",
        "subnational1Code": "US-UT",
        "subnational2Code": "US-UT-011",
        "lat": 41.0892494,
        "lng": -112.0867252,
        "latestObsDt": "2024-02-10 15:51",
        "numSpeciesAllTime": 133
    },
    {
        "locId": "L17566850",
        "locName": "Antelope Flat Campground",
        "countryCode": "US",
        "subnational1Code": "US-UT",
        "subnational2Code": "US-UT-009",
        "lat": 40.965182,
        "lng": -109.5527932,
        "latestObsDt": "2024-01-20 12:28",
        "numSpeciesAllTime": 46
    },
    {
        "locId": "L190743",
        "locName": "Antelope Island SP",
        "countryCode": "US",
        "subnational1Code": "US-UT",
        "subnational2Code": "US-UT-011",
        "lat": 41.0465405,
        "lng": -112.2383881,
        "latestObsDt": "2024-02-24 17:44",
        "numSpeciesAllTime": 263
    },
    {
        "locId": "L571616",
        "locName": "Antelope Island SP--Antelope Island (island only)",
        "countryCode": "US",
        "subnational1Code": "US-UT",
        "subnational2Code": "US-UT-011",
        "lat": 40.9560485,
        "lng": -112.2040558,
        "latestObsDt": "2024-02-18 14:35",
        "numSpeciesAllTime": 236
    },
    {
        "locId": "L13245957",
        "locName": "Antelope Island SP--Bridger Bay Campground",
        "countryCode": "US",
        "subnational1Code": "US-UT",
        "subnational2Code": "US-UT-011",
        "lat": 41.0410704,
        "lng": -112.2565198,
        "latestObsDt": "2023-11-04 09:47",
        "numSpeciesAllTime": 92
    },
    {
        "locId": "L5518420",
        "locName": "Antelope Island SP--Buffalo Point",
        "countryCode": "US",
        "subnational1Code": "US-UT",
        "subnational2Code": "US-UT-011",
        "lat": 41.0322548,
        "lng": -112.2615355,
        "latestObsDt": "2024-02-25 16:19",
        "numSpeciesAllTime": 95
    },
    {
        "locId": "L151122",
        "locName": "Antelope Island SP--Causeway",
        "countryCode": "US",
        "subnational1Code": "US-UT",
        "subnational2Code": "US-UT-011",
        "lat": 41.08841,
        "lng": -112.186714,
        "latestObsDt": "2024-02-25 16:44",
        "numSpeciesAllTime": 240
    },
    {
        "locId": "L3485520",
        "locName": "Antelope Island SP--Frary Peak Trail",
        "countryCode": "US",
        "subnational1Code": "US-UT",
        "subnational2Code": "US-UT-011",
        "lat": 40.9579282,
        "lng": -112.2175741,
        "latestObsDt": "2023-10-20 10:06",
        "numSpeciesAllTime": 108
    },
    {
        "locId": "L212071",
        "locName": "Antelope Island SP--Garr Ranch",
        "countryCode": "US",
        "subnational1Code": "US-UT",
        "subnational2Code": "US-UT-011",
        "lat": 40.9234737,
        "lng": -112.1680972,
        "latestObsDt": "2024-02-11 14:11",
        "numSpeciesAllTime": 235
    },
    {
        "locId": "L3112862",
        "locName": "Antelope Island SP--Lady Finger Point",
        "countryCode": "US",
        "subnational1Code": "US-UT",
        "subnational2Code": "US-UT-011",
        "lat": 41.058608,
        "lng": -112.2512646,
        "latestObsDt": "2024-02-25 15:14",
        "numSpeciesAllTime": 146
    },
    {
        "locId": "L1422055",
        "locName": "Antelope Island SP--Marina",
        "countryCode": "US",
        "subnational1Code": "US-UT",
        "subnational2Code": "US-UT-011",
        "lat": 41.0614917,
        "lng": -112.2390532,
        "latestObsDt": "2024-01-30 16:59",
        "numSpeciesAllTime": 174
    },
    {
        "locId": "L1210095",
        "locName": "Antelope Island SP--Road to Garr Ranch",
        "countryCode": "US",
        "subnational1Code": "US-UT",
        "subnational2Code": "US-UT-011",
        "lat": 40.9836063,
        "lng": -112.1903591,
        "latestObsDt": "2024-02-25 12:48",
        "numSpeciesAllTime": 205
    },
    {
        "locId": "L1210097",
        "locName": "Antelope Island SP--South",
        "countryCode": "US",
        "subnational1Code": "US-UT",
        "subnational2Code": "US-UT-011",
        "lat": 40.8968335,
        "lng": -112.17326,
        "latestObsDt": "2024-01-01 09:58",
        "numSpeciesAllTime": 160
    },
    {
        "locId": "L1210098",
        "locName": "Antelope Island SP--Visitor Center & Loop Rd.",
        "countryCode": "US",
        "subnational1Code": "US-UT",
        "subnational2Code": "US-UT-011",
        "lat": 41.054726,
        "lng": -112.2407765,
        "latestObsDt": "2024-02-13 09:28",
        "numSpeciesAllTime": 191
    },
    {
        "locId": "L1405322",
        "locName": "Antelope Island SP--White Rock Bay & Corrals",
        "countryCode": "US",
        "subnational1Code": "US-UT",
        "subnational2Code": "US-UT-011",
        "lat": 41.0276519,
        "lng": -112.2504556,
        "latestObsDt": "2024-02-24 12:54",
        "numSpeciesAllTime": 116
    },
    {
        "locId": "L3055038",
        "locName": "Antelope Spring (Millard Co)",
        "countryCode": "US",
        "subnational1Code": "US-UT",
        "subnational2Code": "US-UT-027",
        "lat": 38.6550113,
        "lng": -112.87184,
        "latestObsDt": "2023-07-18 11:00",
        "numSpeciesAllTime": 116
    },
    {
        "locId": "L3698262",
        "locName": "Antelope Springs Rd.",
        "countryCode": "US",
        "subnational1Code": "US-UT",
        "subnational2Code": "US-UT-021",
        "lat": 37.7936003,
        "lng": -113.4304905,
        "latestObsDt": "2023-06-02 05:42",
        "numSpeciesAllTime": 40
    },
    {
        "locId": "L5143941",
        "locName": "Antimony Fields (Garfield Co.)",
        "countryCode": "US",
        "subnational1Code": "US-UT",
        "subnational2Code": "US-UT-017",
        "lat": 38.0901207,
        "lng": -111.9814539,
        "latestObsDt": "2023-09-12 11:14",
        "numSpeciesAllTime": 74
    },
    {
        "locId": "L5143949",
        "locName": "Antimony Fields (Piute Co.)",
        "countryCode": "US",
        "subnational1Code": "US-UT",
        "subnational2Code": "US-UT-031",
        "lat": 38.1490025,
        "lng": -112.0005941,
        "latestObsDt": "2023-09-12 11:24",
        "numSpeciesAllTime": 22
    },
    {
        "locId": "L1584684",
        "locName": "Apex Mine Rd",
        "countryCode": "US",
        "subnational1Code": "US-UT",
        "subnational2Code": "US-UT-053",
        "lat": 37.1207379,
        "lng": -113.7772204,
        "latestObsDt": "2022-10-25 12:58",
        "numSpeciesAllTime": 22
    },
    {
        "locId": "L6046712",
        "locName": "Arch Canyon",
        "countryCode": "US",
        "subnational1Code": "US-UT",
        "subnational2Code": "US-UT-037",
        "lat": 37.5459384,
        "lng": -109.6666861,
        "latestObsDt": "2023-05-23 08:41",
        "numSpeciesAllTime": 50
    },
    {
        "locId": "L326137",
        "locName": "Arches NP",
        "countryCode": "US",
        "subnational1Code": "US-UT",
        "subnational2Code": "US-UT-019",
        "lat": 38.6748562,
        "lng": -109.5874214,
        "latestObsDt": "2024-02-18 06:47",
        "numSpeciesAllTime": 156
    },
    {
        "locId": "L1542608",
        "locName": "Arches NP--Balanced Rock",
        "countryCode": "US",
        "subnational1Code": "US-UT",
        "subnational2Code": "US-UT-019",
        "lat": 38.7016981,
        "lng": -109.566196,
        "latestObsDt": "2024-02-17 12:31",
        "numSpeciesAllTime": 49
    },
    {
        "locId": "L2889348",
        "locName": "Arches NP--Broken Arch Trail",
        "countryCode": "US",
        "subnational1Code": "US-UT",
        "subnational2Code": "US-UT-019",
        "lat": 38.7730231,
        "lng": -109.5802546,
        "latestObsDt": "2024-02-22 13:07",
        "numSpeciesAllTime": 61
    },
    {
        "locId": "L2887210",
        "locName": "Arches NP--Courthouse Wash",
        "countryCode": "US",
        "subnational1Code": "US-UT",
        "subnational2Code": "US-UT-019",
        "lat": 38.648383,
        "lng": -109.5998454,
        "latestObsDt": "2024-02-04 11:56",
        "numSpeciesAllTime": 115
    },
    {
        "locId": "L4680693",
        "locName": "Arches NP--Delicate Arch Rd.",
        "countryCode": "US",
        "subnational1Code": "US-UT",
        "subnational2Code": "US-UT-019",
        "lat": 38.7293803,
        "lng": -109.5346141,
        "latestObsDt": "2023-10-30 12:34",
        "numSpeciesAllTime": 50
    },
    {
        "locId": "L7692624",
        "locName": "Arches NP--Delicate Arch Trail",
        "countryCode": "US",
        "subnational1Code": "US-UT",
        "subnational2Code": "US-UT-019",
        "lat": 38.7395571,
        "lng": -109.5121694,
        "latestObsDt": "2024-02-18 06:45",
        "numSpeciesAllTime": 112
    },
    {
        "locId": "L1542612",
        "locName": "Arches NP--Delicate Arch Trailhead",
        "countryCode": "US",
        "subnational1Code": "US-UT",
        "subnational2Code": "US-UT-019",
        "lat": 38.735172,
        "lng": -109.5195088,
        "latestObsDt": "2024-02-21 08:24",
        "numSpeciesAllTime": 85
    },
    {
        "locId": "L2484321",
        "locName": "Arches NP--Delicate Arch Viewpoint",
        "countryCode": "US",
        "subnational1Code": "US-UT",
        "subnational2Code": "US-UT-019",
        "lat": 38.7341676,
        "lng": -109.5014942,
        "latestObsDt": "2024-02-17 14:26",
        "numSpeciesAllTime": 67
    },
    {
        "locId": "L7703997",
        "locName": "Arches NP--Devil's Garden CG",
        "countryCode": "US",
        "subnational1Code": "US-UT",
        "subnational2Code": "US-UT-019",
        "lat": 38.7791818,
        "lng": -109.5897898,
        "latestObsDt": "2023-10-04 09:13",
        "numSpeciesAllTime": 57
    },
    {
        "locId": "L1108726",
        "locName": "Arches NP--Devil's Garden Trail",
        "countryCode": "US",
        "subnational1Code": "US-UT",
        "subnational2Code": "US-UT-019",
        "lat": 38.7862714,
        "lng": -109.5972919,
        "latestObsDt": "2024-02-23 09:59",
        "numSpeciesAllTime": 118
    },
    {
        "locId": "L4692038",
        "locName": "Arches NP--Fiery Furnace Trail",
        "countryCode": "US",
        "subnational1Code": "US-UT",
        "subnational2Code": "US-UT-019",
        "lat": 38.7434902,
        "lng": -109.5614871,
        "latestObsDt": "2024-02-22 07:29",
        "numSpeciesAllTime": 37
    },
    {
        "locId": "L9728004",
        "locName": "Arches NP--Garden of Eden",
        "countryCode": "US",
        "subnational1Code": "US-UT",
        "subnational2Code": "US-UT-019",
        "lat": 38.6978875,
        "lng": -109.5495541,
        "latestObsDt": "2024-02-22 11:38",
        "numSpeciesAllTime": 26
    },
    {
        "locId": "L1542599",
        "locName": "Arches NP--Park Avenue",
        "countryCode": "US",
        "subnational1Code": "US-UT",
        "subnational2Code": "US-UT-019",
        "lat": 38.6243384,
        "lng": -109.5994482,
        "latestObsDt": "2024-02-21 12:12",
        "numSpeciesAllTime": 91
    },
    {
        "locId": "L7704036",
        "locName": "Arches NP--Salt Valley",
        "countryCode": "US",
        "subnational1Code": "US-UT",
        "subnational2Code": "US-UT-019",
        "lat": 38.7559276,
        "lng": -109.6016849,
        "latestObsDt": "2023-11-17 09:06",
        "numSpeciesAllTime": 40
    },
    {
        "locId": "L1859594",
        "locName": "Arches NP--Tower Arch Trail",
        "countryCode": "US",
        "subnational1Code": "US-UT",
        "subnational2Code": "US-UT-019",
        "lat": 38.7924359,
        "lng": -109.6749586,
        "latestObsDt": "2024-02-24 10:33",
        "numSpeciesAllTime": 41
    },
    {
        "locId": "L1404585",
        "locName": "Arches NP--Windows Trail",
        "countryCode": "US",
        "subnational1Code": "US-UT",
        "subnational2Code": "US-UT-019",
        "lat": 38.6876374,
        "lng": -109.5376193,
        "latestObsDt": "2024-02-24 07:38",
        "numSpeciesAllTime": 85
    },
    {
        "locId": "L2247280",
        "locName": "Arches Trail",
        "countryCode": "US",
        "subnational1Code": "US-UT",
        "subnational2Code": "US-UT-017",
        "lat": 37.7835615,
        "lng": -112.3319864,
        "latestObsDt": "2022-10-07 09:30",
        "numSpeciesAllTime": 53
    },
    {
        "locId": "L10313800",
        "locName": "Arrow Trailhead to Galena Soo'nkahni Preserve",
        "countryCode": "US",
        "subnational1Code": "US-UT",
        "subnational2Code": "US-UT-035",
        "lat": 40.5000105,
        "lng": -111.9289631,
        "latestObsDt": "2024-02-04 14:23",
        "numSpeciesAllTime": 118
    },
    {
        "locId": "L1228463",
        "locName": "Art Dye Park & Fox Hollow GC",
        "countryCode": "US",
        "subnational1Code": "US-UT",
        "subnational2Code": "US-UT-049",
        "lat": 40.3992972,
        "lng": -111.7816401,
        "latestObsDt": "2024-01-27 11:15",
        "numSpeciesAllTime": 97
    },
    {
        "locId": "L15400142",
        "locName": "Art Nord Trailhead",
        "countryCode": "US",
        "subnational1Code": "US-UT",
        "subnational2Code": "US-UT-057",
        "lat": 41.2336506,
        "lng": -111.8208955,
        "latestObsDt": "2024-01-20 15:31",
        "numSpeciesAllTime": 46
    },
    {
        "locId": "L1447599",
        "locName": "Ash Creek Reservoir",
        "countryCode": "US",
        "subnational1Code": "US-UT",
        "subnational2Code": "US-UT-053",
        "lat": 37.4154762,
        "lng": -113.238547,
        "latestObsDt": "2023-05-30 09:11",
        "numSpeciesAllTime": 171
    },
    {
        "locId": "L2234396",
        "locName": "Ashley Nature Park",
        "countryCode": "US",
        "subnational1Code": "US-UT",
        "subnational2Code": "US-UT-047",
        "lat": 40.4783576,
        "lng": -109.5666933,
        "latestObsDt": "2024-02-16 17:55",
        "numSpeciesAllTime": 96
    },
    {
        "locId": "L15407710",
        "locName": "Aspen-Mirror Lake",
        "countryCode": "US",
        "subnational1Code": "US-UT",
        "subnational2Code": "US-UT-025",
        "lat": 37.521599,
        "lng": -112.673866,
        "latestObsDt": "2023-10-01 09:48",
        "numSpeciesAllTime": 62
    },
    {
        "locId": "L552807",
        "locName": "Avon",
        "countryCode": "US",
        "subnational1Code": "US-UT",
        "subnational2Code": "US-UT-005",
        "lat": 41.5260577,
        "lng": -111.8142128,
        "latestObsDt": "2024-02-19 17:11",
        "numSpeciesAllTime": 118
    },
    {
        "locId": "L5269657",
        "locName": "Avon Pass Rd (Weber Co.)",
        "countryCode": "US",
        "subnational1Code": "US-UT",
        "subnational2Code": "US-UT-057",
        "lat": 41.3867263,
        "lng": -111.8634367,
        "latestObsDt": "2023-12-24 08:47",
        "numSpeciesAllTime": 55
    },
    {
        "locId": "L1411954",
        "locName": "Bair Park",
        "countryCode": "US",
        "subnational1Code": "US-UT",
        "subnational2Code": "US-UT-035",
        "lat": 40.6006642,
        "lng": -111.795974,
        "latestObsDt": "2023-09-09 11:09",
        "numSpeciesAllTime": 56
    },
    {
        "locId": "L6515833",
        "locName": "Baker Reservoir",
        "countryCode": "US",
        "subnational1Code": "US-UT",
        "subnational2Code": "US-UT-053",
        "lat": 37.3788879,
        "lng": -113.6374283,
        "latestObsDt": "2024-01-20 14:30",
        "numSpeciesAllTime": 144
    },
    {
        "locId": "L982456",
        "locName": "Bald Mountain Trail (N. Slope Uintas)",
        "countryCode": "US",
        "subnational1Code": "US-UT",
        "subnational2Code": "US-UT-043",
        "lat": 40.8749104,
        "lng": -110.4962415,
        "latestObsDt": "2022-06-23 09:30",
        "numSpeciesAllTime": 68
    },
    {
        "locId": "L690226",
        "locName": "Ballard Springs",
        "countryCode": "US",
        "subnational1Code": "US-UT",
        "subnational2Code": "US-UT-005",
        "lat": 41.6986554,
        "lng": -111.8336213,
        "latestObsDt": "2024-02-03 08:16",
        "numSpeciesAllTime": 44
    },
    {
        "locId": "L7087155",
        "locName": "Bar M Trails",
        "countryCode": "US",
        "subnational1Code": "US-UT",
        "subnational2Code": "US-UT-019",
        "lat": 38.6549184,
        "lng": -109.6646154,
        "latestObsDt": "2023-11-07 09:16",
        "numSpeciesAllTime": 19
    },
    {
        "locId": "L7605071",
        "locName": "Barker Reservoir",
        "countryCode": "US",
        "subnational1Code": "US-UT",
        "subnational2Code": "US-UT-043",
        "lat": 41.122406,
        "lng": -111.05666,
        "latestObsDt": "2023-10-23 17:33",
        "numSpeciesAllTime": 74
    },
    {
        "locId": "L3751523",
        "locName": "Bartholomew Park",
        "countryCode": "US",
        "subnational1Code": "US-UT",
        "subnational2Code": "US-UT-049",
        "lat": 40.14927,
        "lng": -111.5578,
        "latestObsDt": "2024-02-25 17:50",
        "numSpeciesAllTime": 131
    },
    {
        "locId": "L1897328",
        "locName": "Bate's Canyon Rd",
        "countryCode": "US",
        "subnational1Code": "US-UT",
        "subnational2Code": "US-UT-045",
        "lat": 40.6235449,
        "lng": -112.3116123,
        "latestObsDt": "2022-05-12 18:18",
        "numSpeciesAllTime": 20
    },
    {
        "locId": "L807152",
        "locName": "Battle Creek Canyon",
        "countryCode": "US",
        "subnational1Code": "US-UT",
        "subnational2Code": "US-UT-049",
        "lat": 40.3657081,
        "lng": -111.6981268,
        "latestObsDt": "2024-02-17 16:00",
        "numSpeciesAllTime": 110
    },
    {
        "locId": "L11916160",
        "locName": "Bear Canyon Suspension Bridge TH",
        "countryCode": "US",
        "subnational1Code": "US-UT",
        "subnational2Code": "US-UT-035",
        "lat": 40.5221836,
        "lng": -111.833396,
        "latestObsDt": "2024-01-01 13:53",
        "numSpeciesAllTime": 29
    },
    {
        "locId": "L1586372",
        "locName": "Bear Hollow--Rob's Trail",
        "countryCode": "US",
        "subnational1Code": "US-UT",
        "subnational2Code": "US-UT-043",
        "lat": 40.6977863,
        "lng": -111.5608154,
        "latestObsDt": "2023-07-17 09:45",
        "numSpeciesAllTime": 83
    },
    {
        "locId": "L977704",
        "locName": "Bear Lake Overlook Rest Area",
        "countryCode": "US",
        "subnational1Code": "US-UT",
        "subnational2Code": "US-UT-033",
        "lat": 41.9213431,
        "lng": -111.4575595,
        "latestObsDt": "2023-11-09 14:50",
        "numSpeciesAllTime": 83
    },
    {
        "locId": "L6050813",
        "locName": "Bear Lake--Cheney Creek Rest Stop",
        "countryCode": "US",
        "subnational1Code": "US-UT",
        "subnational2Code": "US-UT-033",
        "lat": 41.8565368,
        "lng": -111.3635963,
        "latestObsDt": "2024-01-11 16:37",
        "numSpeciesAllTime": 98
    },
    {
        "locId": "L2988735",
        "locName": "Bear Lake--East Shoreline",
        "countryCode": "US",
        "subnational1Code": "US-UT",
        "subnational2Code": "US-UT-033",
        "lat": 41.8751851,
        "lng": -111.2951088,
        "latestObsDt": "2023-12-25 14:28",
        "numSpeciesAllTime": 139
    },
    {
        "locId": "L458030",
        "locName": "Bear Lake--Marina",
        "countryCode": "US",
        "subnational1Code": "US-UT",
        "subnational2Code": "US-UT-033",
        "lat": 41.9652341,
        "lng": -111.3955307,
        "latestObsDt": "2024-02-03 17:06",
        "numSpeciesAllTime": 83
    },
    {
        "locId": "L504729",
        "locName": "Bear Lake--Rendezvous Beach SP",
        "countryCode": "US",
        "subnational1Code": "US-UT",
        "subnational2Code": "US-UT-033",
        "lat": 41.8458439,
        "lng": -111.3403845,
        "latestObsDt": "2023-09-08 13:48",
        "numSpeciesAllTime": 125
    },
    {
        "locId": "L475288",
        "locName": "Bear Lake--Southwest Shoreline",
        "countryCode": "US",
        "subnational1Code": "US-UT",
        "subnational2Code": "US-UT-033",
        "lat": 41.8910327,
        "lng": -111.3670349,
        "latestObsDt": "2023-12-25 15:28",
        "numSpeciesAllTime": 144
    },
    {
        "locId": "L1218725",
        "locName": "Bear Lake--West Shoreline",
        "countryCode": "US",
        "subnational1Code": "US-UT",
        "subnational2Code": "US-UT-033",
        "lat": 41.9789538,
        "lng": -111.4041138,
        "latestObsDt": "2024-01-29 10:57",
        "numSpeciesAllTime": 146
    },
    {
        "locId": "L604485",
        "locName": "Bear River Bay",
        "countryCode": "US",
        "subnational1Code": "US-UT",
        "subnational2Code": "US-UT-003",
        "lat": 41.45302,
        "lng": -112.3921967,
        "latestObsDt": "2023-01-20 09:00",
        "numSpeciesAllTime": 51
    },
    {
        "locId": "L452512",
        "locName": "Bear River Hunting Club",
        "countryCode": "US",
        "subnational1Code": "US-UT",
        "subnational2Code": "US-UT-003",
        "lat": 41.5097222,
        "lng": -112.235,
        "latestObsDt": "2023-06-14 08:47",
        "numSpeciesAllTime": 82
    },
    {
        "locId": "L164961",
        "locName": "Bear River MBR--Auto Tour Loop",
        "countryCode": "US",
        "subnational1Code": "US-UT",
        "subnational2Code": "US-UT-003",
        "lat": 41.4692291,
        "lng": -112.2947788,
        "latestObsDt": "2024-02-26 11:00",
        "numSpeciesAllTime": 261
    },
    {
        "locId": "L770875",
        "locName": "Bear River MBR--Visitor Center",
        "countryCode": "US",
        "subnational1Code": "US-UT",
        "subnational2Code": "US-UT-003",
        "lat": 41.5076774,
        "lng": -112.068851,
        "latestObsDt": "2024-02-25 13:57",
        "numSpeciesAllTime": 201
    },
    {
        "locId": "L3591669",
        "locName": "Bear River MBR--Yates Tract (permit required)",
        "countryCode": "US",
        "subnational1Code": "US-UT",
        "subnational2Code": "US-UT-003",
        "lat": 41.5156471,
        "lng": -112.103194,
        "latestObsDt": "2023-10-10 08:19",
        "numSpeciesAllTime": 102
    },
    {
        "locId": "L505620",
        "locName": "Bear River Meadows--Crawford Mountain Rd.",
        "countryCode": "US",
        "subnational1Code": "US-UT",
        "subnational2Code": "US-UT-033",
        "lat": 41.6956433,
        "lng": -111.1140114,
        "latestObsDt": "2023-12-25 13:07",
        "numSpeciesAllTime": 152
    },
    {
        "locId": "L1512156",
        "locName": "Bear River--2400 W Bridge",
        "countryCode": "US",
        "subnational1Code": "US-UT",
        "subnational2Code": "US-UT-005",
        "lat": 41.8340339,
        "lng": -111.8933629,
        "latestObsDt": "2023-12-16 12:13",
        "numSpeciesAllTime": 105
    },
    {
        "locId": "L759452",
        "locName": "Bear River--3800 N Bridge",
        "countryCode": "US",
        "subnational1Code": "US-UT",
        "subnational2Code": "US-UT-005",
        "lat": 41.800982,
        "lng": -111.9097806,
        "latestObsDt": "2024-01-25 09:23",
        "numSpeciesAllTime": 89
    },
    {
        "locId": "L3446190",
        "locName": "Bear River--Horseshoe Sloughs",
        "countryCode": "US",
        "subnational1Code": "US-UT",
        "subnational2Code": "US-UT-003",
        "lat": 41.5321619,
        "lng": -112.0797515,
        "latestObsDt": "2024-02-17 14:00",
        "numSpeciesAllTime": 122
    },
    {
        "locId": "L1157826",
        "locName": "Bear River--Lower Outlook",
        "countryCode": "US",
        "subnational1Code": "US-UT",
        "subnational2Code": "US-UT-005",
        "lat": 41.8055657,
        "lng": -111.9265652,
        "latestObsDt": "2024-01-01 11:32",
        "numSpeciesAllTime": 111
    },
    {
        "locId": "L678803",
        "locName": "Bear River--Oxbow 3000 N/Black Rock Rd.",
        "countryCode": "US",
        "subnational1Code": "US-UT",
        "subnational2Code": "US-UT-005",
        "lat": 41.7861021,
        "lng": -111.9171479,
        "latestObsDt": "2024-02-16 15:12",
        "numSpeciesAllTime": 108
    },
    {
        "locId": "L1526849",
        "locName": "Bear River--SR142 Trenton Bridge",
        "countryCode": "US",
        "subnational1Code": "US-UT",
        "subnational2Code": "US-UT-005",
        "lat": 41.9179664,
        "lng": -111.9013516,
        "latestObsDt": "2024-02-17 13:07",
        "numSpeciesAllTime": 86
    },
    {
        "locId": "L1827409",
        "locName": "Bear River--SR30 Hampton Crossing",
        "countryCode": "US",
        "subnational1Code": "US-UT",
        "subnational2Code": "US-UT-003",
        "lat": 41.786449,
        "lng": -112.1061021,
        "latestObsDt": "2023-03-28 19:26",
        "numSpeciesAllTime": 52
    },
    {
        "locId": "L1813537",
        "locName": "Bear River--SR61 Cornish Bridge",
        "countryCode": "US",
        "subnational1Code": "US-UT",
        "subnational2Code": "US-UT-005",
        "lat": 41.975436,
        "lng": -111.9362849,
        "latestObsDt": "2023-01-16 14:49",
        "numSpeciesAllTime": 20
    },
    {
        "locId": "L6021140",
        "locName": "Bears Ears National Monument--The Bears Ears",
        "countryCode": "US",
        "subnational1Code": "US-UT",
        "subnational2Code": "US-UT-037",
        "lat": 37.629669,
        "lng": -109.867749,
        "latestObsDt": "2023-07-02 06:34",
        "numSpeciesAllTime": 78
    },
    {
        "locId": "L1595688",
        "locName": "Beaver (town)",
        "countryCode": "US",
        "subnational1Code": "US-UT",
        "subnational2Code": "US-UT-001",
        "lat": 38.2769488,
        "lng": -112.636844,
        "latestObsDt": "2024-02-24 09:21",
        "numSpeciesAllTime": 109
    },
    {
        "locId": "L4706234",
        "locName": "Beaver Basin",
        "countryCode": "US",
        "subnational1Code": "US-UT",
        "subnational2Code": "US-UT-019",
        "lat": 38.5361213,
        "lng": -109.212513,
        "latestObsDt": "2021-08-23 07:30",
        "numSpeciesAllTime": 50
    },
    {
        "locId": "L507790",
        "locName": "Beaver Canyon ",
        "countryCode": "US",
        "subnational1Code": "US-UT",
        "subnational2Code": "US-UT-001",
        "lat": 38.2949216,
        "lng": -112.4394894,
        "latestObsDt": "2023-09-11 08:35",
        "numSpeciesAllTime": 119
    },
    {
        "locId": "L427635",
        "locName": "Beaver Canyon--Lower (up to S curve)",
        "countryCode": "US",
        "subnational1Code": "US-UT",
        "subnational2Code": "US-UT-001",
        "lat": 38.2522011,
        "lng": -112.5340748,
        "latestObsDt": "2024-02-16 09:42",
        "numSpeciesAllTime": 85
    },
    {
        "locId": "L5827288",
        "locName": "Beaver Dam Mtns--Gravel Pit Rd",
        "countryCode": "US",
        "subnational1Code": "US-UT",
        "subnational2Code": "US-UT-053",
        "lat": 37.074046,
        "lng": -113.833271,
        "latestObsDt": "2023-05-05 15:50",
        "numSpeciesAllTime": 44
    },
    {
        "locId": "L387458",
        "locName": "Beaver Dam Slope (incl. Lytle Ranch Rd)",
        "countryCode": "US",
        "subnational1Code": "US-UT",
        "subnational2Code": "US-UT-053",
        "lat": 37.1070121,
        "lng": -113.9810085,
        "latestObsDt": "2024-02-25 10:13",
        "numSpeciesAllTime": 175
    },
    {
        "locId": "L5617328",
        "locName": "Beaver Dam Slope--East of Hwy 91",
        "countryCode": "US",
        "subnational1Code": "US-UT",
        "subnational2Code": "US-UT-053",
        "lat": 37.0222226,
        "lng": -113.8763809,
        "latestObsDt": "2024-01-30 13:41",
        "numSpeciesAllTime": 59
    },
    {
        "locId": "L1036624",
        "locName": "Beaver Mountain Ski Area",
        "countryCode": "US",
        "subnational1Code": "US-UT",
        "subnational2Code": "US-UT-005",
        "lat": 41.9682974,
        "lng": -111.5409279,
        "latestObsDt": "2024-02-18 09:20",
        "numSpeciesAllTime": 72
    },
    {
        "locId": "L1446177",
        "locName": "Beef Basin",
        "countryCode": "US",
        "subnational1Code": "US-UT",
        "subnational2Code": "US-UT-037",
        "lat": 37.9915131,
        "lng": -109.8719937,
        "latestObsDt": "1984-09-05 11:00",
        "numSpeciesAllTime": 20
    },
    {
        "locId": "L2818011",
        "locName": "Bell Canyon Gulley",
        "countryCode": "US",
        "subnational1Code": "US-UT",
        "subnational2Code": "US-UT-035",
        "lat": 40.5439065,
        "lng": -111.8356061,
        "latestObsDt": "2022-04-24 16:52",
        "numSpeciesAllTime": 64
    },
    {
        "locId": "L598472",
        "locName": "Bells Canyon--Reservoir",
        "countryCode": "US",
        "subnational1Code": "US-UT",
        "subnational2Code": "US-UT-035",
        "lat": 40.5649541,
        "lng": -111.7948151,
        "latestObsDt": "2024-02-12 10:23",
        "numSpeciesAllTime": 99
    },
    {
        "locId": "L1507573",
        "locName": "Bells Canyon--Upper",
        "countryCode": "US",
        "subnational1Code": "US-UT",
        "subnational2Code": "US-UT-035",
        "lat": 40.5620215,
        "lng": -111.7800825,
        "latestObsDt": "2023-11-02 15:11",
        "numSpeciesAllTime": 96
    },
    {
        "locId": "L1597442",
        "locName": "Ben Franklin Park",
        "countryCode": "US",
        "subnational1Code": "US-UT",
        "subnational2Code": "US-UT-035",
        "lat": 40.6950793,
        "lng": -111.8676679,
        "latestObsDt": "2022-10-12 12:35",
        "numSpeciesAllTime": 21
    },
    {
        "locId": "L6672981",
        "locName": "Ben Lomond GC",
        "countryCode": "US",
        "subnational1Code": "US-UT",
        "subnational2Code": "US-UT-057",
        "lat": 41.286331,
        "lng": -111.986475,
        "latestObsDt": "2018-05-17 23:00",
        "numSpeciesAllTime": 14
    },
    {
        "locId": "L1002082",
        "locName": "Ben Lomond Peak & Willard Basin Area",
        "countryCode": "US",
        "subnational1Code": "US-UT",
        "subnational2Code": "US-UT-003",
        "lat": 41.3896884,
        "lng": -111.9839859,
        "latestObsDt": "2023-08-13 13:05",
        "numSpeciesAllTime": 84
    },
    {
        "locId": "L729328",
        "locName": "Benjamin Slough",
        "countryCode": "US",
        "subnational1Code": "US-UT",
        "subnational2Code": "US-UT-049",
        "lat": 40.113822,
        "lng": -111.7716837,
        "latestObsDt": "2024-02-17 14:45",
        "numSpeciesAllTime": 157
    },
    {
        "locId": "L165064",
        "locName": "Benson Marina",
        "countryCode": "US",
        "subnational1Code": "US-UT",
        "subnational2Code": "US-UT-005",
        "lat": 41.787153,
        "lng": -111.9525719,
        "latestObsDt": "2024-02-24 10:58",
        "numSpeciesAllTime": 174
    },
    {
        "locId": "L1560543",
        "locName": "Benson RR Trail",
        "countryCode": "US",
        "subnational1Code": "US-UT",
        "subnational2Code": "US-UT-005",
        "lat": 41.781617,
        "lng": -111.9431734,
        "latestObsDt": "2024-02-19 10:36",
        "numSpeciesAllTime": 146
    },
    {
        "locId": "L1463408",
        "locName": "Benson Water Trough Ponds",
        "countryCode": "US",
        "subnational1Code": "US-UT",
        "subnational2Code": "US-UT-005",
        "lat": 41.7905288,
        "lng": -111.9119525,
        "latestObsDt": "2024-02-25 15:00",
        "numSpeciesAllTime": 121
    },
    {
        "locId": "L15467361",
        "locName": "Benson--N 3200 W",
        "countryCode": "US",
        "subnational1Code": "US-UT",
        "subnational2Code": "US-UT-005",
        "lat": 41.753769,
        "lng": -111.9116,
        "latestObsDt": "2023-07-31 16:45",
        "numSpeciesAllTime": 60
    },
    {
        "locId": "L1575323",
        "locName": "Beryl (town)",
        "countryCode": "US",
        "subnational1Code": "US-UT",
        "subnational2Code": "US-UT-021",
        "lat": 37.8921967,
        "lng": -113.6625764,
        "latestObsDt": "2023-05-30 05:42",
        "numSpeciesAllTime": 38
    },
    {
        "locId": "L493816",
        "locName": "Beryl Junction",
        "countryCode": "US",
        "subnational1Code": "US-UT",
        "subnational2Code": "US-UT-021",
        "lat": 37.7095598,
        "lng": -113.6562252,
        "latestObsDt": "2024-02-17 10:43",
        "numSpeciesAllTime": 80
    },
    {
        "locId": "L22176150",
        "locName": "Beryl Junction--South Fields",
        "countryCode": "US",
        "subnational1Code": "US-UT",
        "subnational2Code": "US-UT-021",
        "lat": 37.6557901,
        "lng": -113.6612395,
        "latestObsDt": "2024-02-17 11:08",
        "numSpeciesAllTime": 33
    },
    {
        "locId": "L342160",
        "locName": "Beus Pond & Beus Forest Green Park",
        "countryCode": "US",
        "subnational1Code": "US-UT",
        "subnational2Code": "US-UT-057",
        "lat": 41.18395,
        "lng": -111.9386694,
        "latestObsDt": "2024-02-25 17:38",
        "numSpeciesAllTime": 153
    },
    {
        "locId": "L3617280",
        "locName": "Bicentennial Park",
        "countryCode": "US",
        "subnational1Code": "US-UT",
        "subnational2Code": "US-UT-021",
        "lat": 37.6911684,
        "lng": -113.0698299,
        "latestObsDt": "2024-02-19 07:20",
        "numSpeciesAllTime": 53
    },
    {
        "locId": "L827738",
        "locName": "Bicentennial Park",
        "countryCode": "US",
        "subnational1Code": "US-UT",
        "subnational2Code": "US-UT-049",
        "lat": 40.2138335,
        "lng": -111.6307926,
        "latestObsDt": "2024-02-22 15:10",
        "numSpeciesAllTime": 86
    },
    {
        "locId": "L988303",
        "locName": "Bicknell Bottoms--400 W",
        "countryCode": "US",
        "subnational1Code": "US-UT",
        "subnational2Code": "US-UT-055",
        "lat": 38.3098746,
        "lng": -111.5516138,
        "latestObsDt": "2023-11-01 17:03",
        "numSpeciesAllTime": 104
    },
    {
        "locId": "L503369",
        "locName": "Bicknell Bottoms--Bicknell Circle Rd.",
        "countryCode": "US",
        "subnational1Code": "US-UT",
        "subnational2Code": "US-UT-055",
        "lat": 38.305363,
        "lng": -111.5303236,
        "latestObsDt": "2023-11-26 15:30",
        "numSpeciesAllTime": 145
    },
    {
        "locId": "L5817315",
        "locName": "Bicknell Bottoms--Posey Lake Rd.",
        "countryCode": "US",
        "subnational1Code": "US-UT",
        "subnational2Code": "US-UT-055",
        "lat": 38.291208,
        "lng": -111.56218,
        "latestObsDt": "2023-09-20 08:04",
        "numSpeciesAllTime": 40
    },
    {
        "locId": "L985781",
        "locName": "Bicknell Bottoms--Riparian along Hwy 24",
        "countryCode": "US",
        "subnational1Code": "US-UT",
        "subnational2Code": "US-UT-055",
        "lat": 38.3066081,
        "lng": -111.51299,
        "latestObsDt": "2023-11-10 15:39",
        "numSpeciesAllTime": 134
    },
    {
        "locId": "L19979061",
        "locName": "Big Cottonwood Canyon",
        "countryCode": "US",
        "subnational1Code": "US-UT",
        "subnational2Code": "US-UT-035",
        "lat": 40.6435475,
        "lng": -111.6384661,
        "latestObsDt": "2023-09-25 10:47",
        "numSpeciesAllTime": 120
    },
    {
        "locId": "L12177886",
        "locName": "Big Cottonwood Canyon--Beartrap Fork to Desolation Lake",
        "countryCode": "US",
        "subnational1Code": "US-UT",
        "subnational2Code": "US-UT-035",
        "lat": 40.648566,
        "lng": -111.608289,
        "latestObsDt": "2023-10-09 16:12",
        "numSpeciesAllTime": 55
    },
    {
        "locId": "L1405485",
        "locName": "Big Cottonwood Canyon--Brighton Loop Rd.",
        "countryCode": "US",
        "subnational1Code": "US-UT",
        "subnational2Code": "US-UT-035",
        "lat": 40.5995375,
        "lng": -111.5822537,
        "latestObsDt": "2024-02-25 15:09",
        "numSpeciesAllTime": 80
    },
    {
        "locId": "L1553329",
        "locName": "Big Cottonwood Canyon--Brighton Ski Resort",
        "countryCode": "US",
        "subnational1Code": "US-UT",
        "subnational2Code": "US-UT-035",
        "lat": 40.5928371,
        "lng": -111.5752888,
        "latestObsDt": "2024-01-25 09:00",
        "numSpeciesAllTime": 69
    },
    {
        "locId": "L354335",
        "locName": "Big Cottonwood Canyon--Brighton to Twin Lakes Hike",
        "countryCode": "US",
        "subnational1Code": "US-UT",
        "subnational2Code": "US-UT-035",
        "lat": 40.6018575,
        "lng": -111.5858888,
        "latestObsDt": "2023-10-07 07:11",
        "numSpeciesAllTime": 113
    },
    {
        "locId": "L2267794",
        "locName": "Big Cottonwood Canyon--Broads Fork",
        "countryCode": "US",
        "subnational1Code": "US-UT",
        "subnational2Code": "US-UT-035",
        "lat": 40.6168453,
        "lng": -111.7199922,
        "latestObsDt": "2023-08-24 09:22",
        "numSpeciesAllTime": 65
    },
    {
        "locId": "L6424608",
        "locName": "Big Cottonwood Canyon--Butler Fork/Mill A Basin",
        "countryCode": "US",
        "subnational1Code": "US-UT",
        "subnational2Code": "US-UT-035",
        "lat": 40.662357,
        "lng": -111.688203,
        "latestObsDt": "2023-10-27 09:54",
        "numSpeciesAllTime": 70
    },
    {
        "locId": "L1646799",
        "locName": "Big Cottonwood Canyon--Donut Falls",
        "countryCode": "US",
        "subnational1Code": "US-UT",
        "subnational2Code": "US-UT-035",
        "lat": 40.6301954,
        "lng": -111.654587,
        "latestObsDt": "2024-02-13 19:30",
        "numSpeciesAllTime": 76
    },
    {
        "locId": "L456935",
        "locName": "Big Cottonwood Canyon--Guardsman Pass & Jupiter Peak Area",
        "countryCode": "US",
        "subnational1Code": "US-UT",
        "subnational2Code": "US-UT-035",
        "lat": 40.606846,
        "lng": -111.555342,
        "latestObsDt": "2023-09-14 16:10",
        "numSpeciesAllTime": 81
    },
    {
        "locId": "L4746033",
        "locName": "Big Cottonwood Canyon--Guardsman Pass Rd.",
        "countryCode": "US",
        "subnational1Code": "US-UT",
        "subnational2Code": "US-UT-035",
        "lat": 40.6113462,
        "lng": -111.5677071,
        "latestObsDt": "2023-10-22 15:33",
        "numSpeciesAllTime": 50
    },
    {
        "locId": "L20517038",
        "locName": "Big Cottonwood Canyon--Jordan Pines CG",
        "countryCode": "US",
        "subnational1Code": "US-UT",
        "subnational2Code": "US-UT-035",
        "lat": 40.6450894,
        "lng": -111.6477871,
        "latestObsDt": "2023-12-22 14:00",
        "numSpeciesAllTime": 54
    },
    {
        "locId": "L26238176",
        "locName": "Big Cottonwood Canyon--Lake Blanche Trail",
        "countryCode": "US",
        "subnational1Code": "US-UT",
        "subnational2Code": "US-UT-035",
        "lat": 40.6144609,
        "lng": -111.7046132,
        "latestObsDt": "2023-09-08 09:46",
        "numSpeciesAllTime": 6
    },
    {
        "locId": "L1546926",
        "locName": "Big Cottonwood Canyon--Lake Blanche/Mill B South Hike",
        "countryCode": "US",
        "subnational1Code": "US-UT",
        "subnational2Code": "US-UT-035",
        "lat": 40.6161168,
        "lng": -111.7010098,
        "latestObsDt": "2023-09-24 13:10",
        "numSpeciesAllTime": 76
    },
    {
        "locId": "L15669682",
        "locName": "Big Cottonwood Canyon--Lake Mary",
        "countryCode": "US",
        "subnational1Code": "US-UT",
        "subnational2Code": "US-UT-035",
        "lat": 40.5891488,
        "lng": -111.5884084,
        "latestObsDt": "2023-10-20 11:17",
        "numSpeciesAllTime": 46
    },
    {
        "locId": "L1601321",
        "locName": "Big Cottonwood Canyon--Lake Mary Trail",
        "countryCode": "US",
        "subnational1Code": "US-UT",
        "subnational2Code": "US-UT-035",
        "lat": 40.5916267,
        "lng": -111.5814715,
        "latestObsDt": "2023-09-09 12:00",
        "numSpeciesAllTime": 97
    },
    {
        "locId": "L2363521",
        "locName": "Big Cottonwood Canyon--Ledgemere Picnic Area",
        "countryCode": "US",
        "subnational1Code": "US-UT",
        "subnational2Code": "US-UT-035",
        "lat": 40.6233667,
        "lng": -111.7638999,
        "latestObsDt": "2023-08-14 15:38",
        "numSpeciesAllTime": 52
    },
    {
        "locId": "L20168159",
        "locName": "Big Cottonwood Canyon--Mill B North Fork Trail",
        "countryCode": "US",
        "subnational1Code": "US-UT",
        "subnational2Code": "US-UT-035",
        "lat": 40.637587,
        "lng": -111.720974,
        "latestObsDt": "2023-10-04 14:27",
        "numSpeciesAllTime": 38
    },
    {
        "locId": "L1110100",
        "locName": "Big Cottonwood Canyon--Mill D North (Dog Lake Hike)",
        "countryCode": "US",
        "subnational1Code": "US-UT",
        "subnational2Code": "US-UT-035",
        "lat": 40.6557039,
        "lng": -111.6337109,
        "latestObsDt": "2023-07-03 08:40",
        "numSpeciesAllTime": 85
    },
    {
        "locId": "L19983329",
        "locName": "Big Cottonwood Canyon--Mineral Fork Trail",
        "countryCode": "US",
        "subnational1Code": "US-UT",
        "subnational2Code": "US-UT-035",
        "lat": 40.625647,
        "lng": -111.691986,
        "latestObsDt": "2023-10-15 11:10",
        "numSpeciesAllTime": 25
    },
    {
        "locId": "L26237666",
        "locName": "Big Cottonwood Canyon--Moss Ledge Waterfall",
        "countryCode": "US",
        "subnational1Code": "US-UT",
        "subnational2Code": "US-UT-035",
        "lat": 40.634317,
        "lng": -111.711488,
        "latestObsDt": "2023-07-27 17:28",
        "numSpeciesAllTime": 3
    },
    {
        "locId": "L269919",
        "locName": "Big Cottonwood Canyon--Mouth",
        "countryCode": "US",
        "subnational1Code": "US-UT",
        "subnational2Code": "US-UT-035",
        "lat": 40.6189212,
        "lng": -111.7777895,
        "latestObsDt": "2024-02-05 10:14",
        "numSpeciesAllTime": 66
    },
    {
        "locId": "L17034727",
        "locName": "Big Cottonwood Canyon--Mule Hollow Trail",
        "countryCode": "US",
        "subnational1Code": "US-UT",
        "subnational2Code": "US-UT-035",
        "lat": 40.630517,
        "lng": -111.746497,
        "latestObsDt": "2021-12-04 12:19",
        "numSpeciesAllTime": 11
    },
    {
        "locId": "L25992932",
        "locName": "Big Cottonwood Canyon--Redman CG, Utah, US",
        "countryCode": "US",
        "subnational1Code": "US-UT",
        "subnational2Code": "US-UT-035",
        "lat": 40.6132103,
        "lng": -111.5896277,
        "latestObsDt": "2023-10-22 08:00",
        "numSpeciesAllTime": 75
    },
    {
        "locId": "L1545609",
        "locName": "Big Cottonwood Canyon--Silver Lake",
        "countryCode": "US",
        "subnational1Code": "US-UT",
        "subnational2Code": "US-UT-035",
        "lat": 40.6041979,
        "lng": -111.5884771,
        "latestObsDt": "2024-02-25 13:53",
        "numSpeciesAllTime": 141
    },
    {
        "locId": "L739849",
        "locName": "Big Cottonwood Canyon--Silver Lake to Lake Solitude Hike",
        "countryCode": "US",
        "subnational1Code": "US-UT",
        "subnational2Code": "US-UT-035",
        "lat": 40.6100397,
        "lng": -111.5959064,
        "latestObsDt": "2023-10-20 10:15",
        "numSpeciesAllTime": 114
    },
    {
        "locId": "L2689985",
        "locName": "Big Cottonwood Canyon--Solitude Ski Resort",
        "countryCode": "US",
        "subnational1Code": "US-UT",
        "subnational2Code": "US-UT-035",
        "lat": 40.6211191,
        "lng": -111.595602,
        "latestObsDt": "2024-02-26 14:24",
        "numSpeciesAllTime": 80
    },
    {
        "locId": "L737036",
        "locName": "Big Cottonwood Canyon--Spruces CG",
        "countryCode": "US",
        "subnational1Code": "US-UT",
        "subnational2Code": "US-UT-035",
        "lat": 40.64154,
        "lng": -111.6372943,
        "latestObsDt": "2024-01-03 11:24",
        "numSpeciesAllTime": 81
    },
    {
        "locId": "L9507671",
        "locName": "Big Cottonwood Canyon--Storm Mountain Picnic Area",
        "countryCode": "US",
        "subnational1Code": "US-UT",
        "subnational2Code": "US-UT-035",
        "lat": 40.6245211,
        "lng": -111.743689,
        "latestObsDt": "2023-11-01 16:30",
        "numSpeciesAllTime": 29
    },
    {
        "locId": "L2216182",
        "locName": "Big Cottonwood Canyon--Twin Lakes to Lake Solitude",
        "countryCode": "US",
        "subnational1Code": "US-UT",
        "subnational2Code": "US-UT-035",
        "lat": 40.5992192,
        "lng": -111.6006875,
        "latestObsDt": "2023-09-10 11:09",
        "numSpeciesAllTime": 85
    },
    {
        "locId": "L1545612",
        "locName": "Big Cottonwood Canyon--Willow Heights",
        "countryCode": "US",
        "subnational1Code": "US-UT",
        "subnational2Code": "US-UT-035",
        "lat": 40.6341226,
        "lng": -111.6013117,
        "latestObsDt": "2023-10-20 10:33",
        "numSpeciesAllTime": 81
    },
    {
        "locId": "L1426627",
        "locName": "Big Cottonwood Park",
        "countryCode": "US",
        "subnational1Code": "US-UT",
        "subnational2Code": "US-UT-035",
        "lat": 40.6711287,
        "lng": -111.8480671,
        "latestObsDt": "2024-02-26 17:31",
        "numSpeciesAllTime": 163
    },
    {
        "locId": "L4116189",
        "locName": "Big Cottonwood Regional Park--Softball Complex",
        "countryCode": "US",
        "subnational1Code": "US-UT",
        "subnational2Code": "US-UT-035",
        "lat": 40.6772816,
        "lng": -111.8558596,
        "latestObsDt": "2023-12-24 16:18",
        "numSpeciesAllTime": 50
    },
    {
        "locId": "L2258883",
        "locName": "Big John Flat",
        "countryCode": "US",
        "subnational1Code": "US-UT",
        "subnational2Code": "US-UT-001",
        "lat": 38.3461451,
        "lng": -112.4007583,
        "latestObsDt": "2023-10-14 07:55",
        "numSpeciesAllTime": 49
    },
    {
        "locId": "L461418",
        "locName": "Big Mountain Pass (Morgan Co.)",
        "countryCode": "US",
        "subnational1Code": "US-UT",
        "subnational2Code": "US-UT-029",
        "lat": 40.828586,
        "lng": -111.653401,
        "latestObsDt": "2023-09-02 07:49",
        "numSpeciesAllTime": 94
    },
    {
        "locId": "L3501564",
        "locName": "Big Mountain Pass (Salt Lake Co.)",
        "countryCode": "US",
        "subnational1Code": "US-UT",
        "subnational2Code": "US-UT-035",
        "lat": 40.8276199,
        "lng": -111.6545302,
        "latestObsDt": "2023-11-14 13:38",
        "numSpeciesAllTime": 93
    },
    {
        "locId": "L12320534",
        "locName": "Big Mountain Summit",
        "countryCode": "US",
        "subnational1Code": "US-UT",
        "subnational2Code": "US-UT-035",
        "lat": 40.8451367,
        "lng": -111.6621703,
        "latestObsDt": "2021-11-28 11:58",
        "numSpeciesAllTime": 41
    },
    {
        "locId": "L5481968",
        "locName": "Big Rocks Rd.--Fremont River Marsh",
        "countryCode": "US",
        "subnational1Code": "US-UT",
        "subnational2Code": "US-UT-055",
        "lat": 38.3602171,
        "lng": -111.6065615,
        "latestObsDt": "2023-11-12 11:14",
        "numSpeciesAllTime": 61
    },
    {
        "locId": "L632008",
        "locName": "Big Sand Wash Reservoir",
        "countryCode": "US",
        "subnational1Code": "US-UT",
        "subnational2Code": "US-UT-013",
        "lat": 40.2970721,
        "lng": -110.2333832,
        "latestObsDt": "2023-12-28 09:21",
        "numSpeciesAllTime": 85
    },
    {
        "locId": "L2972370",
        "locName": "Big Spring Road",
        "countryCode": "US",
        "subnational1Code": "US-UT",
        "subnational2Code": "US-UT-033",
        "lat": 41.3912982,
        "lng": -111.4629936,
        "latestObsDt": "2017-07-02 15:50",
        "numSpeciesAllTime": 60
    },
    {
        "locId": "L8066715",
        "locName": "Big Water",
        "countryCode": "US",
        "subnational1Code": "US-UT",
        "subnational2Code": "US-UT-025",
        "lat": 37.081932,
        "lng": -111.661443,
        "latestObsDt": "2023-09-21 16:40",
        "numSpeciesAllTime": 23
    },
    {
        "locId": "L3496598",
        "locName": "Big Willow Canyon & Sawmill Trail",
        "countryCode": "US",
        "subnational1Code": "US-UT",
        "subnational2Code": "US-UT-035",
        "lat": 40.5397321,
        "lng": -111.8053615,
        "latestObsDt": "2022-05-25 12:25",
        "numSpeciesAllTime": 34
    },
    {
        "locId": "L1404194",
        "locName": "Birch Canyon Rd",
        "countryCode": "US",
        "subnational1Code": "US-UT",
        "subnational2Code": "US-UT-005",
        "lat": 41.8519579,
        "lng": -111.7780987,
        "latestObsDt": "2024-02-10 12:04",
        "numSpeciesAllTime": 70
    },
    {
        "locId": "L5755448",
        "locName": "Birch Creek",
        "countryCode": "US",
        "subnational1Code": "US-UT",
        "subnational2Code": "US-UT-031",
        "lat": 38.441645,
        "lng": -111.954854,
        "latestObsDt": "2024-02-18 11:29",
        "numSpeciesAllTime": 88
    },
    {
        "locId": "L3673899",
        "locName": "Birch Creek CG",
        "countryCode": "US",
        "subnational1Code": "US-UT",
        "subnational2Code": "US-UT-031",
        "lat": 38.1745797,
        "lng": -112.3622203,
        "latestObsDt": "2021-05-20 07:55",
        "numSpeciesAllTime": 21
    },
    {
        "locId": "L1243316",
        "locName": "Birch Creek Rd.--Lower (WY border to ~8200 ft)",
        "countryCode": "US",
        "subnational1Code": "US-UT",
        "subnational2Code": "US-UT-009",
        "lat": 40.9860535,
        "lng": -109.9722862,
        "latestObsDt": "2011-07-29 17:00",
        "numSpeciesAllTime": 7
    },
    {
        "locId": "L770872",
        "locName": "Bird Refuge Rd.",
        "countryCode": "US",
        "subnational1Code": "US-UT",
        "subnational2Code": "US-UT-003",
        "lat": 41.4689719,
        "lng": -112.1759892,
        "latestObsDt": "2024-02-25 13:20",
        "numSpeciesAllTime": 200
    },
    {
        "locId": "L326849",
        "locName": "Birdsong Trail",
        "countryCode": "US",
        "subnational1Code": "US-UT",
        "subnational2Code": "US-UT-057",
        "lat": 41.2351126,
        "lng": -111.9305866,
        "latestObsDt": "2023-09-30 13:02",
        "numSpeciesAllTime": 104
    },
    {
        "locId": "L6030872",
        "locName": "BlackHawk Park",
        "countryCode": "US",
        "subnational1Code": "US-UT",
        "subnational2Code": "US-UT-005",
        "lat": 41.7058407,
        "lng": -111.8433926,
        "latestObsDt": "2024-01-17 13:43",
        "numSpeciesAllTime": 46
    },
    {
        "locId": "L14518080",
        "locName": "Blackridge Reservoir",
        "countryCode": "US",
        "subnational1Code": "US-UT",
        "subnational2Code": "US-UT-035",
        "lat": 40.4804726,
        "lng": -112.0207576,
        "latestObsDt": "2024-02-17 14:18",
        "numSpeciesAllTime": 65
    },
    {
        "locId": "L805128",
        "locName": "Blacksmith Fork @ Hwy 165 (Nibley Main St)",
        "countryCode": "US",
        "subnational1Code": "US-UT",
        "subnational2Code": "US-UT-005",
        "lat": 41.6873994,
        "lng": -111.8339539,
        "latestObsDt": "2024-02-02 09:13",
        "numSpeciesAllTime": 47
    },
    {
        "locId": "L4558777",
        "locName": "Blacksmith Fork Canyon--Marshes",
        "countryCode": "US",
        "subnational1Code": "US-UT",
        "subnational2Code": "US-UT-005",
        "lat": 41.623102,
        "lng": -111.6685259,
        "latestObsDt": "2023-06-19 13:21",
        "numSpeciesAllTime": 70
    },
    {
        "locId": "L5002909",
        "locName": "Blanding City Cemetery",
        "countryCode": "US",
        "subnational1Code": "US-UT",
        "subnational2Code": "US-UT-037",
        "lat": 37.6305132,
        "lng": -109.4685459,
        "latestObsDt": "2023-12-11 13:40",
        "numSpeciesAllTime": 22
    },
    {
        "locId": "L353763",
        "locName": "Blanding WTP",
        "countryCode": "US",
        "subnational1Code": "US-UT",
        "subnational2Code": "US-UT-037",
        "lat": 37.5699855,
        "lng": -109.4784638,
        "latestObsDt": "2024-02-11 09:56",
        "numSpeciesAllTime": 131
    },
    {
        "locId": "L427709",
        "locName": "Blanding--Universe Road Farms",
        "countryCode": "US",
        "subnational1Code": "US-UT",
        "subnational2Code": "US-UT-037",
        "lat": 37.5919954,
        "lng": -109.457581,
        "latestObsDt": "2024-02-19 12:29",
        "numSpeciesAllTime": 26
    },
    {
        "locId": "L2100491",
        "locName": "Blanding--Westwater Creek",
        "countryCode": "US",
        "subnational1Code": "US-UT",
        "subnational2Code": "US-UT-037",
        "lat": 37.6254149,
        "lng": -109.4936728,
        "latestObsDt": "2024-02-19 07:09",
        "numSpeciesAllTime": 68
    },
    {
        "locId": "L2158069",
        "locName": "Bloomington Hills North Park",
        "countryCode": "US",
        "subnational1Code": "US-UT",
        "subnational2Code": "US-UT-053",
        "lat": 37.0712107,
        "lng": -113.5639518,
        "latestObsDt": "2023-12-20 10:21",
        "numSpeciesAllTime": 43
    },
    {
        "locId": "L477261",
        "locName": "Bloomington WTP",
        "countryCode": "US",
        "subnational1Code": "US-UT",
        "subnational2Code": "US-UT-053",
        "lat": 37.0409796,
        "lng": -113.6303043,
        "latestObsDt": "2024-02-24 14:55",
        "numSpeciesAllTime": 19
    },
    {
        "locId": "L4532729",
        "locName": "Blue Creek Reservoir",
        "countryCode": "US",
        "subnational1Code": "US-UT",
        "subnational2Code": "US-UT-003",
        "lat": 41.8129708,
        "lng": -112.4606895,
        "latestObsDt": "2023-03-25 11:41",
        "numSpeciesAllTime": 68
    },
    {
        "locId": "L1802886",
        "locName": "Blue Creek Spring",
        "countryCode": "US",
        "subnational1Code": "US-UT",
        "subnational2Code": "US-UT-003",
        "lat": 41.8316281,
        "lng": -112.4537616,
        "latestObsDt": "2024-02-19 11:07",
        "numSpeciesAllTime": 124
    },
    {
        "locId": "L11803220",
        "locName": "Blue Lake",
        "countryCode": "US",
        "subnational1Code": "US-UT",
        "subnational2Code": "US-UT-001",
        "lat": 38.3965835,
        "lng": -112.4195437,
        "latestObsDt": "2022-07-23 11:37",
        "numSpeciesAllTime": 40
    },
    {
        "locId": "L20094576",
        "locName": "Blue Lake",
        "countryCode": "US",
        "subnational1Code": "US-UT",
        "subnational2Code": "US-UT-043",
        "lat": 40.646336,
        "lng": -110.979144,
        "latestObsDt": "2022-07-09 16:06",
        "numSpeciesAllTime": 13
    },
    {
        "locId": "L568688",
        "locName": "Blue Lake",
        "countryCode": "US",
        "subnational1Code": "US-UT",
        "subnational2Code": "US-UT-051",
        "lat": 40.4873339,
        "lng": -110.9563994,
        "latestObsDt": "2023-11-02 13:05",
        "numSpeciesAllTime": 27
    },
    {
        "locId": "L1289921",
        "locName": "Blue Lake & Salt Springs WMA (Tooele Co.)",
        "countryCode": "US",
        "subnational1Code": "US-UT",
        "subnational2Code": "US-UT-045",
        "lat": 40.4995377,
        "lng": -114.0317345,
        "latestObsDt": "2023-10-23 15:53",
        "numSpeciesAllTime": 82
    },
    {
        "locId": "L2116749",
        "locName": "Bluff -- Cottonwood Wash Rd",
        "countryCode": "US",
        "subnational1Code": "US-UT",
        "subnational2Code": "US-UT-037",
        "lat": 37.2951544,
        "lng": -109.5648479,
        "latestObsDt": "2024-02-17 10:00",
        "numSpeciesAllTime": 55
    },
    {
        "locId": "L2116782",
        "locName": "Bluff -- Navajo Twins Ponds",
        "countryCode": "US",
        "subnational1Code": "US-UT",
        "subnational2Code": "US-UT-037",
        "lat": 37.2908526,
        "lng": -109.5581961,
        "latestObsDt": "2023-06-04 06:48",
        "numSpeciesAllTime": 57
    },
    {
        "locId": "L2116794",
        "locName": "Bluff -- San Juan River & Mission Road",
        "countryCode": "US",
        "subnational1Code": "US-UT",
        "subnational2Code": "US-UT-037",
        "lat": 37.2767847,
        "lng": -109.5203018,
        "latestObsDt": "2023-11-07 07:30",
        "numSpeciesAllTime": 62
    },
    {
        "locId": "L352951",
        "locName": "Bluff -- Town (Incl. San Juan River)",
        "countryCode": "US",
        "subnational1Code": "US-UT",
        "subnational2Code": "US-UT-037",
        "lat": 37.2824167,
        "lng": -109.5616943,
        "latestObsDt": "2023-12-16 12:13",
        "numSpeciesAllTime": 111
    },
    {
        "locId": "L1383504",
        "locName": "Bluffdale Ponds",
        "countryCode": "US",
        "subnational1Code": "US-UT",
        "subnational2Code": "US-UT-035",
        "lat": 40.4877726,
        "lng": -111.9112635,
        "latestObsDt": "2024-01-18 09:44",
        "numSpeciesAllTime": 50
    },
    {
        "locId": "L12236107",
        "locName": "Bonneville GC",
        "countryCode": "US",
        "subnational1Code": "US-UT",
        "subnational2Code": "US-UT-035",
        "lat": 40.7464,
        "lng": -111.8248,
        "latestObsDt": "2023-05-25 12:49",
        "numSpeciesAllTime": 62
    },
    {
        "locId": "L12188222",
        "locName": "Bonneville Hills (neighborhood)",
        "countryCode": "US",
        "subnational1Code": "US-UT",
        "subnational2Code": "US-UT-035",
        "lat": 40.7372174,
        "lng": -111.8307968,
        "latestObsDt": "2023-08-11 18:20",
        "numSpeciesAllTime": 60
    },
    {
        "locId": "L1337180",
        "locName": "Bonneville Ridge GC",
        "countryCode": "US",
        "subnational1Code": "US-UT",
        "subnational2Code": "US-UT-011",
        "lat": 40.8606944,
        "lng": -111.8546691,
        "latestObsDt": "2024-01-20 10:13",
        "numSpeciesAllTime": 56
    },
    {
        "locId": "L7185614",
        "locName": "Bonneville Seabase",
        "countryCode": "US",
        "subnational1Code": "US-UT",
        "subnational2Code": "US-UT-045",
        "lat": 40.6466849,
        "lng": -112.5251055,
        "latestObsDt": "2018-06-10 00:00",
        "numSpeciesAllTime": 10
    },
    {
        "locId": "L1089794",
        "locName": "Bonneville Shoreline Trail (Cache Co.)",
        "countryCode": "US",
        "subnational1Code": "US-UT",
        "subnational2Code": "US-UT-005",
        "lat": 41.756843,
        "lng": -111.784687,
        "latestObsDt": "2023-12-16 12:42",
        "numSpeciesAllTime": 87
    },
    {
        "locId": "L1527874",
        "locName": "Bonneville Shoreline Trail--Coldwater Canyon",
        "countryCode": "US",
        "subnational1Code": "US-UT",
        "subnational2Code": "US-UT-057",
        "lat": 41.3018276,
        "lng": -111.9305803,
        "latestObsDt": "2023-12-16 10:10",
        "numSpeciesAllTime": 73
    },
    {
        "locId": "L2205695",
        "locName": "Bonneville Shoreline Trail--Fernwood Dr to North Fork Kays Creek",
        "countryCode": "US",
        "subnational1Code": "US-UT",
        "subnational2Code": "US-UT-011",
        "lat": 41.100975,
        "lng": -111.9045531,
        "latestObsDt": "2024-01-22 11:32",
        "numSpeciesAllTime": 78
    },
    {
        "locId": "L1587064",
        "locName": "Bonneville Shoreline Trail--North Salt Lake",
        "countryCode": "US",
        "subnational1Code": "US-UT",
        "subnational2Code": "US-UT-011",
        "lat": 40.8227093,
        "lng": -111.9024429,
        "latestObsDt": "2024-01-26 13:24",
        "numSpeciesAllTime": 102
    },
    {
        "locId": "L2839822",
        "locName": "Bonneville Shoreline Trail--North of AF Canyon (Utah Co.)",
        "countryCode": "US",
        "subnational1Code": "US-UT",
        "subnational2Code": "US-UT-049",
        "lat": 40.4430505,
        "lng": -111.751551,
        "latestObsDt": "2024-02-19 10:18",
        "numSpeciesAllTime": 58
    },
    {
        "locId": "L503154",
        "locName": "Bonneville Shoreline Trail--North of Provo Canyon (Utah Co.)",
        "countryCode": "US",
        "subnational1Code": "US-UT",
        "subnational2Code": "US-UT-049",
        "lat": 40.3252317,
        "lng": -111.6648459,
        "latestObsDt": "2024-02-22 11:46",
        "numSpeciesAllTime": 84
    },
    {
        "locId": "L1438513",
        "locName": "Bonneville Shoreline Trail--Ogden Nature Center North",
        "countryCode": "US",
        "subnational1Code": "US-UT",
        "subnational2Code": "US-UT-057",
        "lat": 41.2781915,
        "lng": -111.9486637,
        "latestObsDt": "2023-06-02 12:08",
        "numSpeciesAllTime": 67
    },
    {
        "locId": "L3199748",
        "locName": "Bonneville Shoreline Trail--Parley's to Big Cottonwood Canyon",
        "countryCode": "US",
        "subnational1Code": "US-UT",
        "subnational2Code": "US-UT-035",
        "lat": 40.6580213,
        "lng": -111.8008983,
        "latestObsDt": "2023-12-27 15:29",
        "numSpeciesAllTime": 44
    },
    {
        "locId": "L2832480",
        "locName": "Bonneville Shoreline Trail--Parrish Creek Trailhead (Davis Co.)",
        "countryCode": "US",
        "subnational1Code": "US-UT",
        "subnational2Code": "US-UT-011",
        "lat": 40.9223127,
        "lng": -111.8664193,
        "latestObsDt": "2023-12-30 13:15",
        "numSpeciesAllTime": 75
    },
    {
        "locId": "L1314017",
        "locName": "Bonneville Shoreline Trail--Red Butte Canyon to Emigration Canyon",
        "countryCode": "US",
        "subnational1Code": "US-UT",
        "subnational2Code": "US-UT-035",
        "lat": 40.7607877,
        "lng": -111.8172711,
        "latestObsDt": "2024-02-20 12:47",
        "numSpeciesAllTime": 76
    },
    {
        "locId": "L1275384",
        "locName": "Bonneville Shoreline Trail--South of I-80",
        "countryCode": "US",
        "subnational1Code": "US-UT",
        "subnational2Code": "US-UT-035",
        "lat": 40.7041436,
        "lng": -111.7897403,
        "latestObsDt": "2024-02-07 07:58",
        "numSpeciesAllTime": 88
    },
    {
        "locId": "L7460854",
        "locName": "Bonneville Shoreline Trail--Terrace Hills",
        "countryCode": "US",
        "subnational1Code": "US-UT",
        "subnational2Code": "US-UT-035",
        "lat": 40.7975673,
        "lng": -111.8533945,
        "latestObsDt": "2023-10-27 11:25",
        "numSpeciesAllTime": 62
    },
    {
        "locId": "L7058617",
        "locName": "Bonneville Shoreline Trail--Willard Canyon to Pearsons Canyon",
        "countryCode": "US",
        "subnational1Code": "US-UT",
        "subnational2Code": "US-UT-003",
        "lat": 41.3956807,
        "lng": -112.0227706,
        "latestObsDt": "2023-09-23 18:56",
        "numSpeciesAllTime": 51
    },
    {
        "locId": "L432728",
        "locName": "Book Cliffs -- Cottonwood Canyon Rd",
        "countryCode": "US",
        "subnational1Code": "US-UT",
        "subnational2Code": "US-UT-019",
        "lat": 39.1799777,
        "lng": -109.4530964,
        "latestObsDt": "2023-11-04 11:15",
        "numSpeciesAllTime": 62
    },
    {
        "locId": "L841113",
        "locName": "Boots Cox Park",
        "countryCode": "US",
        "subnational1Code": "US-UT",
        "subnational2Code": "US-UT-053",
        "lat": 37.0894482,
        "lng": -113.5647726,
        "latestObsDt": "2024-02-25 13:30",
        "numSpeciesAllTime": 122
    },
    {
        "locId": "L12083514",
        "locName": "Boren Mesa Trail",
        "countryCode": "US",
        "subnational1Code": "US-UT",
        "subnational2Code": "US-UT-037",
        "lat": 38.4908933,
        "lng": -109.2830675,
        "latestObsDt": "2022-06-29 15:17",
        "numSpeciesAllTime": 55
    },
    {
        "locId": "L1274188",
        "locName": "Boulder Mountain (Garfield Co.)",
        "countryCode": "US",
        "subnational1Code": "US-UT",
        "subnational2Code": "US-UT-017",
        "lat": 37.9931437,
        "lng": -111.4615345,
        "latestObsDt": "2023-06-12 16:54",
        "numSpeciesAllTime": 114
    },
    {
        "locId": "L503374",
        "locName": "Boulder Mountain (Wayne Co.)",
        "countryCode": "US",
        "subnational1Code": "US-UT",
        "subnational2Code": "US-UT-055",
        "lat": 38.1877789,
        "lng": -111.3527715,
        "latestObsDt": "2023-12-11 15:25",
        "numSpeciesAllTime": 53
    },
    {
        "locId": "L5820419",
        "locName": "Boulder Mountain Guest Ranch and Creek",
        "countryCode": "US",
        "subnational1Code": "US-UT",
        "subnational2Code": "US-UT-017",
        "lat": 37.9058767,
        "lng": -111.5060377,
        "latestObsDt": "2023-07-28 20:30",
        "numSpeciesAllTime": 71
    },
    {
        "locId": "L1295314",
        "locName": "Boulder Mountain Lodge & Pond",
        "countryCode": "US",
        "subnational1Code": "US-UT",
        "subnational2Code": "US-UT-017",
        "lat": 37.9031474,
        "lng": -111.423045,
        "latestObsDt": "2024-02-17 12:30",
        "numSpeciesAllTime": 179
    },
    {
        "locId": "L984883",
        "locName": "Boulder Mountain--Big Lake & vicinity",
        "countryCode": "US",
        "subnational1Code": "US-UT",
        "subnational2Code": "US-UT-017",
        "lat": 38.0818788,
        "lng": -111.6914749,
        "latestObsDt": "2022-09-04 16:26",
        "numSpeciesAllTime": 38
    },
    {
        "locId": "L988936",
        "locName": "Boulder Mountain--Carcass Creek",
        "countryCode": "US",
        "subnational1Code": "US-UT",
        "subnational2Code": "US-UT-055",
        "lat": 38.2071962,
        "lng": -111.3481951,
        "latestObsDt": "2022-12-18 09:59",
        "numSpeciesAllTime": 77
    },
    {
        "locId": "L989535",
        "locName": "Boulder Mountain--Cook Lake to Grass Lake",
        "countryCode": "US",
        "subnational1Code": "US-UT",
        "subnational2Code": "US-UT-055",
        "lat": 38.1920542,
        "lng": -111.5375343,
        "latestObsDt": "2022-09-16 14:30",
        "numSpeciesAllTime": 37
    },
    {
        "locId": "L3188449",
        "locName": "Boulder Mountain--Deer Creek Lake & Trail",
        "countryCode": "US",
        "subnational1Code": "US-UT",
        "subnational2Code": "US-UT-017",
        "lat": 38.0392023,
        "lng": -111.3883746,
        "latestObsDt": "2023-07-13 12:05",
        "numSpeciesAllTime": 99
    },
    {
        "locId": "L6015383",
        "locName": "Boulder Mountain--Donkey Point",
        "countryCode": "US",
        "subnational1Code": "US-UT",
        "subnational2Code": "US-UT-055",
        "lat": 38.185356,
        "lng": -111.450886,
        "latestObsDt": "2018-08-09 12:00",
        "numSpeciesAllTime": 17
    },
    {
        "locId": "L4160983",
        "locName": "Boulder Mountain--Garkane Power Plant Access Rd.",
        "countryCode": "US",
        "subnational1Code": "US-UT",
        "subnational2Code": "US-UT-017",
        "lat": 37.9843756,
        "lng": -111.4394385,
        "latestObsDt": "2024-01-03 14:27",
        "numSpeciesAllTime": 100
    },
    {
        "locId": "L1342726",
        "locName": "Boulder Mountain--Larb Hollow Overlook",
        "countryCode": "US",
        "subnational1Code": "US-UT",
        "subnational2Code": "US-UT-017",
        "lat": 38.1322368,
        "lng": -111.3259279,
        "latestObsDt": "2023-11-14 14:07",
        "numSpeciesAllTime": 57
    },
    {
        "locId": "L989450",
        "locName": "Boulder Mountain--North Slope Rd (8000'-8900')",
        "countryCode": "US",
        "subnational1Code": "US-UT",
        "subnational2Code": "US-UT-055",
        "lat": 38.1933344,
        "lng": -111.3960076,
        "latestObsDt": "2020-07-20 18:45",
        "numSpeciesAllTime": 54
    },
    {
        "locId": "L6015393",
        "locName": "Boulder Mountain--North Slope Rd (>8900')",
        "countryCode": "US",
        "subnational1Code": "US-UT",
        "subnational2Code": "US-UT-055",
        "lat": 38.189973,
        "lng": -111.424695,
        "latestObsDt": "2021-09-23 12:17",
        "numSpeciesAllTime": 36
    },
    {
        "locId": "L989554",
        "locName": "Boulder Mountain--Oak Creek",
        "countryCode": "US",
        "subnational1Code": "US-UT",
        "subnational2Code": "US-UT-017",
        "lat": 38.0887507,
        "lng": -111.3405728,
        "latestObsDt": "2024-01-19 10:38",
        "numSpeciesAllTime": 59
    },
    {
        "locId": "L1048702",
        "locName": "Boulder Mountain--Singletree CG",
        "countryCode": "US",
        "subnational1Code": "US-UT",
        "subnational2Code": "US-UT-055",
        "lat": 38.1620282,
        "lng": -111.3320527,
        "latestObsDt": "2023-09-18 17:51",
        "numSpeciesAllTime": 68
    },
    {
        "locId": "L1756913",
        "locName": "Boulder Mountain--White Canyon",
        "countryCode": "US",
        "subnational1Code": "US-UT",
        "subnational2Code": "US-UT-055",
        "lat": 38.1845652,
        "lng": -111.3505554,
        "latestObsDt": "2021-04-25 09:20",
        "numSpeciesAllTime": 5
    },
    {
        "locId": "L988686",
        "locName": "Boulder Mountain--Wildcat Meadow",
        "countryCode": "US",
        "subnational1Code": "US-UT",
        "subnational2Code": "US-UT-017",
        "lat": 38.1105707,
        "lng": -111.3384383,
        "latestObsDt": "2023-07-11 11:57",
        "numSpeciesAllTime": 85
    },
    {
        "locId": "L3787341",
        "locName": "Boulder Mtn -- North Slope Rd (7000'-8000') - Lower Meadows And Pinyon Junipers",
        "countryCode": "US",
        "subnational1Code": "US-UT",
        "subnational2Code": "US-UT-055",
        "lat": 38.2207343,
        "lng": -111.372807,
        "latestObsDt": "2021-11-05 14:00",
        "numSpeciesAllTime": 30
    },
    {
        "locId": "L1652357",
        "locName": "Boulder Town--Anasazi SP",
        "countryCode": "US",
        "subnational1Code": "US-UT",
        "subnational2Code": "US-UT-017",
        "lat": 37.9111372,
        "lng": -111.4237893,
        "latestObsDt": "2023-09-27 15:09",
        "numSpeciesAllTime": 80
    },
    {
        "locId": "L2214296",
        "locName": "Bountiful CG & Picnic Area",
        "countryCode": "US",
        "subnational1Code": "US-UT",
        "subnational2Code": "US-UT-011",
        "lat": 40.9810325,
        "lng": -111.8051208,
        "latestObsDt": "2021-06-16 22:00",
        "numSpeciesAllTime": 48
    },
    {
        "locId": "L353612",
        "locName": "Bountiful Landfill",
        "countryCode": "US",
        "subnational1Code": "US-UT",
        "subnational2Code": "US-UT-011",
        "lat": 40.9120942,
        "lng": -111.9193835,
        "latestObsDt": "2024-02-25 17:38",
        "numSpeciesAllTime": 92
    },
    {
        "locId": "L1135013",
        "locName": "Bountiful Memorial Park Cemetery",
        "countryCode": "US",
        "subnational1Code": "US-UT",
        "subnational2Code": "US-UT-011",
        "lat": 40.8671415,
        "lng": -111.8870687,
        "latestObsDt": "2024-01-16 11:48",
        "numSpeciesAllTime": 45
    },
    {
        "locId": "L455462",
        "locName": "Bountiful Peak",
        "countryCode": "US",
        "subnational1Code": "US-UT",
        "subnational2Code": "US-UT-011",
        "lat": 40.9643875,
        "lng": -111.8180108,
        "latestObsDt": "2023-10-07 15:35",
        "numSpeciesAllTime": 88
    },
    {
        "locId": "L622135",
        "locName": "Bountiful Pond",
        "countryCode": "US",
        "subnational1Code": "US-UT",
        "subnational2Code": "US-UT-011",
        "lat": 40.9057611,
        "lng": -111.9219303,
        "latestObsDt": "2024-02-25 16:51",
        "numSpeciesAllTime": 231
    },
    {
        "locId": "L465851",
        "locName": "Box Elder CG",
        "countryCode": "US",
        "subnational1Code": "US-UT",
        "subnational2Code": "US-UT-003",
        "lat": 41.4936975,
        "lng": -111.950398,
        "latestObsDt": "2024-01-18 19:50",
        "numSpeciesAllTime": 124
    },
    {
        "locId": "L1177330",
        "locName": "Box Elder Canyon",
        "countryCode": "US",
        "subnational1Code": "US-UT",
        "subnational2Code": "US-UT-045",
        "lat": 40.4910853,
        "lng": -112.5361642,
        "latestObsDt": "2021-06-25 20:17",
        "numSpeciesAllTime": 57
    },
    {
        "locId": "L3834325",
        "locName": "Boynton Overlook",
        "countryCode": "US",
        "subnational1Code": "US-UT",
        "subnational2Code": "US-UT-017",
        "lat": 37.772732,
        "lng": -111.422092,
        "latestObsDt": "2024-01-04 10:01",
        "numSpeciesAllTime": 10
    },
    {
        "locId": "L4655792",
        "locName": "Brazier Canyon",
        "countryCode": "US",
        "subnational1Code": "US-UT",
        "subnational2Code": "US-UT-033",
        "lat": 41.6797073,
        "lng": -111.0827208,
        "latestObsDt": "2023-06-09 05:21",
        "numSpeciesAllTime": 52
    },
    {
        "locId": "L16004507",
        "locName": "Brian Head (town)",
        "countryCode": "US",
        "subnational1Code": "US-UT",
        "subnational2Code": "US-UT-021",
        "lat": 37.6926994,
        "lng": -112.8494273,
        "latestObsDt": "2023-12-25 07:55",
        "numSpeciesAllTime": 43
    },
    {
        "locId": "L11856068",
        "locName": "Brian Head Reservoir",
        "countryCode": "US",
        "subnational1Code": "US-UT",
        "subnational2Code": "US-UT-021",
        "lat": 37.6839724,
        "lng": -112.8423735,
        "latestObsDt": "2022-08-12 06:40",
        "numSpeciesAllTime": 27
    },
    {
        "locId": "L508211",
        "locName": "Brian Head Ski Resort",
        "countryCode": "US",
        "subnational1Code": "US-UT",
        "subnational2Code": "US-UT-021",
        "lat": 37.6811032,
        "lng": -112.8307915,
        "latestObsDt": "2023-10-01 16:31",
        "numSpeciesAllTime": 73
    },