[
    {
        "locId": "L994589",
        "locName": "Allegheny Front Migration Observatory--Red Creek CG",
        "countryCode": "US",
        "subnational1Code": "US-WV",
        "subnational2Code": "US-WV-023",
        "lat": 39.0337028,
        "lng": -79.3134785,
        "latestObsDt": "2023-11-25 09:19",
        "numSpeciesAllTime": 155
    },
    {
        "locId": "L10294210",
        "locName": "Allegheny Highlands Trail--Hambleton Access",
        "countryCode": "US",
        "subnational1Code": "US-WV",
        "subnational2Code": "US-WV-093",
        "lat": 39.0811717,
        "lng": -79.647119,
        "latestObsDt": "2023-01-27 13:19",
        "numSpeciesAllTime": 26
    },
    {
        "locId": "L11541468",
        "locName": "Allegheny Rd, Route 106 (West Virginia)",
        "countryCode": "US",
        "subnational1Code": "US-WV",
        "subnational2Code": "US-WV-075",
        "lat": 38.5210027,
        "lng": -79.6685316,
        "latestObsDt": "2023-06-03 11:12",
        "numSpeciesAllTime": 42
    },
    {
        "locId": "L467594",
        "locName": "Alpine Lake",
        "countryCode": "US",
        "subnational1Code": "US-WV",
        "subnational2Code": "US-WV-077",
        "lat": 39.4640292,
        "lng": -79.5004177,
        "latestObsDt": "2024-02-24 09:43",
        "numSpeciesAllTime": 183
    },
    {
        "locId": "L279081",
        "locName": "Altona Marsh (restricted access)",
        "countryCode": "US",
        "subnational1Code": "US-WV",
        "subnational2Code": "US-WV-037",
        "lat": 39.2949148,
        "lng": -77.8901585,
        "latestObsDt": "2023-11-13 14:54",
        "numSpeciesAllTime": 180
    },
    {
        "locId": "L10220139",
        "locName": "Amherst/Plymouth Wildlife Management Area",
        "countryCode": "US",
        "subnational1Code": "US-WV",
        "subnational2Code": "US-WV-079",
        "lat": 38.5179542,
        "lng": -81.844434,
        "latestObsDt": "2023-08-12 06:46",
        "numSpeciesAllTime": 94
    },
    {
        "locId": "L3142952",
        "locName": "Amour Creek Lagoon",
        "countryCode": "US",
        "subnational1Code": "US-WV",
        "subnational2Code": "US-WV-079",
        "lat": 38.4461062,
        "lng": -81.824348,
        "latestObsDt": "2024-02-21 12:33",
        "numSpeciesAllTime": 78
    },
    {
        "locId": "L21732587",
        "locName": "Anawalt Lake WMA",
        "countryCode": "US",
        "subnational1Code": "US-WV",
        "subnational2Code": "US-WV-047",
        "lat": 37.3196688,
        "lng": -81.4220451,
        "latestObsDt": "2022-12-05 09:56",
        "numSpeciesAllTime": 12
    },
    {
        "locId": "L1454832",
        "locName": "Appalachian Lake",
        "countryCode": "US",
        "subnational1Code": "US-WV",
        "subnational2Code": "US-WV-077",
        "lat": 39.7093347,
        "lng": -79.4948848,
        "latestObsDt": "2023-05-31 16:21",
        "numSpeciesAllTime": 108
    },
    {
        "locId": "L3645658",
        "locName": "Apple Grove Fish Hatchery",
        "countryCode": "US",
        "subnational1Code": "US-WV",
        "subnational2Code": "US-WV-053",
        "lat": 38.6820905,
        "lng": -82.1793308,
        "latestObsDt": "2024-02-26 11:13",
        "numSpeciesAllTime": 185
    },
    {
        "locId": "L758473",
        "locName": "Archer's Rock",
        "countryCode": "US",
        "subnational1Code": "US-WV",
        "subnational2Code": "US-WV-003",
        "lat": 39.5287814,
        "lng": -77.9620936,
        "latestObsDt": "2024-02-11 11:22",
        "numSpeciesAllTime": 98
    },
    {
        "locId": "L10529004",
        "locName": "Army Reserve Center Wetlands",
        "countryCode": "US",
        "subnational1Code": "US-WV",
        "subnational2Code": "US-WV-077",
        "lat": 39.4494548,
        "lng": -79.6754962,
        "latestObsDt": "2024-01-01 10:29",
        "numSpeciesAllTime": 62
    },
    {
        "locId": "L4875292",
        "locName": "Arrowood Creek Rd.",
        "countryCode": "US",
        "subnational1Code": "US-WV",
        "subnational2Code": "US-WV-019",
        "lat": 38.1287013,
        "lng": -80.9546927,
        "latestObsDt": "2022-05-26 11:03",
        "numSpeciesAllTime": 61
    },
    {
        "locId": "L5425763",
        "locName": "Ash Ruckman Rd. (roadside access only)",
        "countryCode": "US",
        "subnational1Code": "US-WV",
        "subnational2Code": "US-WV-027",
        "lat": 39.254481,
        "lng": -78.6723779,
        "latestObsDt": "2023-08-20 11:02",
        "numSpeciesAllTime": 100
    },
    {
        "locId": "L8100234",
        "locName": "Ashton Crossing Ponds",
        "countryCode": "US",
        "subnational1Code": "US-WV",
        "subnational2Code": "US-WV-053",
        "lat": 38.6229422,
        "lng": -82.1653865,
        "latestObsDt": "2023-09-16 08:27",
        "numSpeciesAllTime": 76
    },
    {
        "locId": "L1291187",
        "locName": "Ashton Wetlands",
        "countryCode": "US",
        "subnational1Code": "US-WV",
        "subnational2Code": "US-WV-053",
        "lat": 38.6256384,
        "lng": -82.1580791,
        "latestObsDt": "2024-02-10 07:53",
        "numSpeciesAllTime": 113
    },
    {
        "locId": "L8753012",
        "locName": "Athens Park",
        "countryCode": "US",
        "subnational1Code": "US-WV",
        "subnational2Code": "US-WV-055",
        "lat": 37.4228327,
        "lng": -81.010437,
        "latestObsDt": "2023-03-23 18:33",
        "numSpeciesAllTime": 22
    },
    {
        "locId": "L9363637",
        "locName": "Audra State Park-- Natural Area Loop Trail",
        "countryCode": "US",
        "subnational1Code": "US-WV",
        "subnational2Code": "US-WV-001",
        "lat": 39.0465745,
        "lng": -80.0610521,
        "latestObsDt": "2023-10-21 10:00",
        "numSpeciesAllTime": 73
    },
    {
        "locId": "L1042554",
        "locName": "Babcock SP",
        "countryCode": "US",
        "subnational1Code": "US-WV",
        "subnational2Code": "US-WV-019",
        "lat": 37.9844602,
        "lng": -80.9411931,
        "latestObsDt": "2023-10-03 12:46",
        "numSpeciesAllTime": 138
    },
    {
        "locId": "L1042550",
        "locName": "Babcock SP--Grist Mill",
        "countryCode": "US",
        "subnational1Code": "US-WV",
        "subnational2Code": "US-WV-019",
        "lat": 37.9797246,
        "lng": -80.9461713,
        "latestObsDt": "2023-10-22 14:36",
        "numSpeciesAllTime": 106
    },
    {
        "locId": "L14861294",
        "locName": "Babcock SP--Lake View Trail",
        "countryCode": "US",
        "subnational1Code": "US-WV",
        "subnational2Code": "US-WV-019",
        "lat": 37.9770389,
        "lng": -80.9522992,
        "latestObsDt": "2023-09-28 09:32",
        "numSpeciesAllTime": 85
    },
    {
        "locId": "L4854154",
        "locName": "Baker Park",
        "countryCode": "US",
        "subnational1Code": "US-WV",
        "subnational2Code": "US-WV-031",
        "lat": 39.0433153,
        "lng": -78.7586823,
        "latestObsDt": "2021-09-02 09:33",
        "numSpeciesAllTime": 52
    },
    {
        "locId": "L12770266",
        "locName": "Baker St. Pond, Keyser",
        "countryCode": "US",
        "subnational1Code": "US-WV",
        "subnational2Code": "US-WV-057",
        "lat": 39.434246,
        "lng": -78.994831,
        "latestObsDt": "2022-11-16 13:28",
        "numSpeciesAllTime": 74
    },
    {
        "locId": "L2349616",
        "locName": "Barboursville Park",
        "countryCode": "US",
        "subnational1Code": "US-WV",
        "subnational2Code": "US-WV-011",
        "lat": 38.3910516,
        "lng": -82.304678,
        "latestObsDt": "2024-02-17 08:30",
        "numSpeciesAllTime": 122
    },
    {
        "locId": "L9064813",
        "locName": "Bear Heaven Recreation Area",
        "countryCode": "US",
        "subnational1Code": "US-WV",
        "subnational2Code": "US-WV-083",
        "lat": 38.9322649,
        "lng": -79.6805441,
        "latestObsDt": "2023-06-15 12:00",
        "numSpeciesAllTime": 53
    },
    {
        "locId": "L3408529",
        "locName": "Bear Rock Lakes WMA",
        "countryCode": "US",
        "subnational1Code": "US-WV",
        "subnational2Code": "US-WV-069",
        "lat": 40.0785968,
        "lng": -80.5345917,
        "latestObsDt": "2024-01-27 11:43",
        "numSpeciesAllTime": 132
    },
    {
        "locId": "L463358",
        "locName": "Beartown Rocks SP",
        "countryCode": "US",
        "subnational1Code": "US-WV",
        "subnational2Code": "US-WV-075",
        "lat": 38.06059,
        "lng": -80.28265,
        "latestObsDt": "2023-08-22 18:08",
        "numSpeciesAllTime": 84
    },
    {
        "locId": "L12490546",
        "locName": "Beaver Creek Trail",
        "countryCode": "US",
        "subnational1Code": "US-WV",
        "subnational2Code": "US-WV-093",
        "lat": 39.1291947,
        "lng": -79.4584572,
        "latestObsDt": "2024-02-18 14:47",
        "numSpeciesAllTime": 96
    },
    {
        "locId": "L7043749",
        "locName": "Becketts Roadside Rest Area",
        "countryCode": "US",
        "subnational1Code": "US-WV",
        "subnational2Code": "US-WV-063",
        "lat": 37.6258336,
        "lng": -80.5206183,
        "latestObsDt": "2023-06-03 16:01",
        "numSpeciesAllTime": 43
    },
    {
        "locId": "L901168",
        "locName": "Becky's Creek WMA",
        "countryCode": "US",
        "subnational1Code": "US-WV",
        "subnational2Code": "US-WV-083",
        "lat": 38.5899901,
        "lng": -79.9684954,
        "latestObsDt": "2010-05-07 05:45",
        "numSpeciesAllTime": 49
    },
    {
        "locId": "L1603890",
        "locName": "Beech Fork Lake Dam and Trails",
        "countryCode": "US",
        "subnational1Code": "US-WV",
        "subnational2Code": "US-WV-099",
        "lat": 38.3044494,
        "lng": -82.4129068,
        "latestObsDt": "2024-02-17 11:30",
        "numSpeciesAllTime": 193
    },
    {
        "locId": "L851209",
        "locName": "Beech Fork SP 80F",
        "countryCode": "US",
        "subnational1Code": "US-WV",
        "subnational2Code": "US-WV-099",
        "lat": 38.2910145,
        "lng": -82.3686218,
        "latestObsDt": "2023-05-02 09:46",
        "numSpeciesAllTime": 135
    },
    {
        "locId": "L12345567",
        "locName": "Beech Fork SP--Campground",
        "countryCode": "US",
        "subnational1Code": "US-WV",
        "subnational2Code": "US-WV-099",
        "lat": 38.3068595,
        "lng": -82.357101,
        "latestObsDt": "2024-02-10 12:49",
        "numSpeciesAllTime": 107
    },
    {
        "locId": "L1158031",
        "locName": "Beech Run",
        "countryCode": "US",
        "subnational1Code": "US-WV",
        "subnational2Code": "US-WV-077",
        "lat": 39.5629231,
        "lng": -79.6803188,
        "latestObsDt": "2023-07-04 10:28",
        "numSpeciesAllTime": 109
    },
    {
        "locId": "L2208134",
        "locName": "Belle Babb Ln.",
        "countryCode": "US",
        "subnational1Code": "US-WV",
        "subnational2Code": "US-WV-023",
        "lat": 39.1922431,
        "lng": -79.0717363,
        "latestObsDt": "2024-02-24 13:20",
        "numSpeciesAllTime": 175
    },
    {
        "locId": "L987055",
        "locName": "Bellepoint Park, Hinton",
        "countryCode": "US",
        "subnational1Code": "US-WV",
        "subnational2Code": "US-WV-089",
        "lat": 37.6440899,
        "lng": -80.8832467,
        "latestObsDt": "2024-02-22 12:45",
        "numSpeciesAllTime": 138
    },
    {
        "locId": "L865373",
        "locName": "Belleville Locks and Dam",
        "countryCode": "US",
        "subnational1Code": "US-WV",
        "subnational2Code": "US-WV-107",
        "lat": 39.1164766,
        "lng": -81.7378521,
        "latestObsDt": "2024-02-26 14:06",
        "numSpeciesAllTime": 137
    },
    {
        "locId": "L3611341",
        "locName": "Berkeley Springs SP",
        "countryCode": "US",
        "subnational1Code": "US-WV",
        "subnational2Code": "US-WV-065",
        "lat": 39.626839,
        "lng": -78.2282306,
        "latestObsDt": "2024-02-22 07:17",
        "numSpeciesAllTime": 82
    },
    {
        "locId": "L5221843",
        "locName": "Berwind Lake WMA",
        "countryCode": "US",
        "subnational1Code": "US-WV",
        "subnational2Code": "US-WV-047",
        "lat": 37.2560169,
        "lng": -81.6856763,
        "latestObsDt": "2023-12-20 15:23",
        "numSpeciesAllTime": 22
    },
    {
        "locId": "L2157444",
        "locName": "Beury Mountain WMA",
        "countryCode": "US",
        "subnational1Code": "US-WV",
        "subnational2Code": "US-WV-019",
        "lat": 37.96981,
        "lng": -80.97453,
        "latestObsDt": "2023-11-02 14:04",
        "numSpeciesAllTime": 111
    },
    {
        "locId": "L15807565",
        "locName": "Big Bear Lake Camplands",
        "countryCode": "US",
        "subnational1Code": "US-WV",
        "subnational2Code": "US-WV-077",
        "lat": 39.6113171,
        "lng": -79.5113611,
        "latestObsDt": "2023-04-07 15:26",
        "numSpeciesAllTime": 56
    },
    {
        "locId": "L5008632",
        "locName": "Big Ditch Lake WMA",
        "countryCode": "US",
        "subnational1Code": "US-WV",
        "subnational2Code": "US-WV-101",
        "lat": 38.4068273,
        "lng": -80.574397,
        "latestObsDt": "2024-02-08 13:24",
        "numSpeciesAllTime": 100
    },
    {
        "locId": "L9850601",
        "locName": "Big Sandy Creek Bruceton Mills Fishing and Boating Access",
        "countryCode": "US",
        "subnational1Code": "US-WV",
        "subnational2Code": "US-WV-077",
        "lat": 39.6602886,
        "lng": -79.6383047,
        "latestObsDt": "2024-02-04 10:24",
        "numSpeciesAllTime": 94
    },
    {
        "locId": "L4652772",
        "locName": "Big Schloss",
        "countryCode": "US",
        "subnational1Code": "US-WV",
        "subnational2Code": "US-WV-031",
        "lat": 38.9414656,
        "lng": -78.6660388,
        "latestObsDt": "2023-10-15 07:30",
        "numSpeciesAllTime": 68
    },
    {
        "locId": "L501724",
        "locName": "Blackwater Falls SP",
        "countryCode": "US",
        "subnational1Code": "US-WV",
        "subnational2Code": "US-WV-093",
        "lat": 39.1121479,
        "lng": -79.4963837,
        "latestObsDt": "2024-02-18 10:56",
        "numSpeciesAllTime": 162
    },
    {
        "locId": "L29082647",
        "locName": "Blackwater Falls SP--Harold S. Walters Nature Center",
        "countryCode": "US",
        "subnational1Code": "US-WV",
        "subnational2Code": "US-WV-093",
        "lat": 39.1164891,
        "lng": -79.4954556,
        "latestObsDt": "2024-02-17 09:30",
        "numSpeciesAllTime": 13
    },
    {
        "locId": "L2462413",
        "locName": "Blackwater Falls SP--Lindy Point Overlook",
        "countryCode": "US",
        "subnational1Code": "US-WV",
        "subnational2Code": "US-WV-093",
        "lat": 39.1000012,
        "lng": -79.5251852,
        "latestObsDt": "2024-01-21 09:48",
        "numSpeciesAllTime": 77
    },
    {
        "locId": "L3859211",
        "locName": "Blackwater Falls SP--Pase Point",
        "countryCode": "US",
        "subnational1Code": "US-WV",
        "subnational2Code": "US-WV-093",
        "lat": 39.1120347,
        "lng": -79.515245,
        "latestObsDt": "2023-12-28 15:06",
        "numSpeciesAllTime": 85
    },
    {
        "locId": "L12218440",
        "locName": "Blackwater Falls SP--River Rd. Trail",
        "countryCode": "US",
        "subnational1Code": "US-WV",
        "subnational2Code": "US-WV-093",
        "lat": 39.1137153,
        "lng": -79.4794148,
        "latestObsDt": "2023-10-20 11:44",
        "numSpeciesAllTime": 64
    },
    {
        "locId": "L3619340",
        "locName": "Blackwater Falls SP--Yellow Birch Trail",
        "countryCode": "US",
        "subnational1Code": "US-WV",
        "subnational2Code": "US-WV-093",
        "lat": 39.1116712,
        "lng": -79.4785845,
        "latestObsDt": "2023-12-17 13:44",
        "numSpeciesAllTime": 57
    },
    {
        "locId": "L2206050",
        "locName": "Blackwater/Parsons/Fernow Birding Tour",
        "countryCode": "US",
        "subnational1Code": "US-WV",
        "subnational2Code": "US-WV-093",
        "lat": 39.0797987,
        "lng": -79.6498919,
        "latestObsDt": "2023-05-31 19:14",
        "numSpeciesAllTime": 102
    },
    {
        "locId": "L1089611",
        "locName": "Blennerhassett Island",
        "countryCode": "US",
        "subnational1Code": "US-WV",
        "subnational2Code": "US-WV-107",
        "lat": 39.2713345,
        "lng": -81.6311646,
        "latestObsDt": "2024-01-29 12:32",
        "numSpeciesAllTime": 135
    },
    {
        "locId": "L7559145",
        "locName": "Blister Run Swamp",
        "countryCode": "US",
        "subnational1Code": "US-WV",
        "subnational2Code": "US-WV-083",
        "lat": 38.6008407,
        "lng": -79.8505211,
        "latestObsDt": "2022-06-03 06:00",
        "numSpeciesAllTime": 71
    },
    {
        "locId": "L15043166",
        "locName": "Blue Ridge Memorial Gardens",
        "countryCode": "US",
        "subnational1Code": "US-WV",
        "subnational2Code": "US-WV-081",
        "lat": 37.8403133,
        "lng": -81.1914935,
        "latestObsDt": "2024-01-01 13:06",
        "numSpeciesAllTime": 58
    },
    {
        "locId": "L7256341",
        "locName": "Bluefield City Park",
        "countryCode": "US",
        "subnational1Code": "US-WV",
        "subnational2Code": "US-WV-055",
        "lat": 37.2611804,
        "lng": -81.2511498,
        "latestObsDt": "2022-06-06 12:25",
        "numSpeciesAllTime": 59
    },
    {
        "locId": "L1434173",
        "locName": "Bluestone Camp & Retreat",
        "countryCode": "US",
        "subnational1Code": "US-WV",
        "subnational2Code": "US-WV-089",
        "lat": 37.5720099,
        "lng": -80.8712377,
        "latestObsDt": "2023-05-02 06:59",
        "numSpeciesAllTime": 118
    },
    {
        "locId": "L1358128",
        "locName": "Bluestone SP",
        "countryCode": "US",
        "subnational1Code": "US-WV",
        "subnational2Code": "US-WV-089",
        "lat": 37.6166057,
        "lng": -80.9330821,
        "latestObsDt": "2024-02-08 13:52",
        "numSpeciesAllTime": 189
    },
    {
        "locId": "L3447530",
        "locName": "Bluestone SP--Cabin Area",
        "countryCode": "US",
        "subnational1Code": "US-WV",
        "subnational2Code": "US-WV-089",
        "lat": 37.6195072,
        "lng": -80.9375238,
        "latestObsDt": "2023-12-28 08:00",
        "numSpeciesAllTime": 74
    },
    {
        "locId": "L5153063",
        "locName": "Bluestone SP--Mouth of the Bluestone",
        "countryCode": "US",
        "subnational1Code": "US-WV",
        "subnational2Code": "US-WV-089",
        "lat": 37.6124026,
        "lng": -80.9165602,
        "latestObsDt": "2024-02-24 16:15",
        "numSpeciesAllTime": 153
    },
    {
        "locId": "L19156660",
        "locName": "Bluestone Turnpike Trail",
        "countryCode": "US",
        "subnational1Code": "US-WV",
        "subnational2Code": "US-WV-089",
        "lat": 37.5924646,
        "lng": -80.9538329,
        "latestObsDt": "2023-10-27 15:32",
        "numSpeciesAllTime": 60
    },
    {
        "locId": "L15184067",
        "locName": "Bluestone WMA--Bluestone Wildlife Management Office/Keatley Campground",
        "countryCode": "US",
        "subnational1Code": "US-WV",
        "subnational2Code": "US-WV-089",
        "lat": 37.5235283,
        "lng": -80.8120602,
        "latestObsDt": "2021-05-31 10:42",
        "numSpeciesAllTime": 27
    },
    {
        "locId": "L15190004",
        "locName": "Bluestone WMA--Cedar Branch Camping Area",
        "countryCode": "US",
        "subnational1Code": "US-WV",
        "subnational2Code": "US-WV-089",
        "lat": 37.4972054,
        "lng": -80.8481942,
        "latestObsDt": "2021-05-31 13:13",
        "numSpeciesAllTime": 17
    },
    {
        "locId": "L15189960",
        "locName": "Bluestone WMA--Mouth of Indian Creek Camping Area",
        "countryCode": "US",
        "subnational1Code": "US-WV",
        "subnational2Code": "US-WV-089",
        "lat": 37.524564,
        "lng": -80.8502116,
        "latestObsDt": "2021-05-31 12:45",
        "numSpeciesAllTime": 33
    },
    {
        "locId": "L15190141",
        "locName": "Bluestone WMA--Shanklin's Ferry Camping Area/Upper Shanklin's Ferry Rd.",
        "countryCode": "US",
        "subnational1Code": "US-WV",
        "subnational2Code": "US-WV-089",
        "lat": 37.462439,
        "lng": -80.871627,
        "latestObsDt": "2021-05-31 13:53",
        "numSpeciesAllTime": 21
    },
    {
        "locId": "L5946733",
        "locName": "Bluestone WMA--Sherman Ballard Recreation Area",
        "countryCode": "US",
        "subnational1Code": "US-WV",
        "subnational2Code": "US-WV-089",
        "lat": 37.4707241,
        "lng": -80.8655106,
        "latestObsDt": "2023-05-27 10:14",
        "numSpeciesAllTime": 37
    },
    {
        "locId": "L21964391",
        "locName": "Bolivar Heights",
        "countryCode": "US",
        "subnational1Code": "US-WV",
        "subnational2Code": "US-WV-037",
        "lat": 39.32378,
        "lng": -77.7610666,
        "latestObsDt": "2023-12-16 12:48",
        "numSpeciesAllTime": 53
    },
    {
        "locId": "L7591862",
        "locName": "Booths Run",
        "countryCode": "US",
        "subnational1Code": "US-WV",
        "subnational2Code": "US-WV-061",
        "lat": 39.5228,
        "lng": -79.9688,
        "latestObsDt": "2018-06-14 06:40",
        "numSpeciesAllTime": 17
    },
    {
        "locId": "L2246056",
        "locName": "Borland Springs Rd.--South of Cabin Ridge Rd.",
        "countryCode": "US",
        "subnational1Code": "US-WV",
        "subnational2Code": "US-WV-107",
        "lat": 39.2753998,
        "lng": -81.2943435,
        "latestObsDt": "2023-07-25 15:59",
        "numSpeciesAllTime": 68
    },
    {
        "locId": "L1145560",
        "locName": "Bowden State Fish Hatchery",
        "countryCode": "US",
        "subnational1Code": "US-WV",
        "subnational2Code": "US-WV-083",
        "lat": 38.9096696,
        "lng": -79.7155202,
        "latestObsDt": "2024-01-02 10:10",
        "numSpeciesAllTime": 102
    },
    {
        "locId": "L5812250",
        "locName": "Bridgeport City Park",
        "countryCode": "US",
        "subnational1Code": "US-WV",
        "subnational2Code": "US-WV-033",
        "lat": 39.2896713,
        "lng": -80.2663144,
        "latestObsDt": "2024-02-21 10:30",
        "numSpeciesAllTime": 71
    },
    {
        "locId": "L14316023",
        "locName": "Bridgeport Recreation Complex",
        "countryCode": "US",
        "subnational1Code": "US-WV",
        "subnational2Code": "US-WV-033",
        "lat": 39.3084018,
        "lng": -80.2294649,
        "latestObsDt": "2024-02-03 16:15",
        "numSpeciesAllTime": 79
    },
    {
        "locId": "L4653516",
        "locName": "Briery Branch Gap (WV)",
        "countryCode": "US",
        "subnational1Code": "US-WV",
        "subnational2Code": "US-WV-071",
        "lat": 38.4823554,
        "lng": -79.2214147,
        "latestObsDt": "2024-02-04 12:12",
        "numSpeciesAllTime": 100
    },
    {
        "locId": "L7820131",
        "locName": "Briggs Animal Adoption Center",
        "countryCode": "US",
        "subnational1Code": "US-WV",
        "subnational2Code": "US-WV-037",
        "lat": 39.2412798,
        "lng": -77.8990697,
        "latestObsDt": "2020-07-18 11:02",
        "numSpeciesAllTime": 50
    },
    {
        "locId": "L4680836",
        "locName": "Brighton Park",
        "countryCode": "US",
        "subnational1Code": "US-WV",
        "subnational2Code": "US-WV-031",
        "lat": 39.0534347,
        "lng": -78.9912379,
        "latestObsDt": "2023-12-18 12:03",
        "numSpeciesAllTime": 146
    },
    {
        "locId": "L8869562",
        "locName": "Broad Run Lake",
        "countryCode": "US",
        "subnational1Code": "US-WV",
        "subnational2Code": "US-WV-071",
        "lat": 38.6096415,
        "lng": -79.2339681,
        "latestObsDt": "2024-02-12 14:56",
        "numSpeciesAllTime": 128
    },
    {
        "locId": "L1480047",
        "locName": "Brooke Hills Park",
        "countryCode": "US",
        "subnational1Code": "US-WV",
        "subnational2Code": "US-WV-009",
        "lat": 40.2693878,
        "lng": -80.5401988,
        "latestObsDt": "2023-07-26 16:00",
        "numSpeciesAllTime": 81
    },
    {
        "locId": "L6207984",
        "locName": "Brownsea Island",
        "countryCode": "US",
        "subnational1Code": "US-WV",
        "subnational2Code": "US-WV-019",
        "lat": 37.9156788,
        "lng": -81.1334914,
        "latestObsDt": "2019-05-03 13:09",
        "numSpeciesAllTime": 17
    },
    {
        "locId": "L2732624",
        "locName": "Brush Creek Falls SP",
        "countryCode": "US",
        "subnational1Code": "US-WV",
        "subnational2Code": "US-WV-055",
        "lat": 37.4650603,
        "lng": -81.0627803,
        "latestObsDt": "2023-10-06 08:28",
        "numSpeciesAllTime": 68
    },
    {
        "locId": "L10225233",
        "locName": "Brushy Fork Lake",
        "countryCode": "US",
        "subnational1Code": "US-WV",
        "subnational2Code": "US-WV-071",
        "lat": 38.466514,
        "lng": -79.318627,
        "latestObsDt": "2023-12-11 15:11",
        "numSpeciesAllTime": 114
    },
    {
        "locId": "L723411",
        "locName": "Buckey Hill Road",
        "countryCode": "US",
        "subnational1Code": "US-WV",
        "subnational2Code": "US-WV-009",
        "lat": 40.275562,
        "lng": -80.5316252,
        "latestObsDt": "2009-05-23 06:30",
        "numSpeciesAllTime": 14
    },
    {
        "locId": "L9879146",
        "locName": "Buckhannon River Walk Trail",
        "countryCode": "US",
        "subnational1Code": "US-WV",
        "subnational2Code": "US-WV-097",
        "lat": 38.9925714,
        "lng": -80.2145076,
        "latestObsDt": "2023-05-17 09:20",
        "numSpeciesAllTime": 72
    },
    {
        "locId": "L2570729",
        "locName": "Buckley Island",
        "countryCode": "US",
        "subnational1Code": "US-WV",
        "subnational2Code": "US-WV-107",
        "lat": 39.3976891,
        "lng": -81.421442,
        "latestObsDt": "2023-10-04 13:22",
        "numSpeciesAllTime": 88
    },
    {
        "locId": "L9449652",
        "locName": "Buffalo Gap Retreat",
        "countryCode": "US",
        "subnational1Code": "US-WV",
        "subnational2Code": "US-WV-027",
        "lat": 39.3342435,
        "lng": -78.4577465,
        "latestObsDt": "2023-07-14 08:48",
        "numSpeciesAllTime": 55
    },
    {
        "locId": "L12541155",
        "locName": "Bull Run Rd.",
        "countryCode": "US",
        "subnational1Code": "US-WV",
        "subnational2Code": "US-WV-077",
        "lat": 39.5917198,
        "lng": -79.7211331,
        "latestObsDt": "2021-07-22 11:15",
        "numSpeciesAllTime": 11
    },
    {
        "locId": "L2760647",
        "locName": "Bull Tail Hollow",
        "countryCode": "US",
        "subnational1Code": "US-WV",
        "subnational2Code": "US-WV-055",
        "lat": 37.2932767,
        "lng": -81.1786222,
        "latestObsDt": "2023-11-23 10:56",
        "numSpeciesAllTime": 65
    },
    {
        "locId": "L21738885",
        "locName": "Burning Springs Park (Rathbone Well)",
        "countryCode": "US",
        "subnational1Code": "US-WV",
        "subnational2Code": "US-WV-105",
        "lat": 38.9918261,
        "lng": -81.3198285,
        "latestObsDt": "2023-07-26 13:15",
        "numSpeciesAllTime": 26
    },
    {
        "locId": "L4482540",
        "locName": "Burnsville Lake WMA--Burnsville Lake Dam and Tailwaters",
        "countryCode": "US",
        "subnational1Code": "US-WV",
        "subnational2Code": "US-WV-007",
        "lat": 38.8426861,
        "lng": -80.6206115,
        "latestObsDt": "2024-02-21 14:55",
        "numSpeciesAllTime": 91
    },
    {
        "locId": "L20721359",
        "locName": "Burnsville Lake--Bulltown Swim Area",
        "countryCode": "US",
        "subnational1Code": "US-WV",
        "subnational2Code": "US-WV-007",
        "lat": 38.7894325,
        "lng": -80.5669498,
        "latestObsDt": "2022-10-04 13:37",
        "numSpeciesAllTime": 19
    },
    {
        "locId": "L2179323",
        "locName": "Burr Industrial Park Ponds",
        "countryCode": "US",
        "subnational1Code": "US-WV",
        "subnational2Code": "US-WV-037",
        "lat": 39.3559859,
        "lng": -77.8672957,
        "latestObsDt": "2024-02-04 13:05",
        "numSpeciesAllTime": 126
    },
    {
        "locId": "L4439741",
        "locName": "Cabwaylingo SF",
        "countryCode": "US",
        "subnational1Code": "US-WV",
        "subnational2Code": "US-WV-099",
        "lat": 37.9810501,
        "lng": -82.3572868,
        "latestObsDt": "2023-06-20 00:00",
        "numSpeciesAllTime": 127
    },
    {
        "locId": "L1480209",
        "locName": "Cacapon Resort SP",
        "countryCode": "US",
        "subnational1Code": "US-WV",
        "subnational2Code": "US-WV-065",
        "lat": 39.5093083,
        "lng": -78.3051784,
        "latestObsDt": "2024-02-18 10:30",
        "numSpeciesAllTime": 143
    },
    {
        "locId": "L16180729",
        "locName": "Cacapon Resort SP--Cacapon Mountain Overlook (road closed November - April)",
        "countryCode": "US",
        "subnational1Code": "US-WV",
        "subnational2Code": "US-WV-065",
        "lat": 39.4708933,
        "lng": -78.3438277,
        "latestObsDt": "2023-10-01 06:37",
        "numSpeciesAllTime": 75
    },
    {
        "locId": "L16300315",
        "locName": "Cacapon River--Cacapon Crossing Fishing and Boating Access",
        "countryCode": "US",
        "subnational1Code": "US-WV",
        "subnational2Code": "US-WV-027",
        "lat": 39.4520596,
        "lng": -78.4250296,
        "latestObsDt": "2024-02-20 11:10",
        "numSpeciesAllTime": 79
    },
    {
        "locId": "L21629914",
        "locName": "Cacapon River--Capon Bridge Boat Access",
        "countryCode": "US",
        "subnational1Code": "US-WV",
        "subnational2Code": "US-WV-027",
        "lat": 39.2930282,
        "lng": -78.4319685,
        "latestObsDt": "2023-12-18 10:42",
        "numSpeciesAllTime": 22
    },
    {
        "locId": "L18826655",
        "locName": "Cacapon River--Kilgore Lane Public Access",
        "countryCode": "US",
        "subnational1Code": "US-WV",
        "subnational2Code": "US-WV-027",
        "lat": 39.4788012,
        "lng": -78.4010193,
        "latestObsDt": "2024-02-06 10:45",
        "numSpeciesAllTime": 75
    },
    {
        "locId": "L295129",
        "locName": "Calhoun County Park",
        "countryCode": "US",
        "subnational1Code": "US-WV",
        "subnational2Code": "US-WV-013",
        "lat": 38.8686547,
        "lng": -81.0982294,
        "latestObsDt": "2023-02-15 07:52",
        "numSpeciesAllTime": 52
    },
    {
        "locId": "L17127378",
        "locName": "Camden Ave. Backwater",
        "countryCode": "US",
        "subnational1Code": "US-WV",
        "subnational2Code": "US-WV-107",
        "lat": 39.256408,
        "lng": -81.557041,
        "latestObsDt": "2024-02-13 10:01",
        "numSpeciesAllTime": 41
    },
    {
        "locId": "L20136771",
        "locName": "Camden Park",
        "countryCode": "US",
        "subnational1Code": "US-WV",
        "subnational2Code": "US-WV-099",
        "lat": 38.3968275,
        "lng": -82.5304449,
        "latestObsDt": "2023-03-12 21:10",
        "numSpeciesAllTime": 8
    },
    {
        "locId": "L209805",
        "locName": "Camp Creek",
        "countryCode": "US",
        "subnational1Code": "US-WV",
        "subnational2Code": "US-WV-055",
        "lat": 37.4917477,
        "lng": -81.0983143,
        "latestObsDt": "2023-11-11 13:00",
        "numSpeciesAllTime": 80
    },
    {
        "locId": "L12003200",
        "locName": "Camp Creek I-77 Rest Area, Southbound",
        "countryCode": "US",
        "subnational1Code": "US-WV",
        "subnational2Code": "US-WV-055",
        "lat": 37.4862357,
        "lng": -81.0811685,
        "latestObsDt": "2023-11-02 12:18",
        "numSpeciesAllTime": 26
    },
    {
        "locId": "L1592399",
        "locName": "Camp Creek SP and Forest",
        "countryCode": "US",
        "subnational1Code": "US-WV",
        "subnational2Code": "US-WV-055",
        "lat": 37.5162985,
        "lng": -81.1299871,
        "latestObsDt": "2023-08-27 09:22",
        "numSpeciesAllTime": 106
    },
    {
        "locId": "L20717040",
        "locName": "Camp Creek SP and Forest--Mash Fork Falls",
        "countryCode": "US",
        "subnational1Code": "US-WV",
        "subnational2Code": "US-WV-055",
        "lat": 37.5006274,
        "lng": -81.1424875,
        "latestObsDt": "2023-12-29 10:40",
        "numSpeciesAllTime": 33
    },
    {
        "locId": "L1041479",
        "locName": "Canaan Valley NWR",
        "countryCode": "US",
        "subnational1Code": "US-WV",
        "subnational2Code": "US-WV-093",
        "lat": 39.1015582,
        "lng": -79.4145012,
        "latestObsDt": "2023-07-20 10:00",
        "numSpeciesAllTime": 160
    },
    {
        "locId": "L1169372",
        "locName": "Canaan Valley NWR--A Frame Rd.",
        "countryCode": "US",
        "subnational1Code": "US-WV",
        "subnational2Code": "US-WV-093",
        "lat": 39.143375,
        "lng": -79.3335629,
        "latestObsDt": "2023-06-18 10:40",
        "numSpeciesAllTime": 119
    },
    {
        "locId": "L144526",
        "locName": "Canaan Valley NWR--Beall Tract",
        "countryCode": "US",
        "subnational1Code": "US-WV",
        "subnational2Code": "US-WV-093",
        "lat": 39.0661087,
        "lng": -79.414444,
        "latestObsDt": "2024-02-23 13:45",
        "numSpeciesAllTime": 158
    },
    {
        "locId": "L2896931",
        "locName": "Canaan Valley NWR--Beall Tract (south of Beall Loop)",
        "countryCode": "US",
        "subnational1Code": "US-WV",
        "subnational2Code": "US-WV-093",
        "lat": 39.0601497,
        "lng": -79.4177198,
        "latestObsDt": "2024-02-24 09:15",
        "numSpeciesAllTime": 117
    },
    {
        "locId": "L1257547",
        "locName": "Canaan Valley NWR--Brown Mountain Trail and Overlook",
        "countryCode": "US",
        "subnational1Code": "US-WV",
        "subnational2Code": "US-WV-093",
        "lat": 39.1367179,
        "lng": -79.403944,
        "latestObsDt": "2023-10-09 10:22",
        "numSpeciesAllTime": 96
    },
    {
        "locId": "L717815",
        "locName": "Canaan Valley NWR--Cabin Mountain",
        "countryCode": "US",
        "subnational1Code": "US-WV",
        "subnational2Code": "US-WV-093",
        "lat": 39.0289857,
        "lng": -79.4102097,
        "latestObsDt": "2022-10-14 12:07",
        "numSpeciesAllTime": 108
    },
    {
        "locId": "L5963856",
        "locName": "Canaan Valley NWR--Canaan Loop Rd.",
        "countryCode": "US",
        "subnational1Code": "US-WV",
        "subnational2Code": "US-WV-093",
        "lat": 39.0678713,
        "lng": -79.4871569,
        "latestObsDt": "2023-10-01 08:46",
        "numSpeciesAllTime": 111
    },
    {
        "locId": "L144527",
        "locName": "Canaan Valley NWR--Freeland Rd. Tract",
        "countryCode": "US",
        "subnational1Code": "US-WV",
        "subnational2Code": "US-WV-093",
        "lat": 39.0236092,
        "lng": -79.4274979,
        "latestObsDt": "2024-02-20 15:05",
        "numSpeciesAllTime": 171
    },
    {
        "locId": "L9206488",
        "locName": "Canaan Valley NWR--Hellbender's Tail Trail",
        "countryCode": "US",
        "subnational1Code": "US-WV",
        "subnational2Code": "US-WV-093",
        "lat": 39.1343339,
        "lng": -79.4088681,
        "latestObsDt": "2023-12-16 12:17",
        "numSpeciesAllTime": 67
    },
    {
        "locId": "L9524019",
        "locName": "Canaan Valley NWR--Idleman's Run Trail",
        "countryCode": "US",
        "subnational1Code": "US-WV",
        "subnational2Code": "US-WV-093",
        "lat": 39.0337407,
        "lng": -79.4108001,
        "latestObsDt": "2023-10-13 08:31",
        "numSpeciesAllTime": 77
    },
    {
        "locId": "L1169362",
        "locName": "Canaan Valley NWR--Middle Valley Trail",
        "countryCode": "US",
        "subnational1Code": "US-WV",
        "subnational2Code": "US-WV-093",
        "lat": 39.1144621,
        "lng": -79.3593121,
        "latestObsDt": "2023-08-11 10:18",
        "numSpeciesAllTime": 125
    },
    {
        "locId": "L1133110",
        "locName": "Canaan Valley NWR--Timberline Rd.",
        "countryCode": "US",
        "subnational1Code": "US-WV",
        "subnational2Code": "US-WV-093",
        "lat": 39.0362863,
        "lng": -79.4203377,
        "latestObsDt": "2024-01-30 12:01",
        "numSpeciesAllTime": 98
    },
    {
        "locId": "L1244670",
        "locName": "Canaan Valley NWR--Visitors Center",
        "countryCode": "US",
        "subnational1Code": "US-WV",
        "subnational2Code": "US-WV-093",
        "lat": 39.0454193,
        "lng": -79.4479322,
        "latestObsDt": "2024-01-28 10:46",
        "numSpeciesAllTime": 113
    },
    {
        "locId": "L1126446",
        "locName": "Canaan Valley SP",
        "countryCode": "US",
        "subnational1Code": "US-WV",
        "subnational2Code": "US-WV-093",
        "lat": 39.0217177,
        "lng": -79.4613647,
        "latestObsDt": "2023-11-24 11:24",
        "numSpeciesAllTime": 188
    },
    {
        "locId": "L144534",
        "locName": "Canaan Valley SP--Abe Run Trail",
        "countryCode": "US",
        "subnational1Code": "US-WV",
        "subnational2Code": "US-WV-093",
        "lat": 39.0169831,
        "lng": -79.4641972,
        "latestObsDt": "2023-10-11 08:31",
        "numSpeciesAllTime": 126
    },
    {
        "locId": "L9524022",
        "locName": "Canaan Valley SP--Blackwater River Overlook",
        "countryCode": "US",
        "subnational1Code": "US-WV",
        "subnational2Code": "US-WV-093",
        "lat": 39.0373823,
        "lng": -79.4536185,
        "latestObsDt": "2024-02-24 13:00",
        "numSpeciesAllTime": 92
    },
    {
        "locId": "L1163154",
        "locName": "Canaan Valley SP--Golf Course Rd.",
        "countryCode": "US",
        "subnational1Code": "US-WV",
        "subnational2Code": "US-WV-093",
        "lat": 39.0320527,
        "lng": -79.4600773,
        "latestObsDt": "2024-01-30 13:05",
        "numSpeciesAllTime": 137
    },
    {
        "locId": "L965641",
        "locName": "Canaan Valley SP--Middle Ridge Trail",
        "countryCode": "US",
        "subnational1Code": "US-WV",
        "subnational2Code": "US-WV-093",
        "lat": 39.0255185,
        "lng": -79.4696903,
        "latestObsDt": "2023-10-27 14:33",
        "numSpeciesAllTime": 91
    },
    {
        "locId": "L1163128",
        "locName": "Canaan Valley SP--Mill Run Trail",
        "countryCode": "US",
        "subnational1Code": "US-WV",
        "subnational2Code": "US-WV-093",
        "lat": 39.0203507,
        "lng": -79.4616222,
        "latestObsDt": "2023-09-30 07:55",
        "numSpeciesAllTime": 87
    },
    {
        "locId": "L11837021",
        "locName": "Canaan Valley SP--Settling Ponds",
        "countryCode": "US",
        "subnational1Code": "US-WV",
        "subnational2Code": "US-WV-093",
        "lat": 39.023649,
        "lng": -79.462261,
        "latestObsDt": "2023-11-25 11:45",
        "numSpeciesAllTime": 91
    },
    {
        "locId": "L965649",
        "locName": "Canaan Valley--Bald Knob",
        "countryCode": "US",
        "subnational1Code": "US-WV",
        "subnational2Code": "US-WV-093",
        "lat": 39.0020436,
        "lng": -79.437418,
        "latestObsDt": "2022-06-02 17:57",
        "numSpeciesAllTime": 89
    },
    {
        "locId": "L1180025",
        "locName": "Candlewood ",
        "countryCode": "US",
        "subnational1Code": "US-WV",
        "subnational2Code": "US-WV-037",
        "lat": 39.2668991,
        "lng": -77.8521144,
        "latestObsDt": "2024-02-10 17:40",
        "numSpeciesAllTime": 74
    },
    {
        "locId": "L27797138",
        "locName": "Capon Springs and Farms",
        "countryCode": "US",
        "subnational1Code": "US-WV",
        "subnational2Code": "US-WV-027",
        "lat": 39.1322563,
        "lng": -78.4798251,
        "latestObsDt": "2023-11-05 07:44",
        "numSpeciesAllTime": 27
    },
    {
        "locId": "L5849596",
        "locName": "Carnifex Ferry Battlefield SP",
        "countryCode": "US",
        "subnational1Code": "US-WV",
        "subnational2Code": "US-WV-067",
        "lat": 38.2130183,
        "lng": -80.9390017,
        "latestObsDt": "2024-02-26 17:22",
        "numSpeciesAllTime": 115
    },
    {
        "locId": "L23327042",
        "locName": "Cassville-Mount Morris Rd. (south)/Smokey Drain Rd.",
        "countryCode": "US",
        "subnational1Code": "US-WV",
        "subnational2Code": "US-WV-061",
        "lat": 39.6839929,
        "lng": -80.0774124,
        "latestObsDt": "2024-02-03 08:08",
        "numSpeciesAllTime": 101
    },
    {
        "locId": "L1172062",
        "locName": "Cathedral SP",
        "countryCode": "US",
        "subnational1Code": "US-WV",
        "subnational2Code": "US-WV-077",
        "lat": 39.3264102,
        "lng": -79.5389729,
        "latestObsDt": "2024-02-03 15:55",
        "numSpeciesAllTime": 137
    },
    {
        "locId": "L2769861",
        "locName": "Cato Park",
        "countryCode": "US",
        "subnational1Code": "US-WV",
        "subnational2Code": "US-WV-039",
        "lat": 38.3759304,
        "lng": -81.6422796,
        "latestObsDt": "2023-08-03 19:04",
        "numSpeciesAllTime": 29
    },
    {
        "locId": "L1127233",
        "locName": "Cedar Creek SP",
        "countryCode": "US",
        "subnational1Code": "US-WV",
        "subnational2Code": "US-WV-021",
        "lat": 38.8825485,
        "lng": -80.854139,
        "latestObsDt": "2023-06-13 16:30",
        "numSpeciesAllTime": 126
    },
    {
        "locId": "L1192248",
        "locName": "Cedar Lakes",
        "countryCode": "US",
        "subnational1Code": "US-WV",
        "subnational2Code": "US-WV-035",
        "lat": 38.7957231,
        "lng": -81.680933,
        "latestObsDt": "2023-11-03 11:11",
        "numSpeciesAllTime": 127
    },
    {
        "locId": "L14312470",
        "locName": "Center Branch WMA",
        "countryCode": "US",
        "subnational1Code": "US-WV",
        "subnational2Code": "US-WV-033",
        "lat": 39.2385442,
        "lng": -80.3295717,
        "latestObsDt": "2024-02-19 12:22",
        "numSpeciesAllTime": 93
    },
    {
        "locId": "L13124462",
        "locName": "Central Hampshire Park",
        "countryCode": "US",
        "subnational1Code": "US-WV",
        "subnational2Code": "US-WV-027",
        "lat": 39.3011128,
        "lng": -78.6161149,
        "latestObsDt": "2023-09-15 16:48",
        "numSpeciesAllTime": 51
    },
    {
        "locId": "L5747832",
        "locName": "Charles Fork Lake (south)",
        "countryCode": "US",
        "subnational1Code": "US-WV",
        "subnational2Code": "US-WV-087",
        "lat": 38.7468998,
        "lng": -81.3447046,
        "latestObsDt": "2020-05-12 12:40",
        "numSpeciesAllTime": 36
    },
    {
        "locId": "L18038201",
        "locName": "Charles Fork Lake Dam and Campground",
        "countryCode": "US",
        "subnational1Code": "US-WV",
        "subnational2Code": "US-WV-087",
        "lat": 38.7713298,
        "lng": -81.344137,
        "latestObsDt": "2023-10-16 07:38",
        "numSpeciesAllTime": 33
    },
    {
        "locId": "L1043900",
        "locName": "Charleston  WV South Hills Neighborhood",
        "countryCode": "US",
        "subnational1Code": "US-WV",
        "subnational2Code": "US-WV-039",
        "lat": 38.3432718,
        "lng": -81.6431808,
        "latestObsDt": "2023-12-22 17:30",
        "numSpeciesAllTime": 77
    },
    {
        "locId": "L5523303",
        "locName": "Chatham Lake",
        "countryCode": "US",
        "subnational1Code": "US-WV",
        "subnational2Code": "US-WV-081",
        "lat": 37.7265335,
        "lng": -81.0667849,
        "latestObsDt": "2020-03-13 18:20",
        "numSpeciesAllTime": 17
    },
    {
        "locId": "L890598",
        "locName": "Cheat Bridge",
        "countryCode": "US",
        "subnational1Code": "US-WV",
        "subnational2Code": "US-WV-083",
        "lat": 38.6173231,
        "lng": -79.8696828,
        "latestObsDt": "2024-02-26 10:30",
        "numSpeciesAllTime": 106
    },
    {
        "locId": "L4589537",
        "locName": "Cheat Canyon WMA",
        "countryCode": "US",
        "subnational1Code": "US-WV",
        "subnational2Code": "US-WV-077",
        "lat": 39.5134388,
        "lng": -79.6479017,
        "latestObsDt": "2023-07-08 11:27",
        "numSpeciesAllTime": 102
    },
    {
        "locId": "L5156672",
        "locName": "Cheat Haven Trail",
        "countryCode": "US",
        "subnational1Code": "US-WV",
        "subnational2Code": "US-WV-061",
        "lat": 39.7196652,
        "lng": -79.8545401,
        "latestObsDt": "2024-02-11 12:50",
        "numSpeciesAllTime": 62
    },
    {
        "locId": "L1061733",
        "locName": "Cheat Lake Park",
        "countryCode": "US",
        "subnational1Code": "US-WV",
        "subnational2Code": "US-WV-061",
        "lat": 39.7096958,
        "lng": -79.8431396,
        "latestObsDt": "2024-02-25 10:00",
        "numSpeciesAllTime": 165
    },
    {
        "locId": "L734436",
        "locName": "Cheat Lake--Cheat Lake Trail (middle)",
        "countryCode": "US",
        "subnational1Code": "US-WV",
        "subnational2Code": "US-WV-061",
        "lat": 39.7016398,
        "lng": -79.8462296,
        "latestObsDt": "2023-12-02 14:13",
        "numSpeciesAllTime": 88
    },
    {
        "locId": "L734425",
        "locName": "Cheat Lake--Cheat Lake Trail (north)",
        "countryCode": "US",
        "subnational1Code": "US-WV",
        "subnational2Code": "US-WV-061",
        "lat": 39.7120068,
        "lng": -79.844985,
        "latestObsDt": "2024-02-20 14:33",
        "numSpeciesAllTime": 115
    },
    {
        "locId": "L734427",
        "locName": "Cheat Lake--Cheat Lake Trail (south)",
        "countryCode": "US",
        "subnational1Code": "US-WV",
        "subnational2Code": "US-WV-061",
        "lat": 39.6939791,
        "lng": -79.8736954,
        "latestObsDt": "2024-02-25 09:13",
        "numSpeciesAllTime": 104
    },
    {
        "locId": "L621101",
        "locName": "Cheat Lake--I-68 Bridge",
        "countryCode": "US",
        "subnational1Code": "US-WV",
        "subnational2Code": "US-WV-061",
        "lat": 39.6697049,
        "lng": -79.8610662,
        "latestObsDt": "2024-02-25 09:35",
        "numSpeciesAllTime": 129
    },
    {
        "locId": "L789658",
        "locName": "Cheat Lake--South of I-68",
        "countryCode": "US",
        "subnational1Code": "US-WV",
        "subnational2Code": "US-WV-061",
        "lat": 39.6639227,
        "lng": -79.8561001,
        "latestObsDt": "2024-02-25 09:23",
        "numSpeciesAllTime": 130
    },
    {
        "locId": "L695940",
        "locName": "Cheat Lake--Sunset Harbor Marina",
        "countryCode": "US",
        "subnational1Code": "US-WV",
        "subnational2Code": "US-WV-061",
        "lat": 39.6785521,
        "lng": -79.8583317,
        "latestObsDt": "2024-02-25 09:45",
        "numSpeciesAllTime": 115
    },
    {
        "locId": "L7597070",
        "locName": "Cheat River--St. George Bridge",
        "countryCode": "US",
        "subnational1Code": "US-WV",
        "subnational2Code": "US-WV-093",
        "lat": 39.1651381,
        "lng": -79.707271,
        "latestObsDt": "2023-08-27 14:39",
        "numSpeciesAllTime": 92
    },
    {
        "locId": "L16920415",
        "locName": "Chester City Park",
        "countryCode": "US",
        "subnational1Code": "US-WV",
        "subnational2Code": "US-WV-029",
        "lat": 40.6128509,
        "lng": -80.5664134,
        "latestObsDt": "2023-11-10 13:38",
        "numSpeciesAllTime": 49
    },
    {
        "locId": "L5933512",
        "locName": "Chestnut Ridge Park & Campground",
        "countryCode": "US",
        "subnational1Code": "US-WV",
        "subnational2Code": "US-WV-061",
        "lat": 39.6818921,
        "lng": -79.7840881,
        "latestObsDt": "2023-08-10 17:41",
        "numSpeciesAllTime": 66
    },
    {
        "locId": "L3645670",
        "locName": "Chief Cornstalk WMA",
        "countryCode": "US",
        "subnational1Code": "US-WV",
        "subnational2Code": "US-WV-053",
        "lat": 38.7228159,
        "lng": -82.0409718,
        "latestObsDt": "2023-09-16 09:01",
        "numSpeciesAllTime": 129
    },
    {
        "locId": "L4437236",
        "locName": "Chief Logan SP",
        "countryCode": "US",
        "subnational1Code": "US-WV",
        "subnational2Code": "US-WV-045",
        "lat": 37.897349,
        "lng": -82.0013342,
        "latestObsDt": "2023-12-24 13:42",
        "numSpeciesAllTime": 86
    },
    {
        "locId": "L4437252",
        "locName": "Chief Logan SP--Lodge and Conference Center Area",
        "countryCode": "US",
        "subnational1Code": "US-WV",
        "subnational2Code": "US-WV-045",
        "lat": 37.8989708,
        "lng": -82.0385519,
        "latestObsDt": "2023-10-22 11:00",
        "numSpeciesAllTime": 63
    },
    {
        "locId": "L28415031",
        "locName": "City Park",
        "countryCode": "US",
        "subnational1Code": "US-WV",
        "subnational2Code": "US-WV-075",
        "lat": 38.2242596,
        "lng": -80.0953397,
        "latestObsDt": "2023-12-14 12:55",
        "numSpeciesAllTime": 2
    },
    {
        "locId": "L1318251",
        "locName": "Claymont Wetland",
        "countryCode": "US",
        "subnational1Code": "US-WV",
        "subnational2Code": "US-WV-037",
        "lat": 39.2619317,
        "lng": -77.9052114,
        "latestObsDt": "2022-10-23 15:17",
        "numSpeciesAllTime": 128
    },
    {
        "locId": "L18313336",
        "locName": "Coal Heritage Trail--Guyandotte River Park",
        "countryCode": "US",
        "subnational1Code": "US-WV",
        "subnational2Code": "US-WV-109",
        "lat": 37.5759598,
        "lng": -81.4741158,
        "latestObsDt": "2022-03-29 09:35",
        "numSpeciesAllTime": 1
    },
    {
        "locId": "L5798397",
        "locName": "Coal Lick Rd. Pond",
        "countryCode": "US",
        "subnational1Code": "US-WV",
        "subnational2Code": "US-WV-077",
        "lat": 39.5220081,
        "lng": -79.6191033,
        "latestObsDt": "2023-11-18 11:43",
        "numSpeciesAllTime": 90
    },
    {
        "locId": "L7038429",
        "locName": "Coal River Water Trail--Madison City Park access",
        "countryCode": "US",
        "subnational1Code": "US-WV",
        "subnational2Code": "US-WV-005",
        "lat": 38.0591984,
        "lng": -81.8239711,
        "latestObsDt": "2022-05-03 14:27",
        "numSpeciesAllTime": 19
    },
    {
        "locId": "L267768",
        "locName": "Colston Rd. Pond",
        "countryCode": "US",
        "subnational1Code": "US-WV",
        "subnational2Code": "US-WV-037",
        "lat": 39.2680454,
        "lng": -77.8767637,
        "latestObsDt": "2023-09-28 18:21",
        "numSpeciesAllTime": 86
    },
    {
        "locId": "L5830948",
        "locName": "Conaway Run Lake WMA",
        "countryCode": "US",
        "subnational1Code": "US-WV",
        "subnational2Code": "US-WV-095",
        "lat": 39.4246452,
        "lng": -80.8557688,
        "latestObsDt": "2024-02-07 07:19",
        "numSpeciesAllTime": 125
    },
    {
        "locId": "L5090389",
        "locName": "Concord University",
        "countryCode": "US",
        "subnational1Code": "US-WV",
        "subnational2Code": "US-WV-055",
        "lat": 37.4246361,
        "lng": -81.0047585,
        "latestObsDt": "2024-01-31 16:13",
        "numSpeciesAllTime": 81
    },
    {
        "locId": "L5091518",
        "locName": "Cool Spring Preserve",
        "countryCode": "US",
        "subnational1Code": "US-WV",
        "subnational2Code": "US-WV-037",
        "lat": 39.2418926,
        "lng": -77.9256643,
        "latestObsDt": "2024-02-21 07:25",
        "numSpeciesAllTime": 144
    },
    {
        "locId": "L1366590",
        "locName": "Coonskin Park",
        "countryCode": "US",
        "subnational1Code": "US-WV",
        "subnational2Code": "US-WV-039",
        "lat": 38.3911939,
        "lng": -81.574829,
        "latestObsDt": "2024-02-18 11:37",
        "numSpeciesAllTime": 167
    },
    {
        "locId": "L13091904",
        "locName": "Coonskin Park--Elk River Trail",
        "countryCode": "US",
        "subnational1Code": "US-WV",
        "subnational2Code": "US-WV-039",
        "lat": 38.385122,
        "lng": -81.5843232,
        "latestObsDt": "2024-02-21 13:06",
        "numSpeciesAllTime": 103
    },
    {
        "locId": "L5899995",
        "locName": "Cooper's Rock SF-- Day Use Parking Lot",
        "countryCode": "US",
        "subnational1Code": "US-WV",
        "subnational2Code": "US-WV-061",
        "lat": 39.6557581,
        "lng": -79.7859576,
        "latestObsDt": "2023-10-04 12:07",
        "numSpeciesAllTime": 80
    },
    {
        "locId": "L723540",
        "locName": "Cooper's Rock SF--Rhododendron/Henry Clay Furnace Trails",
        "countryCode": "US",
        "subnational1Code": "US-WV",
        "subnational2Code": "US-WV-061",
        "lat": 39.6446929,
        "lng": -79.8203087,
        "latestObsDt": "2023-08-01 10:00",
        "numSpeciesAllTime": 48
    },
    {
        "locId": "L764883",
        "locName": "Cooper's Rock St. Forest--Mont Chateau and Rhododendron Trails",
        "countryCode": "US",
        "subnational1Code": "US-WV",
        "subnational2Code": "US-WV-061",
        "lat": 39.6489886,
        "lng": -79.8250723,
        "latestObsDt": "2023-10-28 14:12",
        "numSpeciesAllTime": 34
    },
    {
        "locId": "L446891",
        "locName": "Coopers Rock SF",
        "countryCode": "US",
        "subnational1Code": "US-WV",
        "subnational2Code": "US-WV-061",
        "lat": 39.6372076,
        "lng": -79.8132706,
        "latestObsDt": "2024-02-25 16:20",
        "numSpeciesAllTime": 142
    },
    {
        "locId": "L7319545",
        "locName": "Coopers Rock SF--Adams Heights Rd.",
        "countryCode": "US",
        "subnational1Code": "US-WV",
        "subnational2Code": "US-WV-061",
        "lat": 39.6762449,
        "lng": -79.843553,
        "latestObsDt": "2024-02-17 09:00",
        "numSpeciesAllTime": 65
    },
    {
        "locId": "L868966",
        "locName": "Coopers Rock SF--Chestnut Ridge Rd.-Regeneration Area",
        "countryCode": "US",
        "subnational1Code": "US-WV",
        "subnational2Code": "US-WV-077",
        "lat": 39.6674905,
        "lng": -79.7695827,
        "latestObsDt": "2023-08-10 14:13",
        "numSpeciesAllTime": 74
    },
    {
        "locId": "L745712",
        "locName": "Coopers Rock SF--Clay Run Trail",
        "countryCode": "US",
        "subnational1Code": "US-WV",
        "subnational2Code": "US-WV-061",
        "lat": 39.6400663,
        "lng": -79.8047733,
        "latestObsDt": "2023-06-23 10:43",
        "numSpeciesAllTime": 64
    },
    {
        "locId": "L764873",
        "locName": "Coopers Rock SF--Eagle and Rattlesnake Trails",
        "countryCode": "US",
        "subnational1Code": "US-WV",
        "subnational2Code": "US-WV-061",
        "lat": 39.640529,
        "lng": -79.8215961,
        "latestObsDt": "2023-08-08 18:23",
        "numSpeciesAllTime": 68
    },
    {
        "locId": "L1245878",
        "locName": "Coopers Rock SF--Henry Clay Furnace Rd./Roadside Trail Crossing",
        "countryCode": "US",
        "subnational1Code": "US-WV",
        "subnational2Code": "US-WV-061",
        "lat": 39.653092,
        "lng": -79.7915232,
        "latestObsDt": "2023-05-20 10:45",
        "numSpeciesAllTime": 85
    },
    {
        "locId": "L725723",
        "locName": "Coopers Rock SF--Henry Clay Furnace/Mont Chateau Trails",
        "countryCode": "US",
        "subnational1Code": "US-WV",
        "subnational2Code": "US-WV-061",
        "lat": 39.6519625,
        "lng": -79.8280334,
        "latestObsDt": "2024-02-19 14:31",
        "numSpeciesAllTime": 43
    },
    {
        "locId": "L723520",
        "locName": "Coopers Rock SF--Henry Clay Iron Furnace Trail",
        "countryCode": "US",
        "subnational1Code": "US-WV",
        "subnational2Code": "US-WV-061",
        "lat": 39.650773,
        "lng": -79.8232269,
        "latestObsDt": "2023-07-29 16:38",
        "numSpeciesAllTime": 68
    },
    {
        "locId": "L3501673",
        "locName": "Coopers Rock SF--Johnson Hollow Trail",
        "countryCode": "US",
        "subnational1Code": "US-WV",
        "subnational2Code": "US-WV-061",
        "lat": 39.6659712,
        "lng": -79.8193874,
        "latestObsDt": "2023-08-20 18:26",
        "numSpeciesAllTime": 14
    },
    {
        "locId": "L792827",
        "locName": "Coopers Rock SF--Ken's Run Trailhead",
        "countryCode": "US",
        "subnational1Code": "US-WV",
        "subnational2Code": "US-WV-077",
        "lat": 39.6801416,
        "lng": -79.767952,
        "latestObsDt": "2024-02-21 10:00",
        "numSpeciesAllTime": 85
    },
    {
        "locId": "L2118632",
        "locName": "Coopers Rock SF--Ken's Run Trailhead-Logged Area",
        "countryCode": "US",
        "subnational1Code": "US-WV",
        "subnational2Code": "US-WV-077",
        "lat": 39.6762771,
        "lng": -79.7572231,
        "latestObsDt": "2023-05-14 15:12",
        "numSpeciesAllTime": 92
    },
    {
        "locId": "L726363",
        "locName": "Coopers Rock SF--Lower Virgin Hemlock Trail",
        "countryCode": "US",
        "subnational1Code": "US-WV",
        "subnational2Code": "US-WV-077",
        "lat": 39.655597,
        "lng": -79.7374821,
        "latestObsDt": "2023-12-25 12:42",
        "numSpeciesAllTime": 97
    },
    {
        "locId": "L723523",
        "locName": "Coopers Rock SF--McCollum Campground Rd. jct.",
        "countryCode": "US",
        "subnational1Code": "US-WV",
        "subnational2Code": "US-WV-061",
        "lat": 39.6416526,
        "lng": -79.7940445,
        "latestObsDt": "2023-11-26 11:35",
        "numSpeciesAllTime": 110
    },
    {
        "locId": "L733352",
        "locName": "Coopers Rock SF--Picnic/Overlook Area",
        "countryCode": "US",
        "subnational1Code": "US-WV",
        "subnational2Code": "US-WV-061",
        "lat": 39.6401985,
        "lng": -79.8137856,
        "latestObsDt": "2023-11-05 17:21",
        "numSpeciesAllTime": 110
    },
    {
        "locId": "L723589",
        "locName": "Coopers Rock SF--Raven Rock Trail",
        "countryCode": "US",
        "subnational1Code": "US-WV",
        "subnational2Code": "US-WV-061",
        "lat": 39.6279037,
        "lng": -79.7997093,
        "latestObsDt": "2023-08-09 09:36",
        "numSpeciesAllTime": 119
    },
    {
        "locId": "L764880",
        "locName": "Coopers Rock SF--Ridge Trail",
        "countryCode": "US",
        "subnational1Code": "US-WV",
        "subnational2Code": "US-WV-061",
        "lat": 39.6473364,
        "lng": -79.831295,
        "latestObsDt": "2022-06-11 09:14",
        "numSpeciesAllTime": 30
    },
    {
        "locId": "L730288",
        "locName": "Coopers Rock SF--Roadside Trail (north)",
        "countryCode": "US",
        "subnational1Code": "US-WV",
        "subnational2Code": "US-WV-077",
        "lat": 39.6487904,
        "lng": -79.7861481,
        "latestObsDt": "2023-06-03 12:30",
        "numSpeciesAllTime": 75
    },
    {
        "locId": "L757677",
        "locName": "Coopers Rock SF--Roadside Trail (south)",
        "countryCode": "US",
        "subnational1Code": "US-WV",
        "subnational2Code": "US-WV-061",
        "lat": 39.6364971,
        "lng": -79.8019409,
        "latestObsDt": "2023-09-29 08:36",
        "numSpeciesAllTime": 78
    },
    {
        "locId": "L742044",
        "locName": "Coopers Rock SF--Scott Run Trail",
        "countryCode": "US",
        "subnational1Code": "US-WV",
        "subnational2Code": "US-WV-077",
        "lat": 39.6457503,
        "lng": -79.7808266,
        "latestObsDt": "2023-07-30 11:18",
        "numSpeciesAllTime": 64
    },
    {
        "locId": "L2359178",
        "locName": "Coopers Rock SF--Trails West of Raven Rock Trail",
        "countryCode": "US",
        "subnational1Code": "US-WV",
        "subnational2Code": "US-WV-061",
        "lat": 39.6342288,
        "lng": -79.8023486,
        "latestObsDt": "2023-08-06 06:57",
        "numSpeciesAllTime": 78
    },
    {
        "locId": "L726353",
        "locName": "Coopers Rock SF--Trout Pond",
        "countryCode": "US",
        "subnational1Code": "US-WV",
        "subnational2Code": "US-WV-061",
        "lat": 39.6588349,
        "lng": -79.789238,
        "latestObsDt": "2024-01-03 10:18",
        "numSpeciesAllTime": 99
    },
    {
        "locId": "L733293",
        "locName": "Coopers Rock SF--Upper Virgin Hemlock Trail",
        "countryCode": "US",
        "subnational1Code": "US-WV",
        "subnational2Code": "US-WV-077",
        "lat": 39.6619404,
        "lng": -79.7379112,
        "latestObsDt": "2023-02-17 14:13",
        "numSpeciesAllTime": 55
    },
    {
        "locId": "L1277635",
        "locName": "Coopers Rock SF--West of Chestnut Ridge Rd.",
        "countryCode": "US",
        "subnational1Code": "US-WV",
        "subnational2Code": "US-WV-077",
        "lat": 39.6670731,
        "lng": -79.7729087,
        "latestObsDt": "2024-02-03 13:09",
        "numSpeciesAllTime": 80
    },
    {
        "locId": "L862710",
        "locName": "Coopers Rock SF--West of Virgin Hemlock Trail",
        "countryCode": "US",
        "subnational1Code": "US-WV",
        "subnational2Code": "US-WV-077",
        "lat": 39.659834,
        "lng": -79.744005,
        "latestObsDt": "2023-07-23 08:15",
        "numSpeciesAllTime": 43
    },
    {
        "locId": "L914240",
        "locName": "Coopers Rock SF--Wildlife Area 6",
        "countryCode": "US",
        "subnational1Code": "US-WV",
        "subnational2Code": "US-WV-061",
        "lat": 39.6540771,
        "lng": -79.8249865,
        "latestObsDt": "2021-04-26 08:56",
        "numSpeciesAllTime": 45
    },
    {
        "locId": "L4613516",
        "locName": "Coopers Rock SF--Wildlife Area 7",
        "countryCode": "US",
        "subnational1Code": "US-WV",
        "subnational2Code": "US-WV-061",
        "lat": 39.6460023,
        "lng": -79.7941169,
        "latestObsDt": "2023-07-18 18:05",
        "numSpeciesAllTime": 49
    },
    {
        "locId": "L733346",
        "locName": "Coopers Rock St. Forest--Rock City/Ridge Trails",
        "countryCode": "US",
        "subnational1Code": "US-WV",
        "subnational2Code": "US-WV-061",
        "lat": 39.6421153,
        "lng": -79.8200512,
        "latestObsDt": "2023-10-27 12:17",
        "numSpeciesAllTime": 63
    },
    {
        "locId": "L723492",
        "locName": "Core Arboretum",
        "countryCode": "US",
        "subnational1Code": "US-WV",
        "subnational2Code": "US-WV-061",
        "lat": 39.6464773,
        "lng": -79.9789238,
        "latestObsDt": "2024-02-23 17:18",
        "numSpeciesAllTime": 188
    },
    {
        "locId": "L8068556",
        "locName": "Corrick's Ford Pond and Trails",
        "countryCode": "US",
        "subnational1Code": "US-WV",
        "subnational2Code": "US-WV-093",
        "lat": 39.0878387,
        "lng": -79.6822957,
        "latestObsDt": "2024-02-23 11:05",
        "numSpeciesAllTime": 95
    },
    {
        "locId": "L1347133",
        "locName": "Cortland Rd.--North of Beall Ln.",
        "countryCode": "US",
        "subnational1Code": "US-WV",
        "subnational2Code": "US-WV-093",
        "lat": 39.073985,
        "lng": -79.4291225,
        "latestObsDt": "2024-02-19 17:52",
        "numSpeciesAllTime": 113
    },
    {
        "locId": "L1343988",
        "locName": "Cortland Rd.--South of Beall Ln.",
        "countryCode": "US",
        "subnational1Code": "US-WV",
        "subnational2Code": "US-WV-093",
        "lat": 39.0587577,
        "lng": -79.4342295,
        "latestObsDt": "2023-12-30 14:10",
        "numSpeciesAllTime": 94
    },
    {
        "locId": "L16187722",
        "locName": "Cotton Hill Fishing Access",
        "countryCode": "US",
        "subnational1Code": "US-WV",
        "subnational2Code": "US-WV-019",
        "lat": 38.1145958,
        "lng": -81.1425519,
        "latestObsDt": "2023-05-10 09:05",
        "numSpeciesAllTime": 71
    },
    {
        "locId": "L3598201",
        "locName": "Cotton Hill Mountain",
        "countryCode": "US",
        "subnational1Code": "US-WV",
        "subnational2Code": "US-WV-019",
        "lat": 38.1051157,
        "lng": -81.1673069,
        "latestObsDt": "2023-05-10 06:03",
        "numSpeciesAllTime": 110
    },
    {
        "locId": "L471221",
        "locName": "Country Club Rd.",
        "countryCode": "US",
        "subnational1Code": "US-WV",
        "subnational2Code": "US-WV-037",
        "lat": 39.3127372,
        "lng": -77.8214364,
        "latestObsDt": "2024-02-10 10:18",
        "numSpeciesAllTime": 115
    },
    {
        "locId": "L279583",
        "locName": "Crab Creek",
        "countryCode": "US",
        "subnational1Code": "US-WV",
        "subnational2Code": "US-WV-053",
        "lat": 38.7296453,
        "lng": -82.1786158,
        "latestObsDt": "2024-01-27 11:04",
        "numSpeciesAllTime": 116
    },
    {
        "locId": "L21363408",
        "locName": "Crab Orchard Rd.",
        "countryCode": "US",
        "subnational1Code": "US-WV",
        "subnational2Code": "US-WV-077",
        "lat": 39.5451201,
        "lng": -79.6131566,
        "latestObsDt": "2023-05-30 07:14",
        "numSpeciesAllTime": 76
    },
    {
        "locId": "L1026791",
        "locName": "CraftWorks at Cool Spring",
        "countryCode": "US",
        "subnational1Code": "US-WV",
        "subnational2Code": "US-WV-037",
        "lat": 39.2431307,
        "lng": -77.927742,
        "latestObsDt": "2023-09-20 07:35",
        "numSpeciesAllTime": 116
    },
    {
        "locId": "L10404158",
        "locName": "Cranesville Loop Rd.",
        "countryCode": "US",
        "subnational1Code": "US-WV",
        "subnational2Code": "US-WV-077",
        "lat": 39.566846,
        "lng": -79.483082,
        "latestObsDt": "2024-02-03 11:17",
        "numSpeciesAllTime": 77
    },
    {
        "locId": "L515899",
        "locName": "Cranesville Swamp (WV)",
        "countryCode": "US",
        "subnational1Code": "US-WV",
        "subnational2Code": "US-WV-077",
        "lat": 39.5348286,
        "lng": -79.4826508,
        "latestObsDt": "2024-02-10 12:17",
        "numSpeciesAllTime": 166
    },
    {
        "locId": "L24478247",
        "locName": "Cranesville Swamp (WV)--White Trail",
        "countryCode": "US",
        "subnational1Code": "US-WV",
        "subnational2Code": "US-WV-077",
        "lat": 39.5323075,
        "lng": -79.4860772,
        "latestObsDt": "2024-01-17 14:12",
        "numSpeciesAllTime": 21
    },
    {
        "locId": "L5695913",
        "locName": "Cranesville Swamp--Lakeford Rd.",
        "countryCode": "US",
        "subnational1Code": "US-WV",
        "subnational2Code": "US-WV-077",
        "lat": 39.5140566,
        "lng": -79.4841166,
        "latestObsDt": "2024-02-03 10:55",
        "numSpeciesAllTime": 115
    },
    {
        "locId": "L982594",
        "locName": "Cross Creek WMA",
        "countryCode": "US",
        "subnational1Code": "US-WV",
        "subnational2Code": "US-WV-009",
        "lat": 40.3364367,
        "lng": -80.5290422,
        "latestObsDt": "2023-12-27 11:57",
        "numSpeciesAllTime": 115
    },
    {
        "locId": "L1287562",
        "locName": "Cunningham Ln.",
        "countryCode": "US",
        "subnational1Code": "US-WV",
        "subnational2Code": "US-WV-031",
        "lat": 39.0978281,
        "lng": -78.9474964,
        "latestObsDt": "2024-02-18 12:13",
        "numSpeciesAllTime": 122
    },
    {
        "locId": "L997828",
        "locName": "Curtisville Lake",
        "countryCode": "US",
        "subnational1Code": "US-WV",
        "subnational2Code": "US-WV-049",
        "lat": 39.515894,
        "lng": -80.4563141,
        "latestObsDt": "2024-02-05 12:29",
        "numSpeciesAllTime": 95
    },
    {
        "locId": "L278943",
        "locName": "Dale Payne's Pond",
        "countryCode": "US",
        "subnational1Code": "US-WV",
        "subnational2Code": "US-WV-019",
        "lat": 38.0545,
        "lng": -81.1272,
        "latestObsDt": "2023-10-10 11:17",
        "numSpeciesAllTime": 81
    },
    {
        "locId": "L16621204",
        "locName": "Dam 4/Slackwater Power Plant (River is in MD)",
        "countryCode": "US",
        "subnational1Code": "US-WV",
        "subnational2Code": "US-WV-003",
        "lat": 39.4925311,
        "lng": -77.8256612,
        "latestObsDt": "2024-02-06 12:30",
        "numSpeciesAllTime": 47
    },
    {
        "locId": "L13696100",
        "locName": "Daniel Boone Park",
        "countryCode": "US",
        "subnational1Code": "US-WV",
        "subnational2Code": "US-WV-039",
        "lat": 38.3299549,
        "lng": -81.5819751,
        "latestObsDt": "2024-02-05 09:27",
        "numSpeciesAllTime": 73
    },
    {
        "locId": "L6165443",
        "locName": "Danville Boat Launch",
        "countryCode": "US",
        "subnational1Code": "US-WV",
        "subnational2Code": "US-WV-005",
        "lat": 38.082707,
        "lng": -81.837589,
        "latestObsDt": "2023-09-15 13:36",
        "numSpeciesAllTime": 20
    },
    {
        "locId": "L689499",
        "locName": "Davis WTP",
        "countryCode": "US",
        "subnational1Code": "US-WV",
        "subnational2Code": "US-WV-093",
        "lat": 39.1241477,
        "lng": -79.470413,
        "latestObsDt": "2024-02-13 16:57",
        "numSpeciesAllTime": 175
    },
    {
        "locId": "L746297",
        "locName": "Decker's Creek Trail--Kingwood Pike",
        "countryCode": "US",
        "subnational1Code": "US-WV",
        "subnational2Code": "US-WV-077",
        "lat": 39.5162251,
        "lng": -79.8088932,
        "latestObsDt": "2023-09-02 10:49",
        "numSpeciesAllTime": 109
    },
    {
        "locId": "L773738",
        "locName": "Decker's Creek Trail--McKinney Cave Rd./Burke Rd.",
        "countryCode": "US",
        "subnational1Code": "US-WV",
        "subnational2Code": "US-WV-077",
        "lat": 39.5315849,
        "lng": -79.8111248,
        "latestObsDt": "2024-02-25 09:33",
        "numSpeciesAllTime": 179
    },
    {
        "locId": "L780113",
        "locName": "Decker's Creek Trail--North of McKinney Cave Rd.",
        "countryCode": "US",
        "subnational1Code": "US-WV",
        "subnational2Code": "US-WV-077",
        "lat": 39.5396607,
        "lng": -79.8117256,
        "latestObsDt": "2024-02-25 08:52",
        "numSpeciesAllTime": 171
    },
    {
        "locId": "L749877",
        "locName": "Decker's Creek Trail--Rt. 92",
        "countryCode": "US",
        "subnational1Code": "US-WV",
        "subnational2Code": "US-WV-077",
        "lat": 39.5051665,
        "lng": -79.8015976,
        "latestObsDt": "2023-05-31 18:05",
        "numSpeciesAllTime": 133
    },
    {
        "locId": "L1040755",
        "locName": "Deckers Creek Trail--East of I-68",
        "countryCode": "US",
        "subnational1Code": "US-WV",
        "subnational2Code": "US-WV-061",
        "lat": 39.6076389,
        "lng": -79.9206877,
        "latestObsDt": "2023-06-22 09:54",
        "numSpeciesAllTime": 75
    },
    {
        "locId": "L892990",
        "locName": "Deegan & Hinkle Lakes Park",
        "countryCode": "US",
        "subnational1Code": "US-WV",
        "subnational2Code": "US-WV-033",
        "lat": 39.2664038,
        "lng": -80.2455501,
        "latestObsDt": "2024-02-10 08:30",
        "numSpeciesAllTime": 154
    },
    {
        "locId": "L2827850",
        "locName": "Dents Run Bridge",
        "countryCode": "US",
        "subnational1Code": "US-WV",
        "subnational2Code": "US-WV-061",
        "lat": 39.6241024,
        "lng": -80.0407648,
        "latestObsDt": "2024-02-04 09:09",
        "numSpeciesAllTime": 74
    },
    {
        "locId": "L966680",
        "locName": "Dericks Creek Rd.",
        "countryCode": "US",
        "subnational1Code": "US-WV",
        "subnational2Code": "US-WV-039",
        "lat": 38.5203863,
        "lng": -81.6601753,
        "latestObsDt": "2023-04-19 15:24",
        "numSpeciesAllTime": 68
    },
    {
        "locId": "L9033357",
        "locName": "Doddridge County Park",
        "countryCode": "US",
        "subnational1Code": "US-WV",
        "subnational2Code": "US-WV-017",
        "lat": 39.2729272,
        "lng": -80.733911,
        "latestObsDt": "2024-02-08 11:45",
        "numSpeciesAllTime": 93
    },
    {
        "locId": "L144531",
        "locName": "Dolly Sods Wilderness--Allegheny Front Banding Station (inactive)",
        "countryCode": "US",
        "subnational1Code": "US-WV",
        "subnational2Code": "US-WV-093",
        "lat": 39.0630531,
        "lng": -79.3199997,
        "latestObsDt": "2023-07-04 09:23",
        "numSpeciesAllTime": 131
    },
    {
        "locId": "L728887",
        "locName": "Dolly Sods Wilderness--Bear Rocks Preserve",
        "countryCode": "US",
        "subnational1Code": "US-WV",
        "subnational2Code": "US-WV-093",
        "lat": 39.0661143,
        "lng": -79.3013763,
        "latestObsDt": "2023-11-25 08:19",
        "numSpeciesAllTime": 131
    },
    {
        "locId": "L781879",
        "locName": "Dolly Sods Wilderness--Bear Rocks Trail",
        "countryCode": "US",
        "subnational1Code": "US-WV",
        "subnational2Code": "US-WV-093",
        "lat": 39.0633153,
        "lng": -79.3049812,
        "latestObsDt": "2023-10-10 13:30",
        "numSpeciesAllTime": 109
    },
    {
        "locId": "L728661",
        "locName": "Dolly Sods Wilderness--Beaver Dam Trail",
        "countryCode": "US",
        "subnational1Code": "US-WV",
        "subnational2Code": "US-WV-093",
        "lat": 39.0538513,
        "lng": -79.3104744,
        "latestObsDt": "2023-10-01 09:09",
        "numSpeciesAllTime": 98
    },
    {
        "locId": "L7685181",
        "locName": "Dolly Sods Wilderness--Blackbird Knob Trail",
        "countryCode": "US",
        "subnational1Code": "US-WV",
        "subnational2Code": "US-WV-093",
        "lat": 39.0330194,
        "lng": -79.3305588,
        "latestObsDt": "2023-11-20 06:01",
        "numSpeciesAllTime": 111
    },
    {
        "locId": "L144529",
        "locName": "Dolly Sods Wilderness--Eagle's Nest",
        "countryCode": "US",
        "subnational1Code": "US-WV",
        "subnational2Code": "US-WV-093",
        "lat": 39.085556,
        "lng": -79.3547211,
        "latestObsDt": "2023-08-05 17:22",
        "numSpeciesAllTime": 39
    },
    {
        "locId": "L728650",
        "locName": "Dolly Sods Wilderness--FR 75 (north of FR 19)",
        "countryCode": "US",
        "subnational1Code": "US-WV",
        "subnational2Code": "US-WV-093",
        "lat": 38.968485,
        "lng": -79.3427467,
        "latestObsDt": "2023-08-01 13:03",
        "numSpeciesAllTime": 110
    },
    {
        "locId": "L728651",
        "locName": "Dolly Sods Wilderness--FR 75 South Scenic Overlook",
        "countryCode": "US",
        "subnational1Code": "US-WV",
        "subnational2Code": "US-WV-093",
        "lat": 39.0002426,
        "lng": -79.3264389,
        "latestObsDt": "2023-10-08 12:18",
        "numSpeciesAllTime": 69
    },
    {
        "locId": "L11952771",
        "locName": "Dolly Sods Wilderness--Red Creek Trail",
        "countryCode": "US",
        "subnational1Code": "US-WV",
        "subnational2Code": "US-WV-093",
        "lat": 38.9727351,
        "lng": -79.3978608,
        "latestObsDt": "2023-09-03 13:00",
        "numSpeciesAllTime": 71
    },
    {
        "locId": "L4491818",
        "locName": "Dolly Sods Wilderness--Rohrbaugh Plains Trail",
        "countryCode": "US",
        "subnational1Code": "US-WV",
        "subnational2Code": "US-WV-093",
        "lat": 38.9876992,
        "lng": -79.3305244,
        "latestObsDt": "2023-09-22 12:30",
        "numSpeciesAllTime": 80
    },
    {
        "locId": "L728656",
        "locName": "Dolly Sods Wilderness--Wildlife Trail",
        "countryCode": "US",
        "subnational1Code": "US-WV",
        "subnational2Code": "US-WV-093",
        "lat": 39.0277188,
        "lng": -79.3169975,
        "latestObsDt": "2023-10-12 09:17",
        "numSpeciesAllTime": 102
    },
    {
        "locId": "L728642",
        "locName": "Dolly Sods--South Prong Trail",
        "countryCode": "US",
        "subnational1Code": "US-WV",
        "subnational2Code": "US-WV-083",
        "lat": 38.9600762,
        "lng": -79.3540764,
        "latestObsDt": "2023-09-30 11:44",
        "numSpeciesAllTime": 83
    },
    {
        "locId": "L723574",
        "locName": "Dorsey's Knob Park",
        "countryCode": "US",
        "subnational1Code": "US-WV",
        "subnational2Code": "US-WV-061",
        "lat": 39.5987444,
        "lng": -79.9585819,
        "latestObsDt": "2024-01-19 14:00",
        "numSpeciesAllTime": 152
    },
    {
        "locId": "L3770484",
        "locName": "Droop Mountain Battlefield State Park WV",
        "countryCode": "US",
        "subnational1Code": "US-WV",
        "subnational2Code": "US-WV-075",
        "lat": 38.108212,
        "lng": -80.272895,
        "latestObsDt": "2023-07-13 09:08",
        "numSpeciesAllTime": 81
    },
    {
        "locId": "L15042272",
        "locName": "Dry Hill-Prosperity Community Park",
        "countryCode": "US",
        "subnational1Code": "US-WV",
        "subnational2Code": "US-WV-081",
        "lat": 37.8203451,
        "lng": -81.2131289,
        "latestObsDt": "2024-02-05 09:52",
        "numSpeciesAllTime": 29
    },
    {
        "locId": "L5762622",
        "locName": "EA Hawse Heath Center--Nature Trail",
        "countryCode": "US",
        "subnational1Code": "US-WV",
        "subnational2Code": "US-WV-031",
        "lat": 39.0472608,
        "lng": -78.7332898,
        "latestObsDt": "2023-07-30 15:58",
        "numSpeciesAllTime": 47
    },
    {
        "locId": "L3158638",
        "locName": "Earle Rd. Pond",
        "countryCode": "US",
        "subnational1Code": "US-WV",
        "subnational2Code": "US-WV-037",
        "lat": 39.3023128,
        "lng": -77.9188585,
        "latestObsDt": "2019-03-30 15:40",
        "numSpeciesAllTime": 28
    },
    {
        "locId": "L4442202",
        "locName": "East Lynn Lake--Dam Area",
        "countryCode": "US",
        "subnational1Code": "US-WV",
        "subnational2Code": "US-WV-099",
        "lat": 38.1443282,
        "lng": -82.3830628,
        "latestObsDt": "2019-04-19 15:30",
        "numSpeciesAllTime": 49
    },
    {
        "locId": "L4442209",
        "locName": "East Lynn Lake--Marina Area",
        "countryCode": "US",
        "subnational1Code": "US-WV",
        "subnational2Code": "US-WV-099",
        "lat": 38.1284297,
        "lng": -82.3762393,
        "latestObsDt": "2016-03-31 15:04",
        "numSpeciesAllTime": 2
    },
    {
        "locId": "L6254664",
        "locName": "East River Mountain Overlook",
        "countryCode": "US",
        "subnational1Code": "US-WV",
        "subnational2Code": "US-WV-055",
        "lat": 37.2547418,
        "lng": -81.1845811,
        "latestObsDt": "2023-11-24 10:04",
        "numSpeciesAllTime": 80
    },
    {
        "locId": "L9040027",
        "locName": "Echo Park",
        "countryCode": "US",
        "subnational1Code": "US-WV",
        "subnational2Code": "US-WV-023",
        "lat": 38.989017,
        "lng": -79.221321,
        "latestObsDt": "2023-07-22 06:58",
        "numSpeciesAllTime": 48
    },
    {
        "locId": "L1591118",
        "locName": "Edwards Run WMA",
        "countryCode": "US",
        "subnational1Code": "US-WV",
        "subnational2Code": "US-WV-027",
        "lat": 39.318457,
        "lng": -78.4460638,
        "latestObsDt": "2023-10-13 09:35",
        "numSpeciesAllTime": 124
    },
    {
        "locId": "L1275495",
        "locName": "Eidolon Nature Preserve",
        "countryCode": "US",
        "subnational1Code": "US-WV",
        "subnational2Code": "US-WV-065",
        "lat": 39.6106197,
        "lng": -78.352093,
        "latestObsDt": "2023-10-05 09:35",
        "numSpeciesAllTime": 120
    },
    {
        "locId": "L17242181",
        "locName": "Eleanor Park",
        "countryCode": "US",
        "subnational1Code": "US-WV",
        "subnational2Code": "US-WV-079",
        "lat": 38.5404664,
        "lng": -81.9271946,
        "latestObsDt": "2024-02-18 13:27",
        "numSpeciesAllTime": 49
    },
    {
        "locId": "L16823354",
        "locName": "Elk River Trail--Cruickshank Bridge Access",
        "countryCode": "US",
        "subnational1Code": "US-WV",
        "subnational2Code": "US-WV-015",
        "lat": 38.535659,
        "lng": -81.0345557,
        "latestObsDt": "2023-11-03 10:27",
        "numSpeciesAllTime": 37
    },
    {
        "locId": "L16823355",
        "locName": "Elk River Trail--Dundon",
        "countryCode": "US",
        "subnational1Code": "US-WV",
        "subnational2Code": "US-WV-015",
        "lat": 38.4620563,
        "lng": -81.0717496,
        "latestObsDt": "2021-11-05 13:37",
        "numSpeciesAllTime": 10
    },
    {
        "locId": "L16823368",
        "locName": "Elk River Trail--Hartland Bridge Access",
        "countryCode": "US",
        "subnational1Code": "US-WV",
        "subnational2Code": "US-WV-015",
        "lat": 38.4308391,
        "lng": -81.1137101,
        "latestObsDt": "2023-11-14 08:30",
        "numSpeciesAllTime": 53
    },
    {
        "locId": "L1059712",
        "locName": "Elkins City Park",
        "countryCode": "US",
        "subnational1Code": "US-WV",
        "subnational2Code": "US-WV-083",
        "lat": 38.9274659,
        "lng": -79.8467016,
        "latestObsDt": "2023-03-05 12:54",
        "numSpeciesAllTime": 65
    },
    {
        "locId": "L18226967",
        "locName": "Emerson Stover Scenic Overlook",
        "countryCode": "US",
        "subnational1Code": "US-WV",
        "subnational2Code": "US-WV-081",
        "lat": 37.7835223,
        "lng": -81.4557096,
        "latestObsDt": "2022-06-03 09:00",
        "numSpeciesAllTime": 30
    },
    {
        "locId": "L7102390",
        "locName": "Emma Kaufmann Camp",
        "countryCode": "US",
        "subnational1Code": "US-WV",
        "subnational2Code": "US-WV-061",
        "lat": 39.7026608,
        "lng": -79.8726779,
        "latestObsDt": "2019-08-05 06:59",
        "numSpeciesAllTime": 66
    },
    {
        "locId": "L11284631",
        "locName": "Erma Byrd Higher Education Center",
        "countryCode": "US",
        "subnational1Code": "US-WV",
        "subnational2Code": "US-WV-081",
        "lat": 37.7666997,
        "lng": -81.1359877,
        "latestObsDt": "2023-08-13 19:04",
        "numSpeciesAllTime": 44
    },
    {
        "locId": "L1018814",
        "locName": "Fairfax Pond-Rehe WMA",
        "countryCode": "US",
        "subnational1Code": "US-WV",
        "subnational2Code": "US-WV-077",
        "lat": 39.4944374,
        "lng": -79.8009968,
        "latestObsDt": "2024-02-25 10:12",
        "numSpeciesAllTime": 208
    },
    {
        "locId": "L1133117",
        "locName": "Fairfax Stone SP",
        "countryCode": "US",
        "subnational1Code": "US-WV",
        "subnational2Code": "US-WV-077",
        "lat": 39.194946,
        "lng": -79.4871783,
        "latestObsDt": "2023-06-21 10:09",
        "numSpeciesAllTime": 95
    },
    {
        "locId": "L9871288",
        "locName": "Falling Run Greenspace",
        "countryCode": "US",
        "subnational1Code": "US-WV",
        "subnational2Code": "US-WV-061",
        "lat": 39.6413335,
        "lng": -79.9432855,
        "latestObsDt": "2023-05-26 18:15",
        "numSpeciesAllTime": 63
    },
    {
        "locId": "L2157664",
        "locName": "Fayette Co. 4-H Park",
        "countryCode": "US",
        "subnational1Code": "US-WV",
        "subnational2Code": "US-WV-019",
        "lat": 38.07825,
        "lng": -81.15556,
        "latestObsDt": "2023-05-28 12:00",
        "numSpeciesAllTime": 77
    },
    {
        "locId": "L4875346",
        "locName": "Fayetteville Town Park",
        "countryCode": "US",
        "subnational1Code": "US-WV",
        "subnational2Code": "US-WV-019",
        "lat": 38.0573716,
        "lng": -81.0942668,
        "latestObsDt": "2023-05-16 12:06",
        "numSpeciesAllTime": 85
    },
    {
        "locId": "L1538873",
        "locName": "Fernow Experimental Forest",
        "countryCode": "US",
        "subnational1Code": "US-WV",
        "subnational2Code": "US-WV-093",
        "lat": 39.0614236,
        "lng": -79.6676031,
        "latestObsDt": "2023-11-18 13:09",
        "numSpeciesAllTime": 105
    },
    {
        "locId": "L7449152",
        "locName": "Fitzpatrick Park",
        "countryCode": "US",
        "subnational1Code": "US-WV",
        "subnational2Code": "US-WV-081",
        "lat": 37.743337,
        "lng": -81.194721,
        "latestObsDt": "2023-12-17 15:51",
        "numSpeciesAllTime": 110
    },
    {
        "locId": "L1341120",
        "locName": "Flowing Springs Park (proposed)",
        "countryCode": "US",
        "subnational1Code": "US-WV",
        "subnational2Code": "US-WV-037",
        "lat": 39.3103728,
        "lng": -77.8386353,
        "latestObsDt": "2022-12-17 12:54",
        "numSpeciesAllTime": 91
    },
    {
        "locId": "L4949885",
        "locName": "Forks of Coal State Natural Area (North)",
        "countryCode": "US",
        "subnational1Code": "US-WV",
        "subnational2Code": "US-WV-039",
        "lat": 38.2673335,
        "lng": -81.7949322,
        "latestObsDt": "2024-02-09 15:55",
        "numSpeciesAllTime": 92
    },
    {
        "locId": "L4945245",
        "locName": "Fort Ashby Lake",
        "countryCode": "US",
        "subnational1Code": "US-WV",
        "subnational2Code": "US-WV-057",
        "lat": 39.4829436,
        "lng": -78.7593364,
        "latestObsDt": "2023-08-20 14:02",
        "numSpeciesAllTime": 55
    },
    {
        "locId": "L12733135",
        "locName": "Fort Ashby WTP",
        "countryCode": "US",
        "subnational1Code": "US-WV",
        "subnational2Code": "US-WV-057",
        "lat": 39.512768,
        "lng": -78.763606,
        "latestObsDt": "2023-12-26 10:25",
        "numSpeciesAllTime": 126
    },
    {
        "locId": "L10839928",
        "locName": "Fort Boreman Historical Park",
        "countryCode": "US",
        "subnational1Code": "US-WV",
        "subnational2Code": "US-WV-107",
        "lat": 39.2622658,
        "lng": -81.569406,
        "latestObsDt": "2024-02-23 06:34",
        "numSpeciesAllTime": 88
    },
    {
        "locId": "L8151289",
        "locName": "Fort Edwards Foundation",
        "countryCode": "US",
        "subnational1Code": "US-WV",
        "subnational2Code": "US-WV-027",
        "lat": 39.3032703,
        "lng": -78.4338064,
        "latestObsDt": "2023-10-13 11:20",
        "numSpeciesAllTime": 77
    },
    {
        "locId": "L3512936",
        "locName": "Fort Mill Ridge WMA",
        "countryCode": "US",
        "subnational1Code": "US-WV",
        "subnational2Code": "US-WV-027",
        "lat": 39.3224506,
        "lng": -78.791537,
        "latestObsDt": "2024-02-21 10:25",
        "numSpeciesAllTime": 75
    },
    {
        "locId": "L15530371",
        "locName": "Fort Mulligan",
        "countryCode": "US",
        "subnational1Code": "US-WV",
        "subnational2Code": "US-WV-023",
        "lat": 39.0015074,
        "lng": -79.1390356,
        "latestObsDt": "2021-07-12 14:56",
        "numSpeciesAllTime": 14
    },
    {
        "locId": "L1273502",
        "locName": "Franklin WTP",
        "countryCode": "US",
        "subnational1Code": "US-WV",
        "subnational2Code": "US-WV-071",
        "lat": 38.6456681,
        "lng": -79.3244219,
        "latestObsDt": "2024-02-12 11:11",
        "numSpeciesAllTime": 118
    },
    {
        "locId": "L5830931",
        "locName": "Franklin Water Tower",
        "countryCode": "US",
        "subnational1Code": "US-WV",
        "subnational2Code": "US-WV-071",
        "lat": 38.6493062,
        "lng": -79.3405746,
        "latestObsDt": "2023-07-17 08:28",
        "numSpeciesAllTime": 89
    },
    {
        "locId": "L6930024",
        "locName": "Franklin--Low Water Bridge",
        "countryCode": "US",
        "subnational1Code": "US-WV",
        "subnational2Code": "US-WV-071",
        "lat": 38.6393894,
        "lng": -79.3317926,
        "latestObsDt": "2024-02-21 13:03",
        "numSpeciesAllTime": 113
    },
    {
        "locId": "L4090057",
        "locName": "Franklintown Rd.",
        "countryCode": "US",
        "subnational1Code": "US-WV",
        "subnational2Code": "US-WV-037",
        "lat": 39.213706,
        "lng": -77.9315246,
        "latestObsDt": "2022-05-27 18:30",
        "numSpeciesAllTime": 41
    },
    {
        "locId": "L1279341",
        "locName": "Fred Long Centennial Park",
        "countryCode": "US",
        "subnational1Code": "US-WV",
        "subnational2Code": "US-WV-093",
        "lat": 39.1468115,
        "lng": -79.5747256,
        "latestObsDt": "2023-10-08 11:53",
        "numSpeciesAllTime": 45
    },
    {
        "locId": "L21738875",
        "locName": "Freeport Cemetery",
        "countryCode": "US",
        "subnational1Code": "US-WV",
        "subnational2Code": "US-WV-105",
        "lat": 39.139503,
        "lng": -81.329582,
        "latestObsDt": "2023-07-27 12:55",
        "numSpeciesAllTime": 24
    },
    {
        "locId": "L1066233",
        "locName": "French Creek Public Access Area",
        "countryCode": "US",
        "subnational1Code": "US-WV",
        "subnational2Code": "US-WV-073",
        "lat": 39.3825439,
        "lng": -81.2506771,
        "latestObsDt": "2024-02-25 17:04",
        "numSpeciesAllTime": 135
    },
    {
        "locId": "L14977691",
        "locName": "Friends of the Cheat Campground",
        "countryCode": "US",
        "subnational1Code": "US-WV",
        "subnational2Code": "US-WV-077",
        "lat": 39.5116365,
        "lng": -79.6454434,
        "latestObsDt": "2023-05-30 07:13",
        "numSpeciesAllTime": 74
    },
    {
        "locId": "L16642228",
        "locName": "Frozen Camp WMA",
        "countryCode": "US",
        "subnational1Code": "US-WV",
        "subnational2Code": "US-WV-035",
        "lat": 38.7946171,
        "lng": -81.5448511,
        "latestObsDt": "2023-12-24 07:15",
        "numSpeciesAllTime": 122
    },
    {
        "locId": "L749798",
        "locName": "GWNF-Hardy1",
        "countryCode": "US",
        "subnational1Code": "US-WV",
        "subnational2Code": "US-WV-031",
        "lat": 38.9933,
        "lng": -78.595,
        "latestObsDt": "2023-05-27 12:26",
        "numSpeciesAllTime": 73
    },
    {
        "locId": "L5606883",
        "locName": "Gallipolis Ferry",
        "countryCode": "US",
        "subnational1Code": "US-WV",
        "subnational2Code": "US-WV-053",
        "lat": 38.7781,
        "lng": -82.2049,
        "latestObsDt": "2024-02-26 12:00",
        "numSpeciesAllTime": 172
    },
    {
        "locId": "L728391",
        "locName": "Gaudineer Knob",
        "countryCode": "US",
        "subnational1Code": "US-WV",
        "subnational2Code": "US-WV-083",
        "lat": 38.615391,
        "lng": -79.844228,
        "latestObsDt": "2023-06-20 17:49",
        "numSpeciesAllTime": 112
    },
    {
        "locId": "L4869786",
        "locName": "Gaudineer Scenic Area - Loop Trail",
        "countryCode": "US",
        "subnational1Code": "US-WV",
        "subnational2Code": "US-WV-075",
        "lat": 38.6292927,
        "lng": -79.8434293,
        "latestObsDt": "2023-11-19 11:38",
        "numSpeciesAllTime": 43
    },
    {
        "locId": "L279089",
        "locName": "Gauley Bridge",
        "countryCode": "US",
        "subnational1Code": "US-WV",
        "subnational2Code": "US-WV-019",
        "lat": 38.1604,
        "lng": -81.205,
        "latestObsDt": "2024-02-12 10:16",
        "numSpeciesAllTime": 142
    },
    {
        "locId": "L2841091",
        "locName": "Gauley Mountain-Mine Rd.",
        "countryCode": "US",
        "subnational1Code": "US-WV",
        "subnational2Code": "US-WV-075",
        "lat": 38.3953521,
        "lng": -80.1588786,
        "latestObsDt": "2023-04-02 14:44",
        "numSpeciesAllTime": 60
    },
    {
        "locId": "L6662336",
        "locName": "Gauley River--Upper Gauley River Put-In",
        "countryCode": "US",
        "subnational1Code": "US-WV",
        "subnational2Code": "US-WV-067",
        "lat": 38.2164017,
        "lng": -80.8898664,
        "latestObsDt": "2023-09-30 07:30",
        "numSpeciesAllTime": 48
    },
    {
        "locId": "L11585138",
        "locName": "General John McCausland Memorial Farm",
        "countryCode": "US",
        "subnational1Code": "US-WV",
        "subnational2Code": "US-WV-053",
        "lat": 38.7829521,
        "lng": -82.0450265,
        "latestObsDt": "2024-02-02 07:48",
        "numSpeciesAllTime": 100
    },
    {
        "locId": "L3438636",
        "locName": "George Washington NF--Brandywine Recreation Area",
        "countryCode": "US",
        "subnational1Code": "US-WV",
        "subnational2Code": "US-WV-071",
        "lat": 38.5996721,
        "lng": -79.1996254,
        "latestObsDt": "2024-01-12 12:55",
        "numSpeciesAllTime": 101
    },
    {
        "locId": "L20403782",
        "locName": "George Washington NF--Halfmoon Mountain Summit",
        "countryCode": "US",
        "subnational1Code": "US-WV",
        "subnational2Code": "US-WV-031",
        "lat": 39.002571,
        "lng": -78.632015,
        "latestObsDt": "2024-02-25 09:37",
        "numSpeciesAllTime": 26
    },
    {
        "locId": "L5755361",
        "locName": "George Washington NF--High Knob Trail",
        "countryCode": "US",
        "subnational1Code": "US-WV",
        "subnational2Code": "US-WV-071",
        "lat": 38.5795891,
        "lng": -79.1691045,
        "latestObsDt": "2023-12-09 13:12",
        "numSpeciesAllTime": 69
    },
    {
        "locId": "L10340266",
        "locName": "Gilmer County Recreation Center",
        "countryCode": "US",
        "subnational1Code": "US-WV",
        "subnational2Code": "US-WV-021",
        "lat": 38.9514849,
        "lng": -80.8300343,
        "latestObsDt": "2023-04-03 13:05",
        "numSpeciesAllTime": 44
    },
    {
        "locId": "L23372887",
        "locName": "Gilmer County Recreation Center--Trail #2",
        "countryCode": "US",
        "subnational1Code": "US-WV",
        "subnational2Code": "US-WV-021",
        "lat": 38.9546191,
        "lng": -80.8311373,
        "latestObsDt": "2023-04-04 15:35",
        "numSpeciesAllTime": 14
    },