[
    {
        "locId": "L2936984",
        "locName": "14 Mile Reservoir",
        "countryCode": "US",
        "subnational1Code": "US-WY",
        "subnational2Code": "US-WY-037",
        "lat": 41.7461495,
        "lng": -109.3064976,
        "latestObsDt": "2023-09-25 17:41",
        "numSpeciesAllTime": 90
    },
    {
        "locId": "L10220014",
        "locName": "33 Mile Rd--Hwy 26 to Natrona CR 122",
        "countryCode": "US",
        "subnational1Code": "US-WY",
        "subnational2Code": "US-WY-025",
        "lat": 42.9618408,
        "lng": -106.5134272,
        "latestObsDt": "2023-09-06 17:50",
        "numSpeciesAllTime": 98
    },
    {
        "locId": "L11054099",
        "locName": "Albin (town)",
        "countryCode": "US",
        "subnational1Code": "US-WY",
        "subnational2Code": "US-WY-021",
        "lat": 41.418597,
        "lng": -104.100747,
        "latestObsDt": "2024-02-13 14:07",
        "numSpeciesAllTime": 45
    },
    {
        "locId": "L4091376",
        "locName": "Alcova Dam area",
        "countryCode": "US",
        "subnational1Code": "US-WY",
        "subnational2Code": "US-WY-025",
        "lat": 42.55007,
        "lng": -106.7176938,
        "latestObsDt": "2023-11-04 17:11",
        "numSpeciesAllTime": 117
    },
    {
        "locId": "L7145407",
        "locName": "Alcova Reservoir",
        "countryCode": "US",
        "subnational1Code": "US-WY",
        "subnational2Code": "US-WY-025",
        "lat": 42.5346014,
        "lng": -106.7462969,
        "latestObsDt": "2023-12-06 11:00",
        "numSpeciesAllTime": 100
    },
    {
        "locId": "L9551185",
        "locName": "Alsop Lake",
        "countryCode": "US",
        "subnational1Code": "US-WY",
        "subnational2Code": "US-WY-001",
        "lat": 41.3937405,
        "lng": -105.7882591,
        "latestObsDt": "2023-11-10 13:12",
        "numSpeciesAllTime": 99
    },
    {
        "locId": "L9799136",
        "locName": "American Legion Park",
        "countryCode": "US",
        "subnational1Code": "US-WY",
        "subnational2Code": "US-WY-035",
        "lat": 42.867314,
        "lng": -109.868476,
        "latestObsDt": "2023-12-31 12:12",
        "numSpeciesAllTime": 82
    },
    {
        "locId": "L3500553",
        "locName": "Amsden Creek Road",
        "countryCode": "US",
        "subnational1Code": "US-WY",
        "subnational2Code": "US-WY-033",
        "lat": 44.8662839,
        "lng": -107.301954,
        "latestObsDt": "2023-05-13 18:00",
        "numSpeciesAllTime": 64
    },
    {
        "locId": "L27448108",
        "locName": "Antelope Reservoir",
        "countryCode": "US",
        "subnational1Code": "US-WY",
        "subnational2Code": "US-WY-007",
        "lat": 42.2472128,
        "lng": -106.2603554,
        "latestObsDt": "2023-10-07 18:15",
        "numSpeciesAllTime": 8
    },
    {
        "locId": "L16366716",
        "locName": "Astoria Hot Springs",
        "countryCode": "US",
        "subnational1Code": "US-WY",
        "subnational2Code": "US-WY-039",
        "lat": 43.300368,
        "lng": -110.776258,
        "latestObsDt": "2024-02-23 12:43",
        "numSpeciesAllTime": 54
    },
    {
        "locId": "L3068498",
        "locName": "Audubon Camp in the West - Torrey Creek",
        "countryCode": "US",
        "subnational1Code": "US-WY",
        "subnational2Code": "US-WY-013",
        "lat": 43.4289999,
        "lng": -109.5512116,
        "latestObsDt": "2024-02-19 12:38",
        "numSpeciesAllTime": 103
    },
    {
        "locId": "L1466560",
        "locName": "Ayres Natural Bridge Park",
        "countryCode": "US",
        "subnational1Code": "US-WY",
        "subnational2Code": "US-WY-009",
        "lat": 42.7337515,
        "lng": -105.6114082,
        "latestObsDt": "2023-10-14 16:51",
        "numSpeciesAllTime": 132
    },
    {
        "locId": "L18340626",
        "locName": "Baggot Rocks",
        "countryCode": "US",
        "subnational1Code": "US-WY",
        "subnational2Code": "US-WY-007",
        "lat": 41.2792438,
        "lng": -106.7400853,
        "latestObsDt": "2024-02-18 12:59",
        "numSpeciesAllTime": 62
    },
    {
        "locId": "L7204290",
        "locName": "Baggs (town)",
        "countryCode": "US",
        "subnational1Code": "US-WY",
        "subnational2Code": "US-WY-007",
        "lat": 41.0364922,
        "lng": -107.6581192,
        "latestObsDt": "2023-09-10 11:00",
        "numSpeciesAllTime": 77
    },
    {
        "locId": "L9546592",
        "locName": "Bamforth NWR--Carroll Lake Rd",
        "countryCode": "US",
        "subnational1Code": "US-WY",
        "subnational2Code": "US-WY-001",
        "lat": 41.4063804,
        "lng": -105.7672216,
        "latestObsDt": "2023-07-26 10:36",
        "numSpeciesAllTime": 73
    },
    {
        "locId": "L4748775",
        "locName": "Barber Lake",
        "countryCode": "US",
        "subnational1Code": "US-WY",
        "subnational2Code": "US-WY-001",
        "lat": 41.323687,
        "lng": -106.176039,
        "latestObsDt": "2023-09-16 06:45",
        "numSpeciesAllTime": 47
    },
    {
        "locId": "L2994059",
        "locName": "Bear Creek",
        "countryCode": "US",
        "subnational1Code": "US-WY",
        "subnational2Code": "US-WY-013",
        "lat": 43.5865164,
        "lng": -109.4569175,
        "latestObsDt": "2021-09-05 15:49",
        "numSpeciesAllTime": 12
    },
    {
        "locId": "L421352",
        "locName": "Bear River SP",
        "countryCode": "US",
        "subnational1Code": "US-WY",
        "subnational2Code": "US-WY-041",
        "lat": 41.2645174,
        "lng": -110.9361005,
        "latestObsDt": "2024-02-15 17:47",
        "numSpeciesAllTime": 145
    },
    {
        "locId": "L9665199",
        "locName": "Beartooth Hwy--Beartooth Basin Summer Ski Area",
        "countryCode": "US",
        "subnational1Code": "US-WY",
        "subnational2Code": "US-WY-029",
        "lat": 44.9750671,
        "lng": -109.4345468,
        "latestObsDt": "2023-09-08 11:15",
        "numSpeciesAllTime": 21
    },
    {
        "locId": "L299774",
        "locName": "Beartooth Hwy--Beartooth Lake & Campground",
        "countryCode": "US",
        "subnational1Code": "US-WY",
        "subnational2Code": "US-WY-029",
        "lat": 44.9448266,
        "lng": -109.5922172,
        "latestObsDt": "2023-09-19 08:45",
        "numSpeciesAllTime": 65
    },
    {
        "locId": "L299776",
        "locName": "Beartooth Hwy--Beartooth Pass",
        "countryCode": "US",
        "subnational1Code": "US-WY",
        "subnational2Code": "US-WY-029",
        "lat": 44.9686063,
        "lng": -109.4740777,
        "latestObsDt": "2023-09-29 12:54",
        "numSpeciesAllTime": 98
    },
    {
        "locId": "L6210130",
        "locName": "Beartooth Hwy--Gardner Lake & Trail",
        "countryCode": "US",
        "subnational1Code": "US-WY",
        "subnational2Code": "US-WY-029",
        "lat": 44.9727756,
        "lng": -109.4518679,
        "latestObsDt": "2023-09-08 11:06",
        "numSpeciesAllTime": 40
    },
    {
        "locId": "L3757405",
        "locName": "Beartooth Hwy--Twin Lakes area",
        "countryCode": "US",
        "subnational1Code": "US-WY",
        "subnational2Code": "US-WY-029",
        "lat": 44.984402,
        "lng": -109.427212,
        "latestObsDt": "2023-08-20 08:00",
        "numSpeciesAllTime": 37
    },
    {
        "locId": "L6210112",
        "locName": "Beartooth Hwy--state line pullout",
        "countryCode": "US",
        "subnational1Code": "US-WY",
        "subnational2Code": "US-WY-029",
        "lat": 45.0029706,
        "lng": -109.4144388,
        "latestObsDt": "2023-09-15 13:16",
        "numSpeciesAllTime": 25
    },
    {
        "locId": "L28157212",
        "locName": "Beaver Cr Cutoff Cottonwood grove",
        "countryCode": "US",
        "subnational1Code": "US-WY",
        "subnational2Code": "US-WY-045",
        "lat": 43.8585854,
        "lng": -104.1103166,
        "latestObsDt": "2024-02-11 11:50",
        "numSpeciesAllTime": 21
    },
    {
        "locId": "L421073",
        "locName": "Beck & Alkali Lakes",
        "countryCode": "US",
        "subnational1Code": "US-WY",
        "subnational2Code": "US-WY-029",
        "lat": 44.5096973,
        "lng": -109.0376973,
        "latestObsDt": "2024-02-25 18:10",
        "numSpeciesAllTime": 177
    },
    {
        "locId": "L2957278",
        "locName": "Belus Road",
        "countryCode": "US",
        "subnational1Code": "US-WY",
        "subnational2Code": "US-WY-019",
        "lat": 44.5385971,
        "lng": -106.6336441,
        "latestObsDt": "2021-07-13 00:00",
        "numSpeciesAllTime": 49
    },
    {
        "locId": "L16672804",
        "locName": "Bennett Peak CG",
        "countryCode": "US",
        "subnational1Code": "US-WY",
        "subnational2Code": "US-WY-007",
        "lat": 41.2709647,
        "lng": -106.5904686,
        "latestObsDt": "2023-10-08 08:21",
        "numSpeciesAllTime": 57
    },
    {
        "locId": "L16271311",
        "locName": "Bessemer Bend NHS",
        "countryCode": "US",
        "subnational1Code": "US-WY",
        "subnational2Code": "US-WY-025",
        "lat": 42.7740148,
        "lng": -106.5305614,
        "latestObsDt": "2024-02-25 09:30",
        "numSpeciesAllTime": 58
    },
    {
        "locId": "L25482702",
        "locName": "Bicentennial Park (Eden)",
        "countryCode": "US",
        "subnational1Code": "US-WY",
        "subnational2Code": "US-WY-037",
        "lat": 42.054446,
        "lng": -109.437369,
        "latestObsDt": "2024-01-13 15:48",
        "numSpeciesAllTime": 32
    },
    {
        "locId": "L19782860",
        "locName": "Big Game Cpg",
        "countryCode": "US",
        "subnational1Code": "US-WY",
        "subnational2Code": "US-WY-029",
        "lat": 44.4626,
        "lng": -109.60769,
        "latestObsDt": "2023-07-20 00:00",
        "numSpeciesAllTime": 8
    },
    {
        "locId": "L7221630",
        "locName": "Big Gulch Road (Carbon CR 706)",
        "countryCode": "US",
        "subnational1Code": "US-WY",
        "subnational2Code": "US-WY-007",
        "lat": 41.09232,
        "lng": -107.348331,
        "latestObsDt": "2022-05-14 09:03",
        "numSpeciesAllTime": 50
    },
    {
        "locId": "L3222243",
        "locName": "Big Hollow Road",
        "countryCode": "US",
        "subnational1Code": "US-WY",
        "subnational2Code": "US-WY-001",
        "lat": 41.2695495,
        "lng": -105.8652878,
        "latestObsDt": "2023-10-07 15:12",
        "numSpeciesAllTime": 52
    },
    {
        "locId": "L18615577",
        "locName": "Big Muddy Pond",
        "countryCode": "US",
        "subnational1Code": "US-WY",
        "subnational2Code": "US-WY-009",
        "lat": 42.854622,
        "lng": -106.0156044,
        "latestObsDt": "2023-10-18 17:20",
        "numSpeciesAllTime": 42
    },
    {
        "locId": "L14990143",
        "locName": "Big Piney High School Drainage Field",
        "countryCode": "US",
        "subnational1Code": "US-WY",
        "subnational2Code": "US-WY-035",
        "lat": 42.5402522,
        "lng": -110.1250307,
        "latestObsDt": "2023-06-28 17:22",
        "numSpeciesAllTime": 35
    },
    {
        "locId": "L18636256",
        "locName": "Big Piney WTP",
        "countryCode": "US",
        "subnational1Code": "US-WY",
        "subnational2Code": "US-WY-035",
        "lat": 42.5375603,
        "lng": -110.1026969,
        "latestObsDt": "2023-07-17 18:30",
        "numSpeciesAllTime": 30
    },
    {
        "locId": "L26231917",
        "locName": "Big Sandy Lake",
        "countryCode": "US",
        "subnational1Code": "US-WY",
        "subnational2Code": "US-WY-035",
        "lat": 42.7401304,
        "lng": -109.2050376,
        "latestObsDt": "2023-09-24 15:00",
        "numSpeciesAllTime": 31
    },
    {
        "locId": "L9635832",
        "locName": "Big Sandy Reservoir (Sublette County)",
        "countryCode": "US",
        "subnational1Code": "US-WY",
        "subnational2Code": "US-WY-035",
        "lat": 42.2710546,
        "lng": -109.4280364,
        "latestObsDt": "2023-11-12 10:45",
        "numSpeciesAllTime": 128
    },
    {
        "locId": "L2936973",
        "locName": "Big Sandy Reservoir (Sweetwater Co)",
        "countryCode": "US",
        "subnational1Code": "US-WY",
        "subnational2Code": "US-WY-037",
        "lat": 42.2513359,
        "lng": -109.4346171,
        "latestObsDt": "2023-12-22 13:24",
        "numSpeciesAllTime": 126
    },
    {
        "locId": "L9605501",
        "locName": "Big Sandy River, above reservoir",
        "countryCode": "US",
        "subnational1Code": "US-WY",
        "subnational2Code": "US-WY-035",
        "lat": 42.3106136,
        "lng": -109.4782548,
        "latestObsDt": "2023-08-22 11:58",
        "numSpeciesAllTime": 85
    },
    {
        "locId": "L26776240",
        "locName": "Big Sandy Trail--Jackass Pass alpine area",
        "countryCode": "US",
        "subnational1Code": "US-WY",
        "subnational2Code": "US-WY-035",
        "lat": 42.7689027,
        "lng": -109.210957,
        "latestObsDt": "2023-08-24 10:37",
        "numSpeciesAllTime": 3
    },
    {
        "locId": "L16668702",
        "locName": "Bighorn Canyon NRA—Visitor Center",
        "countryCode": "US",
        "subnational1Code": "US-WY",
        "subnational2Code": "US-WY-003",
        "lat": 44.837561,
        "lng": -108.376559,
        "latestObsDt": "2023-04-27 12:03",
        "numSpeciesAllTime": 25
    },
    {
        "locId": "L4716097",
        "locName": "Bighorn Canyon Natural Recreation Area--Horseshoe Bend Campgrounds",
        "countryCode": "US",
        "subnational1Code": "US-WY",
        "subnational2Code": "US-WY-003",
        "lat": 44.9635864,
        "lng": -108.2637945,
        "latestObsDt": "2023-09-02 14:00",
        "numSpeciesAllTime": 65
    },
    {
        "locId": "L4836469",
        "locName": "Bighorn Lake",
        "countryCode": "US",
        "subnational1Code": "US-WY",
        "subnational2Code": "US-WY-003",
        "lat": 44.8780117,
        "lng": -108.183918,
        "latestObsDt": "2023-09-23 15:26",
        "numSpeciesAllTime": 87
    },
    {
        "locId": "L15848053",
        "locName": "Bighorn NF -- Beef Trail",
        "countryCode": "US",
        "subnational1Code": "US-WY",
        "subnational2Code": "US-WY-003",
        "lat": 44.572757,
        "lng": -107.704771,
        "latestObsDt": "2023-06-10 19:48",
        "numSpeciesAllTime": 19
    },
    {
        "locId": "L15677730",
        "locName": "Bighorn NF — Crazy Woman Canyon",
        "countryCode": "US",
        "subnational1Code": "US-WY",
        "subnational2Code": "US-WY-019",
        "lat": 44.1897195,
        "lng": -106.8683076,
        "latestObsDt": "2023-08-12 19:13",
        "numSpeciesAllTime": 39
    },
    {
        "locId": "L15943045",
        "locName": "Bighorn NF — Grouse Mountain Trail",
        "countryCode": "US",
        "subnational1Code": "US-WY",
        "subnational2Code": "US-WY-019",
        "lat": 44.319856,
        "lng": -106.844772,
        "latestObsDt": "2023-03-20 12:15",
        "numSpeciesAllTime": 38
    },
    {
        "locId": "L15584894",
        "locName": "Bighorn NF — James T Saban Tower",
        "countryCode": "US",
        "subnational1Code": "US-WY",
        "subnational2Code": "US-WY-043",
        "lat": 44.151166,
        "lng": -107.201634,
        "latestObsDt": "2022-08-20 10:27",
        "numSpeciesAllTime": 26
    },
    {
        "locId": "L15848096",
        "locName": "Bighorn NF — Owen Creek",
        "countryCode": "US",
        "subnational1Code": "US-WY",
        "subnational2Code": "US-WY-033",
        "lat": 44.705087,
        "lng": -107.500616,
        "latestObsDt": "2023-07-09 19:37",
        "numSpeciesAllTime": 32
    },
    {
        "locId": "L15848065",
        "locName": "Bighorn NF — Post Creek",
        "countryCode": "US",
        "subnational1Code": "US-WY",
        "subnational2Code": "US-WY-003",
        "lat": 44.578912,
        "lng": -107.675061,
        "latestObsDt": "2022-08-21 16:08",
        "numSpeciesAllTime": 18
    },
    {
        "locId": "L15848083",
        "locName": "Bighorn NF — Shell Creek",
        "countryCode": "US",
        "subnational1Code": "US-WY",
        "subnational2Code": "US-WY-003",
        "lat": 44.550894,
        "lng": -107.515903,
        "latestObsDt": "2023-07-08 20:23",
        "numSpeciesAllTime": 31
    },
    {
        "locId": "L20004175",
        "locName": "Bighorn NF--Beaver Creek Overlook",
        "countryCode": "US",
        "subnational1Code": "US-WY",
        "subnational2Code": "US-WY-003",
        "lat": 44.75884,
        "lng": -107.7772844,
        "latestObsDt": "2023-08-06 19:18",
        "numSpeciesAllTime": 26
    },
    {
        "locId": "L4458935",
        "locName": "Bighorn NF--Beaver Lakes Field Station",
        "countryCode": "US",
        "subnational1Code": "US-WY",
        "subnational2Code": "US-WY-019",
        "lat": 44.455389,
        "lng": -107.0947614,
        "latestObsDt": "2023-07-20 09:53",
        "numSpeciesAllTime": 21
    },
    {
        "locId": "L11799345",
        "locName": "Bighorn NF--Boulder Park CG",
        "countryCode": "US",
        "subnational1Code": "US-WY",
        "subnational2Code": "US-WY-043",
        "lat": 44.1637664,
        "lng": -107.2526979,
        "latestObsDt": "2023-08-08 16:02",
        "numSpeciesAllTime": 36
    },
    {
        "locId": "L7745678",
        "locName": "Bighorn NF--Burgess Junction",
        "countryCode": "US",
        "subnational1Code": "US-WY",
        "subnational2Code": "US-WY-033",
        "lat": 44.7698516,
        "lng": -107.5236771,
        "latestObsDt": "2023-10-31 10:45",
        "numSpeciesAllTime": 73
    },
    {
        "locId": "L1451152",
        "locName": "Bighorn NF--Circle Park Campground",
        "countryCode": "US",
        "subnational1Code": "US-WY",
        "subnational2Code": "US-WY-019",
        "lat": 44.2828068,
        "lng": -106.9915002,
        "latestObsDt": "2023-08-11 10:47",
        "numSpeciesAllTime": 68
    },
    {
        "locId": "L12087578",
        "locName": "Bighorn NF--Circle Park Trailhead to Sherd Lake (FT046)",
        "countryCode": "US",
        "subnational1Code": "US-WY",
        "subnational2Code": "US-WY-019",
        "lat": 44.274472,
        "lng": -106.998768,
        "latestObsDt": "2023-05-28 09:52",
        "numSpeciesAllTime": 47
    },
    {
        "locId": "L1451145",
        "locName": "Bighorn NF--Dead Swede Campground",
        "countryCode": "US",
        "subnational1Code": "US-WY",
        "subnational2Code": "US-WY-033",
        "lat": 44.6895159,
        "lng": -107.4469179,
        "latestObsDt": "2023-09-19 09:00",
        "numSpeciesAllTime": 53
    },
    {
        "locId": "L12087481",
        "locName": "Bighorn NF--Edelman Trailhead",
        "countryCode": "US",
        "subnational1Code": "US-WY",
        "subnational2Code": "US-WY-003",
        "lat": 44.410504,
        "lng": -107.385636,
        "latestObsDt": "2020-08-16 13:53",
        "numSpeciesAllTime": 4
    },
    {
        "locId": "L12045874",
        "locName": "Bighorn NF--Helen Lake",
        "countryCode": "US",
        "subnational1Code": "US-WY",
        "subnational2Code": "US-WY-003",
        "lat": 44.32303,
        "lng": -107.2204219,
        "latestObsDt": "2023-08-26 06:05",
        "numSpeciesAllTime": 23
    },
    {
        "locId": "L4458981",
        "locName": "Bighorn NF--Highland Park",
        "countryCode": "US",
        "subnational1Code": "US-WY",
        "subnational2Code": "US-WY-019",
        "lat": 44.4635827,
        "lng": -107.1463618,
        "latestObsDt": "2015-07-17 13:30",
        "numSpeciesAllTime": 5
    },
    {
        "locId": "L11799333",
        "locName": "Bighorn NF--Lake Angeline",
        "countryCode": "US",
        "subnational1Code": "US-WY",
        "subnational2Code": "US-WY-019",
        "lat": 44.2976486,
        "lng": -107.0866635,
        "latestObsDt": "2022-07-10 05:50",
        "numSpeciesAllTime": 17
    },
    {
        "locId": "L12045560",
        "locName": "Bighorn NF--Lake Point Climbing Area--44.15709, -107.23347",
        "countryCode": "US",
        "subnational1Code": "US-WY",
        "subnational2Code": "US-WY-043",
        "lat": 44.157088,
        "lng": -107.233468,
        "latestObsDt": "2023-08-18 15:20",
        "numSpeciesAllTime": 11
    },
    {
        "locId": "L2926653",
        "locName": "Bighorn NF--Meadowlark Lake area",
        "countryCode": "US",
        "subnational1Code": "US-WY",
        "subnational2Code": "US-WY-003",
        "lat": 44.1723549,
        "lng": -107.219696,
        "latestObsDt": "2023-09-13 09:37",
        "numSpeciesAllTime": 96
    },
    {
        "locId": "L1435559",
        "locName": "Bighorn NF--Middle Fork Campground",
        "countryCode": "US",
        "subnational1Code": "US-WY",
        "subnational2Code": "US-WY-019",
        "lat": 44.3016064,
        "lng": -106.9504732,
        "latestObsDt": "2023-06-23 13:59",
        "numSpeciesAllTime": 58
    },
    {
        "locId": "L6140010",
        "locName": "Bighorn NF--Middle Tensleep Creek",
        "countryCode": "US",
        "subnational1Code": "US-WY",
        "subnational2Code": "US-WY-003",
        "lat": 44.2554048,
        "lng": -107.2116923,
        "latestObsDt": "2023-08-18 06:55",
        "numSpeciesAllTime": 31
    },
    {
        "locId": "L26298663",
        "locName": "Bighorn NF--Munkers Pass Road (FR 448)",
        "countryCode": "US",
        "subnational1Code": "US-WY",
        "subnational2Code": "US-WY-019",
        "lat": 44.1460202,
        "lng": -107.0340556,
        "latestObsDt": "2024-01-28 10:51",
        "numSpeciesAllTime": 29
    },
    {
        "locId": "L15451459",
        "locName": "Bighorn NF--North Fork/Hunter Workstation",
        "countryCode": "US",
        "subnational1Code": "US-WY",
        "subnational2Code": "US-WY-019",
        "lat": 44.319887,
        "lng": -106.949697,
        "latestObsDt": "2023-09-09 06:30",
        "numSpeciesAllTime": 35
    },
    {
        "locId": "L1435549",
        "locName": "Bighorn NF--North Tongue Campground",
        "countryCode": "US",
        "subnational1Code": "US-WY",
        "subnational2Code": "US-WY-033",
        "lat": 44.7808814,
        "lng": -107.5336069,
        "latestObsDt": "2023-06-04 16:22",
        "numSpeciesAllTime": 71
    },
    {
        "locId": "L12087612",
        "locName": "Bighorn NF--Old Crow Lake Trail (FT090)",
        "countryCode": "US",
        "subnational1Code": "US-WY",
        "subnational2Code": "US-WY-019",
        "lat": 44.255963,
        "lng": -107.037193
    },
    {
        "locId": "L12087597",
        "locName": "Bighorn NF--Rainy Lake",
        "countryCode": "US",
        "subnational1Code": "US-WY",
        "subnational2Code": "US-WY-019",
        "lat": 44.26799,
        "lng": -107.035525
    },
    {
        "locId": "L27017317",
        "locName": "Bighorn NF--Sheep Mountain Lookout",
        "countryCode": "US",
        "subnational1Code": "US-WY",
        "subnational2Code": "US-WY-019",
        "lat": 44.1912513,
        "lng": -107.0046043,
        "latestObsDt": "2023-09-09 09:40",
        "numSpeciesAllTime": 6
    },
    {
        "locId": "L3561431",
        "locName": "Bighorn NF--Shell Falls Interpretive Site",
        "countryCode": "US",
        "subnational1Code": "US-WY",
        "subnational2Code": "US-WY-003",
        "lat": 44.5866661,
        "lng": -107.6150644,
        "latestObsDt": "2023-09-25 11:19",
        "numSpeciesAllTime": 81
    },
    {
        "locId": "L12087593",
        "locName": "Bighorn NF--Sherd Lake to Rainy Lake (FT046)",
        "countryCode": "US",
        "subnational1Code": "US-WY",
        "subnational2Code": "US-WY-019",
        "lat": 44.268171,
        "lng": -107.024533,
        "latestObsDt": "2021-07-17 16:30",
        "numSpeciesAllTime": 25
    },
    {
        "locId": "L582878",
        "locName": "Bighorn NF--Sibley Lake",
        "countryCode": "US",
        "subnational1Code": "US-WY",
        "subnational2Code": "US-WY-033",
        "lat": 44.7617272,
        "lng": -107.4359894,
        "latestObsDt": "2023-10-09 14:03",
        "numSpeciesAllTime": 124
    },
    {
        "locId": "L1435550",
        "locName": "Bighorn NF--Sitting Bull Campground& Park area",
        "countryCode": "US",
        "subnational1Code": "US-WY",
        "subnational2Code": "US-WY-003",
        "lat": 44.1920419,
        "lng": -107.2115272,
        "latestObsDt": "2023-08-03 06:05",
        "numSpeciesAllTime": 47
    },
    {
        "locId": "L4785943",
        "locName": "Bighorn NF--Steamboat Point",
        "countryCode": "US",
        "subnational1Code": "US-WY",
        "subnational2Code": "US-WY-033",
        "lat": 44.8031688,
        "lng": -107.364826,
        "latestObsDt": "2023-09-09 06:00",
        "numSpeciesAllTime": 43
    },
    {
        "locId": "L1435526",
        "locName": "Bighorn NF--Tongue River Canyon",
        "countryCode": "US",
        "subnational1Code": "US-WY",
        "subnational2Code": "US-WY-033",
        "lat": 44.8472494,
        "lng": -107.3298019,
        "latestObsDt": "2024-02-03 12:33",
        "numSpeciesAllTime": 107
    },
    {
        "locId": "L4717244",
        "locName": "Bighorn NF--West Tensleep Campground & Lake",
        "countryCode": "US",
        "subnational1Code": "US-WY",
        "subnational2Code": "US-WY-003",
        "lat": 44.2592929,
        "lng": -107.2163594,
        "latestObsDt": "2023-08-10 17:03",
        "numSpeciesAllTime": 42
    },
    {
        "locId": "L15515809",
        "locName": "Bighorn NF—Circle Park Road",
        "countryCode": "US",
        "subnational1Code": "US-WY",
        "subnational2Code": "US-WY-019",
        "lat": 44.285977,
        "lng": -106.967808,
        "latestObsDt": "2023-10-09 13:51",
        "numSpeciesAllTime": 37
    },
    {
        "locId": "L15506548",
        "locName": "Bighorn NF—Hettinger Group Area",
        "countryCode": "US",
        "subnational1Code": "US-WY",
        "subnational2Code": "US-WY-019",
        "lat": 44.297104,
        "lng": -106.951633,
        "latestObsDt": "2023-12-28 12:35",
        "numSpeciesAllTime": 33
    },
    {
        "locId": "L7674373",
        "locName": "Bighorn NF—Shell Reservoir",
        "countryCode": "US",
        "subnational1Code": "US-WY",
        "subnational2Code": "US-WY-003",
        "lat": 44.514488,
        "lng": -107.417179,
        "latestObsDt": "2020-06-21 07:45",
        "numSpeciesAllTime": 25
    },
    {
        "locId": "L15515777",
        "locName": "Bighorn NF—Tie Hack Reservoir",
        "countryCode": "US",
        "subnational1Code": "US-WY",
        "subnational2Code": "US-WY-019",
        "lat": 44.286149,
        "lng": -106.922786,
        "latestObsDt": "2023-07-05 09:09",
        "numSpeciesAllTime": 27
    },
    {
        "locId": "L27043034",
        "locName": "Bird Farm Road, Big Horn, WY",
        "countryCode": "US",
        "subnational1Code": "US-WY",
        "subnational2Code": "US-WY-033",
        "lat": 44.6608056,
        "lng": -106.9488875,
        "latestObsDt": "2023-09-10 15:05",
        "numSpeciesAllTime": 13
    },
    {
        "locId": "L3812416",
        "locName": "Bitter Creek Rest Stop",
        "countryCode": "US",
        "subnational1Code": "US-WY",
        "subnational2Code": "US-WY-037",
        "lat": 41.6446004,
        "lng": -108.5476685,
        "latestObsDt": "2024-02-25 16:57",
        "numSpeciesAllTime": 59
    },
    {
        "locId": "L1578544",
        "locName": "Black Hills NF--Dugout Gulch",
        "countryCode": "US",
        "subnational1Code": "US-WY",
        "subnational2Code": "US-WY-011",
        "lat": 44.480769,
        "lng": -104.1186011,
        "latestObsDt": "2023-05-27 06:30",
        "numSpeciesAllTime": 76
    },
    {
        "locId": "L14940871",
        "locName": "Black Tooth Park",
        "countryCode": "US",
        "subnational1Code": "US-WY",
        "subnational2Code": "US-WY-033",
        "lat": 44.8036062,
        "lng": -106.999292,
        "latestObsDt": "2022-10-02 18:10",
        "numSpeciesAllTime": 30
    },
    {
        "locId": "L5454499",
        "locName": "Blacks Fork Bridge area, Hwy 530",
        "countryCode": "US",
        "subnational1Code": "US-WY",
        "subnational2Code": "US-WY-037",
        "lat": 41.3789983,
        "lng": -109.611733,
        "latestObsDt": "2023-10-04 16:12",
        "numSpeciesAllTime": 42
    },
    {
        "locId": "L3811946",
        "locName": "Blacktail Butte Summit Trail",
        "countryCode": "US",
        "subnational1Code": "US-WY",
        "subnational2Code": "US-WY-039",
        "lat": 43.6542564,
        "lng": -110.6970906,
        "latestObsDt": "2023-09-14 13:14",
        "numSpeciesAllTime": 95
    },
    {
        "locId": "L18475386",
        "locName": "Bondurant Postal Service & Pond",
        "countryCode": "US",
        "subnational1Code": "US-WY",
        "subnational2Code": "US-WY-035",
        "lat": 43.1594428,
        "lng": -110.3610553,
        "latestObsDt": "2023-11-01 15:18",
        "numSpeciesAllTime": 73
    },
    {
        "locId": "L4612654",
        "locName": "Bosler (\"town\")",
        "countryCode": "US",
        "subnational1Code": "US-WY",
        "subnational2Code": "US-WY-001",
        "lat": 41.5703802,
        "lng": -105.7008362,
        "latestObsDt": "2023-09-20 13:22",
        "numSpeciesAllTime": 33
    },
    {
        "locId": "L24850096",
        "locName": "Boulder Bridge",
        "countryCode": "US",
        "subnational1Code": "US-WY",
        "subnational2Code": "US-WY-035",
        "lat": 42.75048,
        "lng": -109.728582,
        "latestObsDt": "2024-01-24 08:42",
        "numSpeciesAllTime": 35
    },
    {
        "locId": "L5773757",
        "locName": "Boulder Lake",
        "countryCode": "US",
        "subnational1Code": "US-WY",
        "subnational2Code": "US-WY-035",
        "lat": 42.8463944,
        "lng": -109.6678448,
        "latestObsDt": "2023-06-27 12:24",
        "numSpeciesAllTime": 87
    },
    {
        "locId": "L19760941",
        "locName": "Boxelder Canyon",
        "countryCode": "US",
        "subnational1Code": "US-WY",
        "subnational2Code": "US-WY-009",
        "lat": 42.753277,
        "lng": -105.7976874,
        "latestObsDt": "2023-10-08 13:08",
        "numSpeciesAllTime": 40
    },
    {
        "locId": "L10209140",
        "locName": "Boxelder Road",
        "countryCode": "US",
        "subnational1Code": "US-WY",
        "subnational2Code": "US-WY-009",
        "lat": 42.5621849,
        "lng": -105.9240447,
        "latestObsDt": "2022-06-14 04:50",
        "numSpeciesAllTime": 19
    },
    {
        "locId": "L2932540",
        "locName": "Boyd Skinner Town Park",
        "countryCode": "US",
        "subnational1Code": "US-WY",
        "subnational2Code": "US-WY-035",
        "lat": 42.8633515,
        "lng": -109.8637748,
        "latestObsDt": "2023-11-12 08:10",
        "numSpeciesAllTime": 110
    },
    {
        "locId": "L7204272",
        "locName": "Boyer YL Ranch",
        "countryCode": "US",
        "subnational1Code": "US-WY",
        "subnational2Code": "US-WY-007",
        "lat": 41.120739,
        "lng": -107.370382,
        "latestObsDt": "2023-10-05 15:37",
        "numSpeciesAllTime": 131
    },
    {
        "locId": "L1671005",
        "locName": "Boysen SP--Boysen Reservoir",
        "countryCode": "US",
        "subnational1Code": "US-WY",
        "subnational2Code": "US-WY-013",
        "lat": 43.3626297,
        "lng": -108.1796265,
        "latestObsDt": "2023-10-05 16:09",
        "numSpeciesAllTime": 110
    },
    {
        "locId": "L860271",
        "locName": "Boysen SP--Campground",
        "countryCode": "US",
        "subnational1Code": "US-WY",
        "subnational2Code": "US-WY-013",
        "lat": 43.3296107,
        "lng": -108.1518173,
        "latestObsDt": "2023-09-27 13:21",
        "numSpeciesAllTime": 124
    },
    {
        "locId": "L3985738",
        "locName": "Boysen SP--Hwy 26 Causeway & Lakeside Picnic Area",
        "countryCode": "US",
        "subnational1Code": "US-WY",
        "subnational2Code": "US-WY-013",
        "lat": 43.219845,
        "lng": -108.1804097,
        "latestObsDt": "2023-10-22 10:06",
        "numSpeciesAllTime": 138
    },
    {
        "locId": "L1510157",
        "locName": "Bradford Brinton Memorial and Museum",
        "countryCode": "US",
        "subnational1Code": "US-WY",
        "subnational2Code": "US-WY-033",
        "lat": 44.6445823,
        "lng": -107.0076299,
        "latestObsDt": "2024-02-18 14:45",
        "numSpeciesAllTime": 144
    },
    {
        "locId": "L3837349",
        "locName": "Breccia Peak Trail",
        "countryCode": "US",
        "subnational1Code": "US-WY",
        "subnational2Code": "US-WY-039",
        "lat": 43.7690474,
        "lng": -110.0880874,
        "latestObsDt": "2021-08-09 13:30",
        "numSpeciesAllTime": 30
    },
    {
        "locId": "L3891098",
        "locName": "Bridger-Teton NF--Atherton Creek",
        "countryCode": "US",
        "subnational1Code": "US-WY",
        "subnational2Code": "US-WY-039",
        "lat": 43.6379076,
        "lng": -110.52333,
        "latestObsDt": "2023-08-08 20:34",
        "numSpeciesAllTime": 96
    },
    {
        "locId": "L2241801",
        "locName": "Bridger-Teton NF--Buffalo Valley",
        "countryCode": "US",
        "subnational1Code": "US-WY",
        "subnational2Code": "US-WY-039",
        "lat": 43.8444321,
        "lng": -110.4052162,
        "latestObsDt": "2023-09-29 21:18",
        "numSpeciesAllTime": 116
    },
    {
        "locId": "L978821",
        "locName": "Bridger-Teton NF--Cache Creek Canyon",
        "countryCode": "US",
        "subnational1Code": "US-WY",
        "subnational2Code": "US-WY-039",
        "lat": 43.4650366,
        "lng": -110.7306433,
        "latestObsDt": "2024-02-20 16:30",
        "numSpeciesAllTime": 152
    },
    {
        "locId": "L3885711",
        "locName": "Bridger-Teton NF--Crystal Creek",
        "countryCode": "US",
        "subnational1Code": "US-WY",
        "subnational2Code": "US-WY-039",
        "lat": 43.6046348,
        "lng": -110.4226291,
        "latestObsDt": "2023-05-26 15:26",
        "numSpeciesAllTime": 72
    },
    {
        "locId": "L3016024",
        "locName": "Bridger-Teton NF--Falls Campground",
        "countryCode": "US",
        "subnational1Code": "US-WY",
        "subnational2Code": "US-WY-013",
        "lat": 43.7066008,
        "lng": -109.9709558,
        "latestObsDt": "2023-09-25 11:03",
        "numSpeciesAllTime": 72
    },
    {
        "locId": "L956580",
        "locName": "Bridger-Teton NF--Goodwin Lake",
        "countryCode": "US",
        "subnational1Code": "US-WY",
        "subnational2Code": "US-WY-039",
        "lat": 43.4716707,
        "lng": -110.6168318,
        "latestObsDt": "2022-07-07 11:51",
        "numSpeciesAllTime": 14
    },
    {
        "locId": "L1240506",
        "locName": "Bridger-Teton NF--Goodwin Lake trail",
        "countryCode": "US",
        "subnational1Code": "US-WY",
        "subnational2Code": "US-WY-039",
        "lat": 43.4917243,
        "lng": -110.6226683,
        "latestObsDt": "2022-08-25 07:22",
        "numSpeciesAllTime": 31
    },
    {
        "locId": "L486237",
        "locName": "Bridger-Teton NF--Horse Creek Rd.",
        "countryCode": "US",
        "subnational1Code": "US-WY",
        "subnational2Code": "US-WY-035",
        "lat": 42.9428525,
        "lng": -110.4249573,
        "latestObsDt": "2023-10-23 14:16",
        "numSpeciesAllTime": 105
    },
    {
        "locId": "L15835770",
        "locName": "Bridger-Teton NF--Lake of the Woods",
        "countryCode": "US",
        "subnational1Code": "US-WY",
        "subnational2Code": "US-WY-039",
        "lat": 44.1069224,
        "lng": -110.8448647,
        "latestObsDt": "2022-08-07 13:30",
        "numSpeciesAllTime": 36
    },
    {
        "locId": "L1629535",
        "locName": "Bridger-Teton NF--Lake of the Woods",
        "countryCode": "US",
        "subnational1Code": "US-WY",
        "subnational2Code": "US-WY-013",
        "lat": 43.4807222,
        "lng": -109.8946804,
        "latestObsDt": "2023-07-30 10:30",
        "numSpeciesAllTime": 55
    },
    {
        "locId": "L3885714",
        "locName": "Bridger-Teton NF--Lower Slide Lake",
        "countryCode": "US",
        "subnational1Code": "US-WY",
        "subnational2Code": "US-WY-039",
        "lat": 43.6326896,
        "lng": -110.5307865,
        "latestObsDt": "2023-11-25 13:07",
        "numSpeciesAllTime": 93
    },
    {
        "locId": "L26773742",
        "locName": "Bridger-Teton NF--Mud Lake",
        "countryCode": "US",
        "subnational1Code": "US-WY",
        "subnational2Code": "US-WY-035",
        "lat": 42.6827321,
        "lng": -109.2799672,
        "latestObsDt": "2023-08-26 12:11",
        "numSpeciesAllTime": 5
    },
    {
        "locId": "L12088018",
        "locName": "Bridger-Teton NF--Nelson Dr Trailhead & nearby trails",
        "countryCode": "US",
        "subnational1Code": "US-WY",
        "subnational2Code": "US-WY-039",
        "lat": 43.4762502,
        "lng": -110.7406464,
        "latestObsDt": "2024-01-02 14:05",
        "numSpeciesAllTime": 82
    },
    {
        "locId": "L25610270",
        "locName": "Bridger-Teton NF--Red Creek Trail",
        "countryCode": "US",
        "subnational1Code": "US-WY",
        "subnational2Code": "US-WY-023",
        "lat": 43.2133822,
        "lng": -110.9350841,
        "latestObsDt": "2023-07-01 10:53",
        "numSpeciesAllTime": 13
    },
    {
        "locId": "L743302",
        "locName": "Bridger-Teton NF--Teton Village Tram",
        "countryCode": "US",
        "subnational1Code": "US-WY",
        "subnational2Code": "US-WY-039",
        "lat": 43.5973005,
        "lng": -110.8712339,
        "latestObsDt": "2023-10-08 11:49",
        "numSpeciesAllTime": 107
    },
    {
        "locId": "L15868256",
        "locName": "Bridger-Teton NF--Wyoming Peak",
        "countryCode": "US",
        "subnational1Code": "US-WY",
        "subnational2Code": "US-WY-023",
        "lat": 42.6043139,
        "lng": -110.6239012,
        "latestObsDt": "2021-07-21 05:30",
        "numSpeciesAllTime": 21
    },
    {
        "locId": "L4141021",
        "locName": "Brubaker Lane",
        "countryCode": "US",
        "subnational1Code": "US-WY",
        "subnational2Code": "US-WY-001",
        "lat": 41.1687046,
        "lng": -105.7681704,
        "latestObsDt": "2024-02-02 10:27",
        "numSpeciesAllTime": 105
    },
    {
        "locId": "L19984677",
        "locName": "Bruce Road and Wildcat Creek",
        "countryCode": "US",
        "subnational1Code": "US-WY",
        "subnational2Code": "US-WY-045",
        "lat": 43.6261111,
        "lng": -104.7,
        "latestObsDt": "2023-08-08 12:26",
        "numSpeciesAllTime": 19
    },
    {
        "locId": "L3369936",
        "locName": "Bryan Stock Trail Ponds",
        "countryCode": "US",
        "subnational1Code": "US-WY",
        "subnational2Code": "US-WY-025",
        "lat": 42.8671419,
        "lng": -106.2912118,
        "latestObsDt": "2024-01-17 15:00",
        "numSpeciesAllTime": 151
    },
    {
        "locId": "L1511527",
        "locName": "Bucklin Reservoirs",
        "countryCode": "US",
        "subnational1Code": "US-WY",
        "subnational2Code": "US-WY-007",
        "lat": 42.3878141,
        "lng": -107.4039645,
        "latestObsDt": "2023-05-31 13:30",
        "numSpeciesAllTime": 56
    },
    {
        "locId": "L4772930",
        "locName": "Bud Love Wildlife Management Area",
        "countryCode": "US",
        "subnational1Code": "US-WY",
        "subnational2Code": "US-WY-019",
        "lat": 44.4088108,
        "lng": -106.8814588,
        "latestObsDt": "2023-12-06 11:45",
        "numSpeciesAllTime": 90
    },
    {
        "locId": "L4878739",
        "locName": "Buffalo (town)",
        "countryCode": "US",
        "subnational1Code": "US-WY",
        "subnational2Code": "US-WY-019",
        "lat": 44.3528847,
        "lng": -106.7012358,
        "latestObsDt": "2024-02-23 09:26",
        "numSpeciesAllTime": 127
    },
    {
        "locId": "L7619963",
        "locName": "Buffalo Bill Reservoir--South Fork",
        "countryCode": "US",
        "subnational1Code": "US-WY",
        "subnational2Code": "US-WY-029",
        "lat": 44.4454103,
        "lng": -109.2266424,
        "latestObsDt": "2024-02-18 14:00",
        "numSpeciesAllTime": 70
    },
    {
        "locId": "L787257",
        "locName": "Buffalo Bill SP",
        "countryCode": "US",
        "subnational1Code": "US-WY",
        "subnational2Code": "US-WY-029",
        "lat": 44.4893505,
        "lng": -109.2290335,
        "latestObsDt": "2023-10-26 13:28",
        "numSpeciesAllTime": 118
    },
    {
        "locId": "L3738227",
        "locName": "Buffalo Bill SP--North Shore Campground",
        "countryCode": "US",
        "subnational1Code": "US-WY",
        "subnational2Code": "US-WY-029",
        "lat": 44.500852,
        "lng": -109.234314,
        "latestObsDt": "2023-10-26 12:27",
        "numSpeciesAllTime": 78
    },
    {
        "locId": "L6058455",
        "locName": "Buffalo KOA (private)",
        "countryCode": "US",
        "subnational1Code": "US-WY",
        "subnational2Code": "US-WY-019",
        "lat": 44.3530688,
        "lng": -106.6807759,
        "latestObsDt": "2023-09-19 10:47",
        "numSpeciesAllTime": 59
    },
    {
        "locId": "L9631374",
        "locName": "Buffalo Pasture area",
        "countryCode": "US",
        "subnational1Code": "US-WY",
        "subnational2Code": "US-WY-017",
        "lat": 43.656642,
        "lng": -108.1853858,
        "latestObsDt": "2023-08-24 17:15",
        "numSpeciesAllTime": 50
    },
    {
        "locId": "L14500361",
        "locName": "Bull Lake Creek Rest Area",
        "countryCode": "US",
        "subnational1Code": "US-WY",
        "subnational2Code": "US-WY-013",
        "lat": 43.22875,
        "lng": -109.008707,
        "latestObsDt": "2024-02-25 14:04",
        "numSpeciesAllTime": 61
    },
    {
        "locId": "L6740370",
        "locName": "Bull Lake Dam and Creek above Hwy 26",
        "countryCode": "US",
        "subnational1Code": "US-WY",
        "subnational2Code": "US-WY-013",
        "lat": 43.2127454,
        "lng": -109.0440702,
        "latestObsDt": "2024-02-19 10:09",
        "numSpeciesAllTime": 114
    },
    {
        "locId": "L6016774",
        "locName": "Bunsen Peak/Osprey Falls Trail",
        "countryCode": "US",
        "subnational1Code": "US-WY",
        "subnational2Code": "US-WY-029",
        "lat": 44.9318343,
        "lng": -110.7276231,
        "latestObsDt": "2023-10-06 14:52",
        "numSpeciesAllTime": 71
    },
    {
        "locId": "L299782",
        "locName": "Burlington Lake (Goldeneye Reservoir)",
        "countryCode": "US",
        "subnational1Code": "US-WY",
        "subnational2Code": "US-WY-025",
        "lat": 43.019333,
        "lng": -106.7073727,
        "latestObsDt": "2023-12-28 15:17",
        "numSpeciesAllTime": 191
    },
    {
        "locId": "L479507",
        "locName": "Burns (town)",
        "countryCode": "US",
        "subnational1Code": "US-WY",
        "subnational2Code": "US-WY-021",
        "lat": 41.1909271,
        "lng": -104.3578434,
        "latestObsDt": "2023-09-20 16:16",
        "numSpeciesAllTime": 45
    },
    {
        "locId": "L15214644",
        "locName": "Burnt Hollow Recreation Area",
        "countryCode": "US",
        "subnational1Code": "US-WY",
        "subnational2Code": "US-WY-005",
        "lat": 44.516384,
        "lng": -105.445259,
        "latestObsDt": "2024-01-24 11:27",
        "numSpeciesAllTime": 64
    },
    {
        "locId": "L11479422",
        "locName": "Bush Springs",
        "countryCode": "US",
        "subnational1Code": "US-WY",
        "subnational2Code": "US-WY-037",
        "lat": 42.1126772,
        "lng": -108.8294622,
        "latestObsDt": "2022-09-29 07:19",
        "numSpeciesAllTime": 72
    },
    {
        "locId": "L1877123",
        "locName": "CCC Ponds",
        "countryCode": "US",
        "subnational1Code": "US-WY",
        "subnational2Code": "US-WY-035",
        "lat": 42.8957267,
        "lng": -109.8352959,
        "latestObsDt": "2023-10-24 17:31",
        "numSpeciesAllTime": 154
    },
    {
        "locId": "L10541376",
        "locName": "CWC Sinks Canyon Center",
        "countryCode": "US",
        "subnational1Code": "US-WY",
        "subnational2Code": "US-WY-013",
        "lat": 42.7768852,
        "lng": -108.7745008,
        "latestObsDt": "2024-02-16 13:38",
        "numSpeciesAllTime": 127
    },
    {
        "locId": "L788946",
        "locName": "Camp New Fork",
        "countryCode": "US",
        "subnational1Code": "US-WY",
        "subnational2Code": "US-WY-035",
        "lat": 43.0813015,
        "lng": -109.9657631,
        "latestObsDt": "2023-08-18 14:11",
        "numSpeciesAllTime": 100
    },
    {
        "locId": "L18409649",
        "locName": "Campbell Co. Public Library (Gillette)",
        "countryCode": "US",
        "subnational1Code": "US-WY",
        "subnational2Code": "US-WY-005",
        "lat": 44.2752568,
        "lng": -105.5090376,
        "latestObsDt": "2024-01-18 08:00",
        "numSpeciesAllTime": 17
    },
    {
        "locId": "L9818454",
        "locName": "Campbell Creek Campground",
        "countryCode": "US",
        "subnational1Code": "US-WY",
        "subnational2Code": "US-WY-009",
        "lat": 42.4550972,
        "lng": -105.8362437,
        "latestObsDt": "2021-08-14 06:59",
        "numSpeciesAllTime": 25
    },
    {
        "locId": "L4654093",
        "locName": "Camplex Park",
        "countryCode": "US",
        "subnational1Code": "US-WY",
        "subnational2Code": "US-WY-005",
        "lat": 44.2855966,
        "lng": -105.4557145,
        "latestObsDt": "2024-02-22 13:40",
        "numSpeciesAllTime": 172
    },
    {
        "locId": "L5923444",
        "locName": "Carbon CR 492 (6 Mile & Campground Rds)",
        "countryCode": "US",
        "subnational1Code": "US-WY",
        "subnational2Code": "US-WY-007",
        "lat": 41.0440812,
        "lng": -106.3985746,
        "latestObsDt": "2023-08-04 10:26",
        "numSpeciesAllTime": 73
    },
    {
        "locId": "L3006792",
        "locName": "Carmody Lake",
        "countryCode": "US",
        "subnational1Code": "US-WY",
        "subnational2Code": "US-WY-013",
        "lat": 42.564818,
        "lng": -108.215385,
        "latestObsDt": "2023-09-23 08:32",
        "numSpeciesAllTime": 101
    },
    {
        "locId": "L2940594",
        "locName": "Casper Mountain County Park",
        "countryCode": "US",
        "subnational1Code": "US-WY",
        "subnational2Code": "US-WY-025",
        "lat": 42.7390362,
        "lng": -106.3179588,
        "latestObsDt": "2023-10-07 12:13",
        "numSpeciesAllTime": 97
    },
    {
        "locId": "L7840661",
        "locName": "Casper Mountain County Park--Braille Trail",
        "countryCode": "US",
        "subnational1Code": "US-WY",
        "subnational2Code": "US-WY-025",
        "lat": 42.7431358,
        "lng": -106.3159588,
        "latestObsDt": "2023-05-20 10:01",
        "numSpeciesAllTime": 28
    },
    {
        "locId": "L356868",
        "locName": "Casper--Audubon Center at Garden Creek",
        "countryCode": "US",
        "subnational1Code": "US-WY",
        "subnational2Code": "US-WY-025",
        "lat": 42.7884722,
        "lng": -106.3433056,
        "latestObsDt": "2023-06-06 17:36",
        "numSpeciesAllTime": 76
    },
    {
        "locId": "L2151638",
        "locName": "Casper--Elkhorn Creek Reservoir",
        "countryCode": "US",
        "subnational1Code": "US-WY",
        "subnational2Code": "US-WY-025",
        "lat": 42.8440031,
        "lng": -106.2450457,
        "latestObsDt": "2023-07-20 13:52",
        "numSpeciesAllTime": 48
    },
    {
        "locId": "L2334203",
        "locName": "Casper--Garden Creek Falls",
        "countryCode": "US",
        "subnational1Code": "US-WY",
        "subnational2Code": "US-WY-025",
        "lat": 42.767625,
        "lng": -106.3319578,
        "latestObsDt": "2023-11-01 11:27",
        "numSpeciesAllTime": 97
    },
    {
        "locId": "L2151591",
        "locName": "Casper--JTL Gravel Pits",
        "countryCode": "US",
        "subnational1Code": "US-WY",
        "subnational2Code": "US-WY-025",
        "lat": 42.8665914,
        "lng": -106.2801933,
        "latestObsDt": "2023-12-07 16:17",
        "numSpeciesAllTime": 126
    },
    {
        "locId": "L19333559",
        "locName": "Castle Gardens Recreation Area",
        "countryCode": "US",
        "subnational1Code": "US-WY",
        "subnational2Code": "US-WY-043",
        "lat": 43.9557226,
        "lng": -107.5170587,
        "latestObsDt": "2023-09-23 13:10",
        "numSpeciesAllTime": 34
    },
    {
        "locId": "L3222240",
        "locName": "Centennial (town)",
        "countryCode": "US",
        "subnational1Code": "US-WY",
        "subnational2Code": "US-WY-001",
        "lat": 41.2985733,
        "lng": -106.1406541,
        "latestObsDt": "2024-02-14 09:00",
        "numSpeciesAllTime": 99
    },
    {
        "locId": "L15736145",
        "locName": "Central Wyoming Fairgrounds",
        "countryCode": "US",
        "subnational1Code": "US-WY",
        "subnational2Code": "US-WY-025",
        "lat": 42.833701,
        "lng": -106.3641498
    },
    {
        "locId": "L7170240",
        "locName": "Chain Lakes Wildlife Habitat Management Area",
        "countryCode": "US",
        "subnational1Code": "US-WY",
        "subnational2Code": "US-WY-037",
        "lat": 41.994034,
        "lng": -107.870309,
        "latestObsDt": "2023-05-12 09:20",
        "numSpeciesAllTime": 120
    },
    {
        "locId": "L3032485",
        "locName": "Chalk Bluff Rd.",
        "countryCode": "US",
        "subnational1Code": "US-WY",
        "subnational2Code": "US-WY-021",
        "lat": 41.0524308,
        "lng": -104.6389389,
        "latestObsDt": "2023-08-23 13:20",
        "numSpeciesAllTime": 60
    },
    {
        "locId": "L3137880",
        "locName": "Cheyenne Business Parkway Natural Area",
        "countryCode": "US",
        "subnational1Code": "US-WY",
        "subnational2Code": "US-WY-021",
        "lat": 41.1363587,
        "lng": -104.7285569,
        "latestObsDt": "2023-12-06 08:38",
        "numSpeciesAllTime": 110
    },
    {
        "locId": "L893660",
        "locName": "Cheyenne--Holliday Park",
        "countryCode": "US",
        "subnational1Code": "US-WY",
        "subnational2Code": "US-WY-021",
        "lat": 41.1392353,
        "lng": -104.802897,
        "latestObsDt": "2023-11-17 08:51",
        "numSpeciesAllTime": 119
    },
    {
        "locId": "L1915278",
        "locName": "Cheyenne--Laramie County Community College",
        "countryCode": "US",
        "subnational1Code": "US-WY",
        "subnational2Code": "US-WY-021",
        "lat": 41.1048134,
        "lng": -104.784025,
        "latestObsDt": "2024-02-17 10:38",
        "numSpeciesAllTime": 132
    },
    {
        "locId": "L2059375",
        "locName": "Chris Klein Reservoir",
        "countryCode": "US",
        "subnational1Code": "US-WY",
        "subnational2Code": "US-WY-001",
        "lat": 41.2565454,
        "lng": -105.5646122,
        "latestObsDt": "2023-06-25 09:45",
        "numSpeciesAllTime": 9
    },
    {
        "locId": "L961778",
        "locName": "Chugwater (town)",
        "countryCode": "US",
        "subnational1Code": "US-WY",
        "subnational2Code": "US-WY-031",
        "lat": 41.7583157,
        "lng": -104.8222733,
        "latestObsDt": "2024-01-24 08:55",
        "numSpeciesAllTime": 81
    },
    {
        "locId": "L4887404",
        "locName": "City Springs Oasis",
        "countryCode": "US",
        "subnational1Code": "US-WY",
        "subnational2Code": "US-WY-001",
        "lat": 41.3091506,
        "lng": -105.5467057,
        "latestObsDt": "2023-08-31 12:05",
        "numSpeciesAllTime": 86
    },
    {
        "locId": "L1515796",
        "locName": "Clear Creek Diversion",
        "countryCode": "US",
        "subnational1Code": "US-WY",
        "subnational2Code": "US-WY-019",
        "lat": 44.3916795,
        "lng": -106.6245321,
        "latestObsDt": "2023-04-26 16:00",
        "numSpeciesAllTime": 74
    },
    {
        "locId": "L4787130",
        "locName": "Clear Creek Trail",
        "countryCode": "US",
        "subnational1Code": "US-WY",
        "subnational2Code": "US-WY-019",
        "lat": 44.3434632,
        "lng": -106.7072117,
        "latestObsDt": "2024-02-26 11:58",
        "numSpeciesAllTime": 158
    },
    {
        "locId": "L26959328",
        "locName": "Clearmont (town)",
        "countryCode": "US",
        "subnational1Code": "US-WY",
        "subnational2Code": "US-WY-033",
        "lat": 44.63982,
        "lng": -106.380121,
        "latestObsDt": "2023-09-05 17:00",
        "numSpeciesAllTime": 9
    },
    {
        "locId": "L3026731",
        "locName": "Clifford F Graham Reservoir #3",
        "countryCode": "US",
        "subnational1Code": "US-WY",
        "subnational2Code": "US-WY-041",
        "lat": 41.2589687,
        "lng": -110.2536821,
        "latestObsDt": "2023-11-04 12:15",
        "numSpeciesAllTime": 81
    },
    {
        "locId": "L10222512",
        "locName": "Coal Mountain Rd",
        "countryCode": "US",
        "subnational1Code": "US-WY",
        "subnational2Code": "US-WY-025",
        "lat": 42.6984338,
        "lng": -106.4888354,
        "latestObsDt": "2023-11-29 14:17",
        "numSpeciesAllTime": 25
    },
    {
        "locId": "L2373040",
        "locName": "Cody (town)",
        "countryCode": "US",
        "subnational1Code": "US-WY",
        "subnational2Code": "US-WY-029",
        "lat": 44.5273533,
        "lng": -109.0573311,
        "latestObsDt": "2024-02-26 07:44",
        "numSpeciesAllTime": 108
    },
    {
        "locId": "L2145511",
        "locName": "Cokeville Meadows NWR",
        "countryCode": "US",
        "subnational1Code": "US-WY",
        "subnational2Code": "US-WY-023",
        "lat": 41.93089,
        "lng": -110.975647,
        "latestObsDt": "2023-10-11 16:34",
        "numSpeciesAllTime": 113
    },
    {
        "locId": "L3874127",
        "locName": "Commissary Ridge HawkWatch",
        "countryCode": "US",
        "subnational1Code": "US-WY",
        "subnational2Code": "US-WY-023",
        "lat": 42.02471,
        "lng": -110.5895779,
        "latestObsDt": "2023-10-18 09:19",
        "numSpeciesAllTime": 114
    },
    {
        "locId": "L5911157",
        "locName": "Cook Lake Recreation Area",
        "countryCode": "US",
        "subnational1Code": "US-WY",
        "subnational2Code": "US-WY-011",
        "lat": 44.5934622,
        "lng": -104.4084084,
        "latestObsDt": "2023-09-18 12:00",
        "numSpeciesAllTime": 78
    },
    {
        "locId": "L9725784",
        "locName": "Corbett Dam Area",
        "countryCode": "US",
        "subnational1Code": "US-WY",
        "subnational2Code": "US-WY-029",
        "lat": 44.5899585,
        "lng": -108.9535038,
        "latestObsDt": "2021-08-30 12:42",
        "numSpeciesAllTime": 13
    },
    {
        "locId": "L13867077",
        "locName": "Cortes Dam and Canyon",
        "countryCode": "US",
        "subnational1Code": "US-WY",
        "subnational2Code": "US-WY-007",
        "lat": 42.179094,
        "lng": -106.876027,
        "latestObsDt": "2021-02-27 14:10",
        "numSpeciesAllTime": 3
    },
    {
        "locId": "L9744238",
        "locName": "Cottonwood Lake & Campground",
        "countryCode": "US",
        "subnational1Code": "US-WY",
        "subnational2Code": "US-WY-023",
        "lat": 42.6379381,
        "lng": -110.8164265,
        "latestObsDt": "2023-09-24 16:56",
        "numSpeciesAllTime": 60
    },
    {
        "locId": "L6116217",
        "locName": "Country Garden Lane Wetlands",
        "countryCode": "US",
        "subnational1Code": "US-WY",
        "subnational2Code": "US-WY-013",
        "lat": 42.8702023,
        "lng": -108.6286583,
        "latestObsDt": "2023-07-24 15:12",
        "numSpeciesAllTime": 42
    },
    {
        "locId": "L7253164",
        "locName": "Cow Creek at Hwy 230",
        "countryCode": "US",
        "subnational1Code": "US-WY",
        "subnational2Code": "US-WY-007",
        "lat": 41.3282704,
        "lng": -106.745148,
        "latestObsDt": "2023-06-26 19:55",
        "numSpeciesAllTime": 41
    },
    {
        "locId": "L1285065",
        "locName": "Crescent H Ranch",
        "countryCode": "US",
        "subnational1Code": "US-WY",
        "subnational2Code": "US-WY-039",
        "lat": 43.4610807,
        "lng": -110.8789694,
        "latestObsDt": "2020-07-22 08:50",
        "numSpeciesAllTime": 99
    },
    {
        "locId": "L4786033",
        "locName": "Crystal Spring Rest Area",
        "countryCode": "US",
        "subnational1Code": "US-WY",
        "subnational2Code": "US-WY-033",
        "lat": 44.8215178,
        "lng": -107.3360912,
        "latestObsDt": "2023-09-12 16:59",
        "numSpeciesAllTime": 29
    },
    {
        "locId": "L2201262",
        "locName": "Curt Gowdy SP",
        "countryCode": "US",
        "subnational1Code": "US-WY",
        "subnational2Code": "US-WY-021",
        "lat": 41.1903458,
        "lng": -105.2424788,
        "latestObsDt": "2024-02-09 13:22",
        "numSpeciesAllTime": 171
    },
    {
        "locId": "L2192978",
        "locName": "Curt Gowdy SP--Crystal Lake Reservoir",
        "countryCode": "US",
        "subnational1Code": "US-WY",
        "subnational2Code": "US-WY-021",
        "lat": 41.1572028,
        "lng": -105.2023315,
        "latestObsDt": "2023-10-27 15:57",
        "numSpeciesAllTime": 130
    },
    {
        "locId": "L3963498",
        "locName": "Curt Gowdy SP--Granite Springs Reservoir",
        "countryCode": "US",
        "subnational1Code": "US-WY",
        "subnational2Code": "US-WY-021",
        "lat": 41.1774427,
        "lng": -105.2322757,
        "latestObsDt": "2023-10-10 15:15",
        "numSpeciesAllTime": 144
    },
    {
        "locId": "L7794614",
        "locName": "Dalbey Memorial Park",
        "countryCode": "US",
        "subnational1Code": "US-WY",
        "subnational2Code": "US-WY-005",
        "lat": 44.2653309,
        "lng": -105.4872137,
        "latestObsDt": "2023-12-16 10:51",
        "numSpeciesAllTime": 105
    },
    {
        "locId": "L18228914",
        "locName": "Dan Speas Fish Hatchery",
        "countryCode": "US",
        "subnational1Code": "US-WY",
        "subnational2Code": "US-WY-025",
        "lat": 42.7527558,
        "lng": -106.5327788,
        "latestObsDt": "2023-11-29 13:12",
        "numSpeciesAllTime": 64
    },
    {
        "locId": "L11978975",
        "locName": "Daniel (town)",
        "countryCode": "US",
        "subnational1Code": "US-WY",
        "subnational2Code": "US-WY-035",
        "lat": 42.8637092,
        "lng": -110.0716075,
        "latestObsDt": "2023-08-05 14:45",
        "numSpeciesAllTime": 66
    },
    {
        "locId": "L7520750",
        "locName": "Darby Wind Caves Trail",
        "countryCode": "US",
        "subnational1Code": "US-WY",
        "subnational2Code": "US-WY-039",
        "lat": 43.6818393,
        "lng": -110.9554982,
        "latestObsDt": "2023-10-05 12:09",
        "numSpeciesAllTime": 62
    },
    {
        "locId": "L1669681",
        "locName": "Dayton--Scott Bicentennial Park",
        "countryCode": "US",
        "subnational1Code": "US-WY",
        "subnational2Code": "US-WY-033",
        "lat": 44.8790606,
        "lng": -107.2599189,
        "latestObsDt": "2024-02-03 14:24",
        "numSpeciesAllTime": 121
    },
    {
        "locId": "L1644541",
        "locName": "Deadman Butte",
        "countryCode": "US",
        "subnational1Code": "US-WY",
        "subnational2Code": "US-WY-021",
        "lat": 41.511127,
        "lng": -105.2750477,
        "latestObsDt": "2023-08-20 13:29",
        "numSpeciesAllTime": 26
    },
    {
        "locId": "L4813167",
        "locName": "Deaver Reservoir",
        "countryCode": "US",
        "subnational1Code": "US-WY",
        "subnational2Code": "US-WY-029",
        "lat": 44.9006325,
        "lng": -108.6377263,
        "latestObsDt": "2024-02-22 13:25",
        "numSpeciesAllTime": 116
    },
    {
        "locId": "L4878831",
        "locName": "Deep Creek Lakes",
        "countryCode": "US",
        "subnational1Code": "US-WY",
        "subnational2Code": "US-WY-013",
        "lat": 42.7340581,
        "lng": -109.094646,
        "latestObsDt": "2023-08-29 07:00",
        "numSpeciesAllTime": 32
    },
    {
        "locId": "L4748798",
        "locName": "Devil's Tower NM--Belle Fourche River Campground",
        "countryCode": "US",
        "subnational1Code": "US-WY",
        "subnational2Code": "US-WY-011",
        "lat": 44.5817831,
        "lng": -104.7063509,
        "latestObsDt": "2023-09-14 16:42",
        "numSpeciesAllTime": 111
    },
    {
        "locId": "L24710667",
        "locName": "Devil's Tower NM--Red Beds Trail",
        "countryCode": "US",
        "subnational1Code": "US-WY",
        "subnational2Code": "US-WY-011",
        "lat": 44.5886168,
        "lng": -104.713614,
        "latestObsDt": "2023-05-23 11:00",
        "numSpeciesAllTime": 11
    },
    {
        "locId": "L2334201",
        "locName": "Devils Gate",
        "countryCode": "US",
        "subnational1Code": "US-WY",
        "subnational2Code": "US-WY-025",
        "lat": 42.4480854,
        "lng": -107.2105551,
        "latestObsDt": "2023-09-27 07:38",
        "numSpeciesAllTime": 103
    },
    {
        "locId": "L6059318",
        "locName": "Devils Tower KOA (private)",
        "countryCode": "US",
        "subnational1Code": "US-WY",
        "subnational2Code": "US-WY-011",
        "lat": 44.5901157,
        "lng": -104.698602,
        "latestObsDt": "2023-09-13 18:00",
        "numSpeciesAllTime": 95
    },
    {
        "locId": "L285168",
        "locName": "Devils Tower NM",
        "countryCode": "US",
        "subnational1Code": "US-WY",
        "subnational2Code": "US-WY-011",
        "lat": 44.590762,
        "lng": -104.7180517,
        "latestObsDt": "2024-01-17 15:46",
        "numSpeciesAllTime": 184
    },
    {
        "locId": "L9541548",
        "locName": "Diamond Lake (Bosler Reservoir)",
        "countryCode": "US",
        "subnational1Code": "US-WY",
        "subnational2Code": "US-WY-007",
        "lat": 41.609767,
        "lng": -106.093823,
        "latestObsDt": "2023-06-15 14:49",
        "numSpeciesAllTime": 97
    },
    {
        "locId": "L3451118",
        "locName": "Dietz Beatty Gulch Road",
        "countryCode": "US",
        "subnational1Code": "US-WY",
        "subnational2Code": "US-WY-033",
        "lat": 44.8721236,
        "lng": -106.9735658,
        "latestObsDt": "2023-10-07 09:45",
        "numSpeciesAllTime": 80
    },
    {
        "locId": "L15118826",
        "locName": "Dirty Shirt Woods",
        "countryCode": "US",
        "subnational1Code": "US-WY",
        "subnational2Code": "US-WY-025",
        "lat": 42.7038357,
        "lng": -106.4994286,
        "latestObsDt": "2023-12-07 08:30",
        "numSpeciesAllTime": 33
    },
    {
        "locId": "L8317474",
        "locName": "Diversion Dam Park",
        "countryCode": "US",
        "subnational1Code": "US-WY",
        "subnational2Code": "US-WY-013",
        "lat": 43.2252864,
        "lng": -108.9407301,
        "latestObsDt": "2023-05-30 06:38",
        "numSpeciesAllTime": 65
    },
    {
        "locId": "L11471285",
        "locName": "Divide Lake",
        "countryCode": "US",
        "subnational1Code": "US-WY",
        "subnational2Code": "US-WY-029",
        "lat": 44.9121085,
        "lng": -111.0511686,
        "latestObsDt": "2023-04-28 13:16",
        "numSpeciesAllTime": 24
    },
    {
        "locId": "L695740",
        "locName": "Dixon (town)",
        "countryCode": "US",
        "subnational1Code": "US-WY",
        "subnational2Code": "US-WY-007",
        "lat": 41.033431,
        "lng": -107.5368941,
        "latestObsDt": "2023-06-12 18:00",
        "numSpeciesAllTime": 93
    },
    {
        "locId": "L2665219",
        "locName": "Douglas (town)",
        "countryCode": "US",
        "subnational1Code": "US-WY",
        "subnational2Code": "US-WY-009",
        "lat": 42.7599951,
        "lng": -105.3826833,
        "latestObsDt": "2023-03-05 15:05",
        "numSpeciesAllTime": 85
    },
    {
        "locId": "L17157345",
        "locName": "Douglas Cemetery",
        "countryCode": "US",
        "subnational1Code": "US-WY",
        "subnational2Code": "US-WY-009",
        "lat": 42.7562566,
        "lng": -105.3756546,
        "latestObsDt": "2023-10-01 06:58",
        "numSpeciesAllTime": 54
    },
    {
        "locId": "L20638608",
        "locName": "Douglas KOA Ponds",
        "countryCode": "US",
        "subnational1Code": "US-WY",
        "subnational2Code": "US-WY-009",
        "lat": 42.7657145,
        "lng": -105.4338661,
        "latestObsDt": "2023-09-29 08:09",
        "numSpeciesAllTime": 38
    },
    {
        "locId": "L3070605",
        "locName": "Douglas Riverside Bike Path",
        "countryCode": "US",
        "subnational1Code": "US-WY",
        "subnational2Code": "US-WY-009",
        "lat": 42.7634725,
        "lng": -105.395751,
        "latestObsDt": "2024-02-20 14:09",
        "numSpeciesAllTime": 132
    },
    {
        "locId": "L24632176",
        "locName": "Dow Park",
        "countryCode": "US",
        "subnational1Code": "US-WY",
        "subnational2Code": "US-WY-045",
        "lat": 43.852931,
        "lng": -104.221957,
        "latestObsDt": "2023-05-24 18:23",
        "numSpeciesAllTime": 11
    },
    {
        "locId": "L7862988",
        "locName": "Dream Lake",
        "countryCode": "US",
        "subnational1Code": "US-WY",
        "subnational2Code": "US-WY-035",
        "lat": 42.8593127,
        "lng": -109.4111226,
        "latestObsDt": "2023-08-08 12:35",
        "numSpeciesAllTime": 19
    },
    {
        "locId": "L264617",
        "locName": "Dry Lake",
        "countryCode": "US",
        "subnational1Code": "US-WY",
        "subnational2Code": "US-WY-013",
        "lat": 42.740173,
        "lng": -108.6428976,
        "latestObsDt": "2023-11-18 13:13",
        "numSpeciesAllTime": 151
    },
    {
        "locId": "L4627466",
        "locName": "Dubois Badlands Wilderness Study Area",
        "countryCode": "US",
        "subnational1Code": "US-WY",
        "subnational2Code": "US-WY-013",
        "lat": 43.5252462,
        "lng": -109.5870137,
        "latestObsDt": "2023-08-19 09:11",
        "numSpeciesAllTime": 34
    },
    {
        "locId": "L3000615",
        "locName": "Dubois--Town Park",
        "countryCode": "US",
        "subnational1Code": "US-WY",
        "subnational2Code": "US-WY-013",
        "lat": 43.5358716,
        "lng": -109.6436673,
        "latestObsDt": "2024-02-24 16:23",
        "numSpeciesAllTime": 100
    },
    {
        "locId": "L2939066",
        "locName": "Duck Creek Overlook",
        "countryCode": "US",
        "subnational1Code": "US-WY",
        "subnational2Code": "US-WY-035",
        "lat": 42.8716239,
        "lng": -109.9316025,
        "latestObsDt": "2023-10-07 16:53",
        "numSpeciesAllTime": 47
    },
    {
        "locId": "L4654380",
        "locName": "Dugout Gulch Botanical Trail",
        "countryCode": "US",
        "subnational1Code": "US-WY",
        "subnational2Code": "US-WY-011",
        "lat": 44.4780132,
        "lng": -104.1133279,
        "latestObsDt": "2023-09-21 11:52",
        "numSpeciesAllTime": 50
    },
    {
        "locId": "L13867145",
        "locName": "Dugway Recreation Area",
        "countryCode": "US",
        "subnational1Code": "US-WY",
        "subnational2Code": "US-WY-007",
        "lat": 41.861633,
        "lng": -107.055926,
        "latestObsDt": "2023-11-04 08:40",
        "numSpeciesAllTime": 54
    },
    {
        "locId": "L12125588",
        "locName": "E Armory Rd & UW Athletic Fields",
        "countryCode": "US",
        "subnational1Code": "US-WY",
        "subnational2Code": "US-WY-001",
        "lat": 41.317101,
        "lng": -105.562541,
        "latestObsDt": "2023-12-16 07:53",
        "numSpeciesAllTime": 44
    },
    {
        "locId": "L5800806",
        "locName": "East Allen Lake",
        "countryCode": "US",
        "subnational1Code": "US-WY",
        "subnational2Code": "US-WY-007",
        "lat": 41.875849,
        "lng": -106.222872,
        "latestObsDt": "2023-07-20 10:16",
        "numSpeciesAllTime": 95
    },
    {
        "locId": "L4887418",
        "locName": "East Laramie Prairie Trails",
        "countryCode": "US",
        "subnational1Code": "US-WY",
        "subnational2Code": "US-WY-001",
        "lat": 41.3158116,
        "lng": -105.532608,
        "latestObsDt": "2024-02-06 08:38",
        "numSpeciesAllTime": 94
    },
    {
        "locId": "L3835299",
        "locName": "East Ormsby Rd",
        "countryCode": "US",
        "subnational1Code": "US-WY",
        "subnational2Code": "US-WY-025",
        "lat": 42.9794407,
        "lng": -106.3037431,
        "latestObsDt": "2023-08-29 17:17",
        "numSpeciesAllTime": 20
    },
    {
        "locId": "L1235992",
        "locName": "Eden (census designated place)",
        "countryCode": "US",
        "subnational1Code": "US-WY",
        "subnational2Code": "US-WY-037",
        "lat": 42.0506111,
        "lng": -109.4381055,
        "latestObsDt": "2023-12-22 13:05",
        "numSpeciesAllTime": 63
    },
    {
        "locId": "L5432378",
        "locName": "Eden Reservoir area",
        "countryCode": "US",
        "subnational1Code": "US-WY",
        "subnational2Code": "US-WY-037",
        "lat": 42.2146608,
        "lng": -109.3732738,
        "latestObsDt": "2023-11-03 10:47",
        "numSpeciesAllTime": 113
    },
    {
        "locId": "L607450",
        "locName": "Edness Kimball Wilkins SP",
        "countryCode": "US",
        "subnational1Code": "US-WY",
        "subnational2Code": "US-WY-025",
        "lat": 42.8535994,
        "lng": -106.1788702,
        "latestObsDt": "2023-10-17 10:41",
        "numSpeciesAllTime": 215
    },
    {
        "locId": "L12087459",
        "locName": "Emerald Lake",
        "countryCode": "US",
        "subnational1Code": "US-WY",
        "subnational2Code": "US-WY-003",
        "lat": 44.458335,
        "lng": -107.307118,
        "latestObsDt": "2020-08-16 16:46",
        "numSpeciesAllTime": 1
    },
    {
        "locId": "L2729687",
        "locName": "Emily Stevens Park",
        "countryCode": "US",
        "subnational1Code": "US-WY",
        "subnational2Code": "US-WY-039",
        "lat": 43.4996567,
        "lng": -110.8374596,
        "latestObsDt": "2024-02-26 13:58",
        "numSpeciesAllTime": 137
    },
    {
        "locId": "L19213696",
        "locName": "Encampment River Campground",
        "countryCode": "US",
        "subnational1Code": "US-WY",
        "subnational2Code": "US-WY-007",
        "lat": 41.182606,
        "lng": -106.795394,
        "latestObsDt": "2023-04-15 06:15",
        "numSpeciesAllTime": 43
    },
    {
        "locId": "L10952715",
        "locName": "Enos Lake",
        "countryCode": "US",
        "subnational1Code": "US-WY",
        "subnational2Code": "US-WY-039",
        "lat": 43.9867972,
        "lng": -110.2463112,
        "latestObsDt": "2016-07-17 00:00",
        "numSpeciesAllTime": 3
    },
    {
        "locId": "L9144718",
        "locName": "Erramousepe Road Reservoir",
        "countryCode": "US",
        "subnational1Code": "US-WY",
        "subnational2Code": "US-WY-035",
        "lat": 42.4319098,
        "lng": -109.5535113,
        "latestObsDt": "2023-09-24 12:51",
        "numSpeciesAllTime": 77
    },
    {
        "locId": "L16333805",
        "locName": "Evanston Pilot Travel Center",
        "countryCode": "US",
        "subnational1Code": "US-WY",
        "subnational2Code": "US-WY-041",
        "lat": 41.2688484,
        "lng": -110.9411208,
        "latestObsDt": "2023-09-16 08:46",
        "numSpeciesAllTime": 25
    },
    {
        "locId": "L422115",
        "locName": "Evanston--Bear River Greenway--Ice Ponds",
        "countryCode": "US",
        "subnational1Code": "US-WY",
        "subnational2Code": "US-WY-041",
        "lat": 41.268727,
        "lng": -110.9560132,
        "latestObsDt": "2024-01-08 14:25",
        "numSpeciesAllTime": 147
    },
    {
        "locId": "L3033671",
        "locName": "Expedition Island",
        "countryCode": "US",
        "subnational1Code": "US-WY",
        "subnational2Code": "US-WY-037",
        "lat": 41.5229411,
        "lng": -109.4714856,
        "latestObsDt": "2024-02-23 09:15",
        "numSpeciesAllTime": 145
    },
    {
        "locId": "L6176864",
        "locName": "Fairy Falls Trail",
        "countryCode": "US",
        "subnational1Code": "US-WY",
        "subnational2Code": "US-WY-039",
        "lat": 44.5153335,
        "lng": -110.832485,
        "latestObsDt": "2023-09-29 09:57",
        "numSpeciesAllTime": 85
    },
    {
        "locId": "L5093624",
        "locName": "Farm Field Rd (Hwy 233 to Commissary Ridge HawkWatch)",
        "countryCode": "US",
        "subnational1Code": "US-WY",
        "subnational2Code": "US-WY-023",
        "lat": 41.9956687,
        "lng": -110.6228399,
        "latestObsDt": "2021-11-08 16:17",
        "numSpeciesAllTime": 27
    },
    {
        "locId": "L1615549",
        "locName": "Farson (town)",
        "countryCode": "US",
        "subnational1Code": "US-WY",
        "subnational2Code": "US-WY-037",
        "lat": 42.109064,
        "lng": -109.4491589,
        "latestObsDt": "2024-01-04 16:09",
        "numSpeciesAllTime": 96
    },
    {
        "locId": "L16919984",
        "locName": "Festo Lake",
        "countryCode": "US",
        "subnational1Code": "US-WY",
        "subnational2Code": "US-WY-031",
        "lat": 42.0768621,
        "lng": -104.9995431,
        "latestObsDt": "2023-11-21 13:16",
        "numSpeciesAllTime": 55
    },
    {
        "locId": "L18547488",
        "locName": "Fiddler's Lake Campground",
        "countryCode": "US",
        "subnational1Code": "US-WY",
        "subnational2Code": "US-WY-013",
        "lat": 42.6317401,
        "lng": -108.883139,
        "latestObsDt": "2022-07-03 17:17",
        "numSpeciesAllTime": 5
    },
    {
        "locId": "L10213921",
        "locName": "Fish Creek Rd",
        "countryCode": "US",
        "subnational1Code": "US-WY",
        "subnational2Code": "US-WY-039",
        "lat": 43.5294209,
        "lng": -110.8598326,
        "latestObsDt": "2023-10-13 13:45",
        "numSpeciesAllTime": 73
    },
    {
        "locId": "L10206880",
        "locName": "Fish Hatchery Bridge",
        "countryCode": "US",
        "subnational1Code": "US-WY",
        "subnational2Code": "US-WY-025",
        "lat": 42.7715457,
        "lng": -106.5304623,
        "latestObsDt": "2023-06-01 13:17",
        "numSpeciesAllTime": 104
    },
    {
        "locId": "L7674372",
        "locName": "Five Springs Falls CG",
        "countryCode": "US",
        "subnational1Code": "US-WY",
        "subnational2Code": "US-WY-003",
        "lat": 44.80502,
        "lng": -107.968651,
        "latestObsDt": "2023-07-19 14:33",
        "numSpeciesAllTime": 38
    },
    {
        "locId": "L4649696",
        "locName": "Flaming Gorge NRA--Buckboard Marina & campground area",
        "countryCode": "US",
        "subnational1Code": "US-WY",
        "subnational2Code": "US-WY-037",
        "lat": 41.2470956,
        "lng": -109.5972276,
        "latestObsDt": "2024-01-14 14:26",
        "numSpeciesAllTime": 80
    },
    {
        "locId": "L273052",
        "locName": "Flaming Gorge NRA--Firehole Canyon Campground",
        "countryCode": "US",
        "subnational1Code": "US-WY",
        "subnational2Code": "US-WY-037",
        "lat": 41.3502681,
        "lng": -109.4452858,
        "latestObsDt": "2023-11-22 14:00",
        "numSpeciesAllTime": 112
    },
    {
        "locId": "L475330",
        "locName": "Flaming Gorge NRA--Flaming Gorge Reservoir",
        "countryCode": "US",
        "subnational1Code": "US-WY",
        "subnational2Code": "US-WY-037",
        "lat": 41.1463453,
        "lng": -109.5508575,
        "latestObsDt": "2023-08-14 09:57",
        "numSpeciesAllTime": 99
    },
    {
        "locId": "L668868",
        "locName": "Flaming Gorge NRA--Henrys Fork wetlands",
        "countryCode": "US",
        "subnational1Code": "US-WY",
        "subnational2Code": "US-WY-037",
        "lat": 41.0019254,
        "lng": -109.6675873,
        "latestObsDt": "2023-09-15 08:25",
        "numSpeciesAllTime": 151
    },
    {
        "locId": "L271593",
        "locName": "Flat Creek Wildlife Observation Point and Marshes",
        "countryCode": "US",
        "subnational1Code": "US-WY",
        "subnational2Code": "US-WY-039",
        "lat": 43.4908574,
        "lng": -110.7611319,
        "latestObsDt": "2024-02-26 17:10",
        "numSpeciesAllTime": 187
    },
    {
        "locId": "L2217259",
        "locName": "Flat Creek on Saddle Butte",
        "countryCode": "US",
        "subnational1Code": "US-WY",
        "subnational2Code": "US-WY-039",
        "lat": 43.4828465,
        "lng": -110.765909,
        "latestObsDt": "2024-01-04 14:11",
        "numSpeciesAllTime": 90
    },
    {
        "locId": "L11805963",
        "locName": "Flying \"V\" Trail System",
        "countryCode": "US",
        "subnational1Code": "US-WY",
        "subnational2Code": "US-WY-045",
        "lat": 43.9592253,
        "lng": -104.1932062,
        "latestObsDt": "2024-02-11 14:05",
        "numSpeciesAllTime": 57
    },
    {
        "locId": "L25159278",
        "locName": "Fontenelle (town)",
        "countryCode": "US",
        "subnational1Code": "US-WY",
        "subnational2Code": "US-WY-023",
        "lat": 41.984666,
        "lng": -110.061385,
        "latestObsDt": "2023-06-12 11:35",
        "numSpeciesAllTime": 13
    },
    {
        "locId": "L1188145",
        "locName": "Fontenelle Migrant Trap (Tailrace CG, Dam, and Cottonwoods on West Bank)",
        "countryCode": "US",
        "subnational1Code": "US-WY",
        "subnational2Code": "US-WY-023",
        "lat": 42.0245665,
        "lng": -110.0614321,
        "latestObsDt": "2023-10-29 13:55",
        "numSpeciesAllTime": 194
    },
    {
        "locId": "L3633166",
        "locName": "Fontenelle Recreation Area and causeway",
        "countryCode": "US",
        "subnational1Code": "US-WY",
        "subnational2Code": "US-WY-023",
        "lat": 42.0803559,
        "lng": -110.1578522,
        "latestObsDt": "2023-11-10 06:31",
        "numSpeciesAllTime": 133
    },
    {
        "locId": "L428001",
        "locName": "Fontenelle Reservoir",
        "countryCode": "US",
        "subnational1Code": "US-WY",
        "subnational2Code": "US-WY-023",
        "lat": 42.0630579,
        "lng": -110.12043,
        "latestObsDt": "2023-10-17 06:50",
        "numSpeciesAllTime": 181
    },
    {
        "locId": "L18636163",
        "locName": "Fontenelle Reservoir--North End",
        "countryCode": "US",
        "subnational1Code": "US-WY",
        "subnational2Code": "US-WY-023",
        "lat": 42.1181804,
        "lng": -110.1505478,
        "latestObsDt": "2023-10-29 11:30",
        "numSpeciesAllTime": 122
    },
    {
        "locId": "L7699408",
        "locName": "Forces of the Northern Range Nature Trail",
        "countryCode": "US",
        "subnational1Code": "US-WY",
        "subnational2Code": "US-WY-029",
        "lat": 44.9596107,
        "lng": -110.5669051,
        "latestObsDt": "2023-10-27 08:25",
        "numSpeciesAllTime": 74
    },
    {
        "locId": "L4860712",
        "locName": "Forest Road 143",
        "countryCode": "US",
        "subnational1Code": "US-WY",
        "subnational2Code": "US-WY-033",
        "lat": 44.7814695,
        "lng": -107.7357531,
        "latestObsDt": "2023-08-30 10:44",
        "numSpeciesAllTime": 12
    },
    {
        "locId": "L24922573",
        "locName": "Fort Bridger SHS",
        "countryCode": "US",
        "subnational1Code": "US-WY",
        "subnational2Code": "US-WY-041",
        "lat": 41.3179834,
        "lng": -110.3912667,
        "latestObsDt": "2023-09-14 09:35",
        "numSpeciesAllTime": 33
    },
    {
        "locId": "L972133",
        "locName": "Fort Bridger State Museum",
        "countryCode": "US",
        "subnational1Code": "US-WY",
        "subnational2Code": "US-WY-041",
        "lat": 41.3168839,
        "lng": -110.3869557,
        "latestObsDt": "2023-07-01 13:57",
        "numSpeciesAllTime": 46
    },
    {
        "locId": "L961774",
        "locName": "Fort Casper",
        "countryCode": "US",
        "subnational1Code": "US-WY",
        "subnational2Code": "US-WY-025",
        "lat": 42.8368914,
        "lng": -106.3699722,
        "latestObsDt": "2023-06-17 14:00",
        "numSpeciesAllTime": 58
    },
    {
        "locId": "L9524433",
        "locName": "Fort Fetterman Historic Site",
        "countryCode": "US",
        "subnational1Code": "US-WY",
        "subnational2Code": "US-WY-009",
        "lat": 42.8430591,
        "lng": -105.4860449,
        "latestObsDt": "2022-04-26 15:11",
        "numSpeciesAllTime": 30
    },
    {
        "locId": "L1041784",
        "locName": "Fort Laramie (town)",
        "countryCode": "US",
        "subnational1Code": "US-WY",
        "subnational2Code": "US-WY-015",
        "lat": 42.2126774,
        "lng": -104.517643,
        "latestObsDt": "2023-09-28 14:27",
        "numSpeciesAllTime": 60
    },
    {
        "locId": "L801753",
        "locName": "Fort Laramie NHS",
        "countryCode": "US",
        "subnational1Code": "US-WY",
        "subnational2Code": "US-WY-015",
        "lat": 42.2046797,
        "lng": -104.5575929,
        "latestObsDt": "2024-01-01 08:17",
        "numSpeciesAllTime": 111
    },
    {
        "locId": "L1531119",
        "locName": "Fort Laramie NHS--Iron Bridge Confluence Trail",
        "countryCode": "US",
        "subnational1Code": "US-WY",
        "subnational2Code": "US-WY-015",
        "lat": 42.1995842,
        "lng": -104.5303109,
        "latestObsDt": "2024-01-25 13:32",
        "numSpeciesAllTime": 86
    },
    {
        "locId": "L5425179",
        "locName": "Fort Phil Kearny Historic Site",
        "countryCode": "US",
        "subnational1Code": "US-WY",
        "subnational2Code": "US-WY-019",
        "lat": 44.5323554,
        "lng": -106.8269777,
        "latestObsDt": "2023-12-14 11:39",
        "numSpeciesAllTime": 79
    },
    {
        "locId": "L3016945",
        "locName": "Fort Steele Rest Area",
        "countryCode": "US",
        "subnational1Code": "US-WY",
        "subnational2Code": "US-WY-007",
        "lat": 41.7542178,
        "lng": -106.9501448,
        "latestObsDt": "2023-12-17 14:29",
        "numSpeciesAllTime": 116
    },
    {
        "locId": "L16484597",
        "locName": "Fossil Butte NM, Aspen Nature Trail",
        "countryCode": "US",
        "subnational1Code": "US-WY",
        "subnational2Code": "US-WY-023",
        "lat": 41.8684417,
        "lng": -110.7768797,
        "latestObsDt": "2023-09-08 14:55",
        "numSpeciesAllTime": 57
    },
    {
        "locId": "L20453287",
        "locName": "Fossil Butte NM--Historic Quarry Trail",
        "countryCode": "US",
        "subnational1Code": "US-WY",
        "subnational2Code": "US-WY-023",
        "lat": 41.8331581,
        "lng": -110.7417803,
        "latestObsDt": "2023-08-26 12:48",
        "numSpeciesAllTime": 14
    },
    {
        "locId": "L1898729",
        "locName": "Fossil Butte National Monument",
        "countryCode": "US",
        "subnational1Code": "US-WY",
        "subnational2Code": "US-WY-023",
        "lat": 41.8590139,
        "lng": -110.7658339,
        "latestObsDt": "2023-09-06 17:27",
        "numSpeciesAllTime": 107
    },
    {
        "locId": "L1491994",
        "locName": "Fossil Butte National Monument--North Rim",
        "countryCode": "US",
        "subnational1Code": "US-WY",
        "subnational2Code": "US-WY-023",
        "lat": 41.8966002,
        "lng": -110.7767109,
        "latestObsDt": "2023-09-11 10:52",
        "numSpeciesAllTime": 64
    },
    {
        "locId": "L758268",
        "locName": "Fossil Butte National Monument--Visitor Center area",
        "countryCode": "US",
        "subnational1Code": "US-WY",
        "subnational2Code": "US-WY-023",
        "lat": 41.8372275,
        "lng": -110.7705867,
        "latestObsDt": "2023-07-11 15:30",
        "numSpeciesAllTime": 57
    },
    {
        "locId": "L18057056",
        "locName": "Fremont Lake Campground",
        "countryCode": "US",
        "subnational1Code": "US-WY",
        "subnational2Code": "US-WY-035",
        "lat": 42.9432469,
        "lng": -109.7936012,
        "latestObsDt": "2024-01-03 14:21",
        "numSpeciesAllTime": 68
    },
    {
        "locId": "L18938767",
        "locName": "Fremont Lake—Boat Ramp and Outlet",
        "countryCode": "US",
        "subnational1Code": "US-WY",
        "subnational2Code": "US-WY-035",
        "lat": 42.905258,
        "lng": -109.835539,
        "latestObsDt": "2023-07-17 19:58",
        "numSpeciesAllTime": 71
    },
    {
        "locId": "L18938753",
        "locName": "Fremont Lake—Sandy Beach",
        "countryCode": "US",
        "subnational1Code": "US-WY",
        "subnational2Code": "US-WY-035",
        "lat": 42.897787,
        "lng": -109.821333,
        "latestObsDt": "2023-06-28 14:10",
        "numSpeciesAllTime": 49
    },
    {
        "locId": "L9252839",
        "locName": "Game Creek Trail",
        "countryCode": "US",
        "subnational1Code": "US-WY",
        "subnational2Code": "US-WY-039",
        "lat": 43.394243,
        "lng": -110.715223,
        "latestObsDt": "2024-02-21 08:08",
        "numSpeciesAllTime": 77
    },
    {
        "locId": "L11774591",
        "locName": "Geiger Reservoir",
        "countryCode": "US",
        "subnational1Code": "US-WY",
        "subnational2Code": "US-WY-027",
        "lat": 43.3350622,
        "lng": -104.1622845,
        "latestObsDt": "2023-10-21 13:59",
        "numSpeciesAllTime": 51
    },
    {
        "locId": "L12160124",
        "locName": "Gibbs Road",
        "countryCode": "US",
        "subnational1Code": "US-WY",
        "subnational2Code": "US-WY-001",
        "lat": 41.3061756,
        "lng": -105.6407077,
        "latestObsDt": "2023-10-14 10:02",
        "numSpeciesAllTime": 72
    },
    {
        "locId": "L1397106",
        "locName": "Gillette (town)",
        "countryCode": "US",
        "subnational1Code": "US-WY",
        "subnational2Code": "US-WY-005",
        "lat": 44.2866778,
        "lng": -105.4963726,
        "latestObsDt": "2024-01-12 08:45",
        "numSpeciesAllTime": 110
    },
    {
        "locId": "L2478963",
        "locName": "Glasrock mining area (public land)",
        "countryCode": "US",
        "subnational1Code": "US-WY",
        "subnational2Code": "US-WY-029",
        "lat": 44.4365,
        "lng": -109.0324,
        "latestObsDt": "2023-08-20 08:46",
        "numSpeciesAllTime": 52
    },
    {
        "locId": "L9171838",
        "locName": "Glendo SP-- Glendo River inlet area",
        "countryCode": "US",
        "subnational1Code": "US-WY",
        "subnational2Code": "US-WY-031",
        "lat": 42.5800482,
        "lng": -105.0535889,
        "latestObsDt": "2023-10-15 17:00",
        "numSpeciesAllTime": 106
    },
    {
        "locId": "L6122120",
        "locName": "Glendo SP--Elk Hill Campground Area",
        "countryCode": "US",
        "subnational1Code": "US-WY",
        "subnational2Code": "US-WY-031",
        "lat": 42.559191,
        "lng": -105.029539,
        "latestObsDt": "2023-11-02 12:48",
        "numSpeciesAllTime": 73
    },
    {
        "locId": "L9369729",
        "locName": "Glendo SP--Muddy Bay area",
        "countryCode": "US",
        "subnational1Code": "US-WY",
        "subnational2Code": "US-WY-031",
        "lat": 42.5637017,
        "lng": -104.947165,
        "latestObsDt": "2023-09-28 10:42",
        "numSpeciesAllTime": 56
    },
    {
        "locId": "L9369224",
        "locName": "Glendo SP--Sandy Beach & Cottonwood Bay area",
        "countryCode": "US",
        "subnational1Code": "US-WY",
        "subnational2Code": "US-WY-031",
        "lat": 42.529719,
        "lng": -104.940752,
        "latestObsDt": "2023-09-21 11:51",
        "numSpeciesAllTime": 45
    },
    {
        "locId": "L6122073",
        "locName": "Glendo SP--West Shore",
        "countryCode": "US",
        "subnational1Code": "US-WY",
        "subnational2Code": "US-WY-031",
        "lat": 42.515739,
        "lng": -104.990823,
        "latestObsDt": "2024-01-23 13:46",
        "numSpeciesAllTime": 186
    },
    {
        "locId": "L2175613",
        "locName": "Glendo SP--Wetlands Trail",
        "countryCode": "US",
        "subnational1Code": "US-WY",
        "subnational2Code": "US-WY-031",
        "lat": 42.4772247,
        "lng": -104.9381018,
        "latestObsDt": "2024-02-01 09:59",
        "numSpeciesAllTime": 134
    },
    {
        "locId": "L19985159",
        "locName": "Glendo State Park--Two Moon CG",
        "countryCode": "US",
        "subnational1Code": "US-WY",
        "subnational2Code": "US-WY-031",
        "lat": 42.4722552,
        "lng": -104.9542809,
        "latestObsDt": "2024-02-02 07:38",
        "numSpeciesAllTime": 67
    },
    {
        "locId": "L5614113",
        "locName": "Glenrock Municipal Park",
        "countryCode": "US",
        "subnational1Code": "US-WY",
        "subnational2Code": "US-WY-009",
        "lat": 42.8647169,
        "lng": -105.8659083,
        "latestObsDt": "2024-02-06 07:23",
        "numSpeciesAllTime": 121
    },
    {
        "locId": "L14974967",
        "locName": "Glenrock South Recreation Complex",
        "countryCode": "US",
        "subnational1Code": "US-WY",
        "subnational2Code": "US-WY-009",
        "lat": 42.8346318,
        "lng": -105.8737278,
        "latestObsDt": "2023-06-24 08:44",
        "numSpeciesAllTime": 37
    },
    {
        "locId": "L961769",
        "locName": "Glenrock--Dave Johnson Power Plant--river ponds",
        "countryCode": "US",
        "subnational1Code": "US-WY",
        "subnational2Code": "US-WY-009",
        "lat": 42.8278904,
        "lng": -105.7993698,
        "latestObsDt": "2024-02-06 16:38",
        "numSpeciesAllTime": 105
    },
    {
        "locId": "L6864057",
        "locName": "Glenrock--Glenrock Cemetery",
        "countryCode": "US",
        "subnational1Code": "US-WY",
        "subnational2Code": "US-WY-009",
        "lat": 42.8524462,
        "lng": -105.8727958,
        "latestObsDt": "2023-01-12 09:16",
        "numSpeciesAllTime": 56
    },
    {
        "locId": "L5944624",
        "locName": "Grand Encampment Museum and Park",
        "countryCode": "US",
        "subnational1Code": "US-WY",
        "subnational2Code": "US-WY-007",
        "lat": 41.2034885,
        "lng": -106.7881876,
        "latestObsDt": "2023-08-04 09:25",
        "numSpeciesAllTime": 57
    },
    {
        "locId": "L6208104",
        "locName": "Grand Teton NP--Alaska Basin Trail (Sunset Lake to Buck Pass)",
        "countryCode": "US",
        "subnational1Code": "US-WY",
        "subnational2Code": "US-WY-039",
        "lat": 43.6996512,
        "lng": -110.838747,
        "latestObsDt": "2023-09-16 07:00",
        "numSpeciesAllTime": 63
    },
    {
        "locId": "L6214601",
        "locName": "Grand Teton NP--Amphitheater Lake Trail",
        "countryCode": "US",
        "subnational1Code": "US-WY",
        "subnational2Code": "US-WY-039",
        "lat": 43.7291385,
        "lng": -110.7686181,
        "latestObsDt": "2023-09-25 08:20",
        "numSpeciesAllTime": 91
    },
    {
        "locId": "L1238066",
        "locName": "Grand Teton NP--Antelope Flats",
        "countryCode": "US",
        "subnational1Code": "US-WY",
        "subnational2Code": "US-WY-039",
        "lat": 43.6720933,
        "lng": -110.6453705,
        "latestObsDt": "2024-02-10 10:49",
        "numSpeciesAllTime": 145
    },
    {
        "locId": "L4758315",
        "locName": "Grand Teton NP--Antelope Flats Rd",
        "countryCode": "US",
        "subnational1Code": "US-WY",
        "subnational2Code": "US-WY-039",
        "lat": 43.647855,
        "lng": -110.663918,
        "latestObsDt": "2024-02-18 09:39",
        "numSpeciesAllTime": 116
    },
    {
        "locId": "L9949167",
        "locName": "Grand Teton NP--Beaver Creek",
        "countryCode": "US",
        "subnational1Code": "US-WY",
        "subnational2Code": "US-WY-039",
        "lat": 43.686512,
        "lng": -110.735127,
        "latestObsDt": "2023-12-16 14:19",
        "numSpeciesAllTime": 70
    },
    {
        "locId": "L3240226",
        "locName": "Grand Teton NP--Blacktail Ponds Overlook",
        "countryCode": "US",
        "subnational1Code": "US-WY",
        "subnational2Code": "US-WY-039",
        "lat": 43.6672126,
        "lng": -110.6962466,
        "latestObsDt": "2024-01-08 14:27",
        "numSpeciesAllTime": 138
    },
    {
        "locId": "L16945450",
        "locName": "Grand Teton NP--Bradley Lake",
        "countryCode": "US",
        "subnational1Code": "US-WY",
        "subnational2Code": "US-WY-039",
        "lat": 43.7151491,
        "lng": -110.7516059,
        "latestObsDt": "2023-08-31 13:09",
        "numSpeciesAllTime": 46
    },
    {
        "locId": "L6208106",
        "locName": "Grand Teton NP--Buck Pass",
        "countryCode": "US",
        "subnational1Code": "US-WY",
        "subnational2Code": "US-WY-039",
        "lat": 43.6870454,
        "lng": -110.8298957,
        "latestObsDt": "2022-08-17 06:00",
        "numSpeciesAllTime": 10
    },
    {
        "locId": "L6208179",
        "locName": "Grand Teton NP--Buck Pass to Fox Creek Pass",
        "countryCode": "US",
        "subnational1Code": "US-WY",
        "subnational2Code": "US-WY-039",
        "lat": 43.6797599,
        "lng": -110.8780575,
        "latestObsDt": "2022-08-03 17:45",
        "numSpeciesAllTime": 24
    },
    {
        "locId": "L1239027",
        "locName": "Grand Teton NP--Cascade Canyon Trail",
        "countryCode": "US",
        "subnational1Code": "US-WY",
        "subnational2Code": "US-WY-039",
        "lat": 43.762943,
        "lng": -110.7757044,
        "latestObsDt": "2023-10-08 09:41",
        "numSpeciesAllTime": 132
    },
    {
        "locId": "L4960408",
        "locName": "Grand Teton NP--Cattleman's Bridge",
        "countryCode": "US",
        "subnational1Code": "US-WY",
        "subnational2Code": "US-WY-039",
        "lat": 43.8566258,
        "lng": -110.5533814,
        "latestObsDt": "2023-10-09 15:33",
        "numSpeciesAllTime": 121
    },
    {
        "locId": "L955859",
        "locName": "Grand Teton NP--Christian Pond",
        "countryCode": "US",
        "subnational1Code": "US-WY",
        "subnational2Code": "US-WY-039",
        "lat": 43.8759247,
        "lng": -110.565784,
        "latestObsDt": "2023-09-30 10:25",
        "numSpeciesAllTime": 147
    },