[
    {
        "locId": "L3786721",
        "locName": "101 Rd Playas",
        "countryCode": "US",
        "subnational1Code": "US-KS",
        "subnational2Code": "US-KS-057",
        "lat": 37.7278913,
        "lng": -100.1972008,
        "latestObsDt": "2022-05-01 06:12",
        "numSpeciesAllTime": 69
    },
    {
        "locId": "L3347324",
        "locName": "104 Rd. Playa Lake",
        "countryCode": "US",
        "subnational1Code": "US-KS",
        "subnational2Code": "US-KS-057",
        "lat": 37.907211,
        "lng": -100.154054,
        "latestObsDt": "2023-01-03 15:38",
        "numSpeciesAllTime": 94
    },
    {
        "locId": "L6112469",
        "locName": "1100 Rd. Wetlands",
        "countryCode": "US",
        "subnational1Code": "US-KS",
        "subnational2Code": "US-KS-205",
        "lat": 37.5305655,
        "lng": -95.901745,
        "latestObsDt": "2022-02-21 15:24",
        "numSpeciesAllTime": 18
    },
    {
        "locId": "L5376118",
        "locName": "1300 Rd. & 15th St. Strips Ponds",
        "countryCode": "US",
        "subnational1Code": "US-KS",
        "subnational2Code": "US-KS-205",
        "lat": 37.5590668,
        "lng": -95.8182374,
        "latestObsDt": "2024-02-01 12:01",
        "numSpeciesAllTime": 53
    },
    {
        "locId": "L3787084",
        "locName": "15 Rd. Playa Lakes (Y Rd. - Us Rte. 56)",
        "countryCode": "US",
        "subnational1Code": "US-KS",
        "subnational2Code": "US-KS-069",
        "lat": 37.627019,
        "lng": -100.39759,
        "latestObsDt": "2019-07-25 18:36",
        "numSpeciesAllTime": 42
    },
    {
        "locId": "L6572264",
        "locName": "160th Ave. Pond",
        "countryCode": "US",
        "subnational1Code": "US-KS",
        "subnational2Code": "US-KS-051",
        "lat": 38.836883,
        "lng": -99.4883037,
        "latestObsDt": "2023-09-06 09:43",
        "numSpeciesAllTime": 46
    },
    {
        "locId": "L2922275",
        "locName": "170th Rd. (Quivira NWR - 40th Ave.)",
        "countryCode": "US",
        "subnational1Code": "US-KS",
        "subnational2Code": "US-KS-185",
        "lat": 38.2024075,
        "lng": -98.5731554,
        "latestObsDt": "2024-02-08 16:15",
        "numSpeciesAllTime": 217
    },
    {
        "locId": "L2957849",
        "locName": "1st Rd. Playa Lake (Rice Co.)",
        "countryCode": "US",
        "subnational1Code": "US-KS",
        "subnational2Code": "US-KS-159",
        "lat": 38.3870656,
        "lng": -98.4791708,
        "latestObsDt": "2022-04-09 12:05",
        "numSpeciesAllTime": 118
    },
    {
        "locId": "L2525793",
        "locName": "2 Rd. Prairie-Dog Town",
        "countryCode": "US",
        "subnational1Code": "US-KS",
        "subnational2Code": "US-KS-163",
        "lat": 39.357363,
        "lng": -99.5867783,
        "latestObsDt": "2013-05-11 09:30",
        "numSpeciesAllTime": 16
    },
    {
        "locId": "L6771158",
        "locName": "20th St. & Remington Rd. Pond",
        "countryCode": "US",
        "subnational1Code": "US-KS",
        "subnational2Code": "US-KS-115",
        "lat": 38.0997516,
        "lng": -97.0434536,
        "latestObsDt": "2023-11-15 09:50",
        "numSpeciesAllTime": 123
    },
    {
        "locId": "L19563187",
        "locName": "23000 Rd. Wetlands",
        "countryCode": "US",
        "subnational1Code": "US-KS",
        "subnational2Code": "US-KS-099",
        "lat": 37.3256088,
        "lng": -95.0941105,
        "latestObsDt": "2023-09-18 15:42",
        "numSpeciesAllTime": 76
    },
    {
        "locId": "L15360834",
        "locName": "23rd St. Bike Park, Pittsburg",
        "countryCode": "US",
        "subnational1Code": "US-KS",
        "subnational2Code": "US-KS-037",
        "lat": 37.4289728,
        "lng": -94.6923842,
        "latestObsDt": "2022-07-29 13:30",
        "numSpeciesAllTime": 22
    },
    {
        "locId": "L3752398",
        "locName": "274th Rd. & Osage Rd. Pond",
        "countryCode": "US",
        "subnational1Code": "US-KS",
        "subnational2Code": "US-KS-005",
        "lat": 39.5435825,
        "lng": -95.1976383,
        "latestObsDt": "2023-09-16 13:21",
        "numSpeciesAllTime": 70
    },
    {
        "locId": "L8996117",
        "locName": "2nd St. Rd. & Rd. 16 Playa Lakes",
        "countryCode": "US",
        "subnational1Code": "US-KS",
        "subnational2Code": "US-KS-189",
        "lat": 37.0395037,
        "lng": -101.2826965,
        "latestObsDt": "2021-10-25 13:49",
        "numSpeciesAllTime": 22
    },
    {
        "locId": "L3906091",
        "locName": "310th Ave. Pond",
        "countryCode": "US",
        "subnational1Code": "US-KS",
        "subnational2Code": "US-KS-051",
        "lat": 39.0938875,
        "lng": -99.1994673,
        "latestObsDt": "2023-10-06 15:04",
        "numSpeciesAllTime": 54
    },
    {
        "locId": "L3558915",
        "locName": "3rd Ave. Playa Lake",
        "countryCode": "US",
        "subnational1Code": "US-KS",
        "subnational2Code": "US-KS-097",
        "lat": 37.499871,
        "lng": -99.538859,
        "latestObsDt": "2023-05-29 06:33",
        "numSpeciesAllTime": 47
    },
    {
        "locId": "L4763627",
        "locName": "4th Ave. Ponds",
        "countryCode": "US",
        "subnational1Code": "US-KS",
        "subnational2Code": "US-KS-113",
        "lat": 38.3871749,
        "lng": -97.8504449,
        "latestObsDt": "2017-05-11 10:56",
        "numSpeciesAllTime": 18
    },
    {
        "locId": "L6565593",
        "locName": "55th St. Pond",
        "countryCode": "US",
        "subnational1Code": "US-KS",
        "subnational2Code": "US-KS-051",
        "lat": 38.9156965,
        "lng": -99.3123293,
        "latestObsDt": "2023-07-17 18:26",
        "numSpeciesAllTime": 118
    },
    {
        "locId": "L3002985",
        "locName": "73rd Rd. (O St. - 76th Rd.)",
        "countryCode": "US",
        "subnational1Code": "US-KS",
        "subnational2Code": "US-KS-097",
        "lat": 37.4937156,
        "lng": -99.082759,
        "latestObsDt": "2023-03-24 09:17",
        "numSpeciesAllTime": 139
    },
    {
        "locId": "L7351584",
        "locName": "73rd Rd. Lake",
        "countryCode": "US",
        "subnational1Code": "US-KS",
        "subnational2Code": "US-KS-097",
        "lat": 37.4742667,
        "lng": -99.0879013,
        "latestObsDt": "2022-12-08 16:56",
        "numSpeciesAllTime": 112
    },
    {
        "locId": "L768041",
        "locName": "79th St. Mudflats",
        "countryCode": "US",
        "subnational1Code": "US-KS",
        "subnational2Code": "US-KS-173",
        "lat": 37.5486604,
        "lng": -97.4162006,
        "latestObsDt": "2014-12-23 15:14",
        "numSpeciesAllTime": 54
    },
    {
        "locId": "L4771771",
        "locName": "Abilene Cemetery",
        "countryCode": "US",
        "subnational1Code": "US-KS",
        "subnational2Code": "US-KS-041",
        "lat": 38.9320724,
        "lng": -97.2220934,
        "latestObsDt": "2023-06-29 07:30",
        "numSpeciesAllTime": 42
    },
    {
        "locId": "L4767374",
        "locName": "Achenbach Memorial Park",
        "countryCode": "US",
        "subnational1Code": "US-KS",
        "subnational2Code": "US-KS-007",
        "lat": 37.0179138,
        "lng": -98.6498183,
        "latestObsDt": "2024-02-19 08:23",
        "numSpeciesAllTime": 25
    },
    {
        "locId": "L3103619",
        "locName": "Achterberg Farm (restricted access)",
        "countryCode": "US",
        "subnational1Code": "US-KS",
        "subnational2Code": "US-KS-105",
        "lat": 38.9956962,
        "lng": -98.1905973,
        "latestObsDt": "2024-02-21 15:42",
        "numSpeciesAllTime": 83
    },
    {
        "locId": "L6437453",
        "locName": "Ad Astra Park",
        "countryCode": "US",
        "subnational1Code": "US-KS",
        "subnational2Code": "US-KS-091",
        "lat": 38.97913,
        "lng": -94.7686431,
        "latestObsDt": "2023-05-13 09:19",
        "numSpeciesAllTime": 30
    },
    {
        "locId": "L2633877",
        "locName": "Alamota Rd. Prairie-Dog Town",
        "countryCode": "US",
        "subnational1Code": "US-KS",
        "subnational2Code": "US-KS-101",
        "lat": 38.4588313,
        "lng": -100.2968717,
        "latestObsDt": "2023-12-11 11:20",
        "numSpeciesAllTime": 36
    },
    {
        "locId": "L879224",
        "locName": "Alcove Spring Park",
        "countryCode": "US",
        "subnational1Code": "US-KS",
        "subnational2Code": "US-KS-117",
        "lat": 39.7498094,
        "lng": -96.6789176,
        "latestObsDt": "2023-11-10 10:00",
        "numSpeciesAllTime": 137
    },
    {
        "locId": "L4771758",
        "locName": "Alden WTP",
        "countryCode": "US",
        "subnational1Code": "US-KS",
        "subnational2Code": "US-KS-159",
        "lat": 38.2326519,
        "lng": -98.3083034,
        "latestObsDt": "2024-02-09 13:38",
        "numSpeciesAllTime": 12
    },
    {
        "locId": "L3611760",
        "locName": "Alexander Rest Area",
        "countryCode": "US",
        "subnational1Code": "US-KS",
        "subnational2Code": "US-KS-165",
        "lat": 38.465972,
        "lng": -99.5583147,
        "latestObsDt": "2023-12-05 15:02",
        "numSpeciesAllTime": 47
    },
    {
        "locId": "L8510159",
        "locName": "Alford Cemetery",
        "countryCode": "US",
        "subnational1Code": "US-KS",
        "subnational2Code": "US-KS-019",
        "lat": 37.1191612,
        "lng": -96.1097445,
        "latestObsDt": "2017-02-10 00:00",
        "numSpeciesAllTime": 9
    },
    {
        "locId": "L19215459",
        "locName": "Allegawaho Memorial Heritage Park",
        "countryCode": "US",
        "subnational1Code": "US-KS",
        "subnational2Code": "US-KS-127",
        "lat": 38.6270816,
        "lng": -96.4297699,
        "latestObsDt": "2023-10-04 13:34",
        "numSpeciesAllTime": 26
    },
    {
        "locId": "L4788552",
        "locName": "Allen Lake",
        "countryCode": "US",
        "subnational1Code": "US-KS",
        "subnational2Code": "US-KS-133",
        "lat": 37.7221207,
        "lng": -95.4393375,
        "latestObsDt": "2022-02-22 16:59",
        "numSpeciesAllTime": 7
    },
    {
        "locId": "L4771747",
        "locName": "Alma Cemetery",
        "countryCode": "US",
        "subnational1Code": "US-KS",
        "subnational2Code": "US-KS-197",
        "lat": 39.0157493,
        "lng": -96.2987816,
        "latestObsDt": "2023-02-04 15:39",
        "numSpeciesAllTime": 18
    },
    {
        "locId": "L612070",
        "locName": "Alma City Reservoir",
        "countryCode": "US",
        "subnational1Code": "US-KS",
        "subnational2Code": "US-KS-197",
        "lat": 38.9792699,
        "lng": -96.2613916,
        "latestObsDt": "2023-04-09 08:28",
        "numSpeciesAllTime": 97
    },
    {
        "locId": "L612067",
        "locName": "Alma WTP",
        "countryCode": "US",
        "subnational1Code": "US-KS",
        "subnational2Code": "US-KS-197",
        "lat": 39.0088196,
        "lng": -96.2833053,
        "latestObsDt": "2023-11-14 11:48",
        "numSpeciesAllTime": 110
    },
    {
        "locId": "L4771739",
        "locName": "Almena WTP",
        "countryCode": "US",
        "subnational1Code": "US-KS",
        "subnational2Code": "US-KS-137",
        "lat": 39.8995637,
        "lng": -99.6904832,
        "latestObsDt": "2023-12-23 09:52",
        "numSpeciesAllTime": 24
    },
    {
        "locId": "L4771732",
        "locName": "Alta Vista WTP",
        "countryCode": "US",
        "subnational1Code": "US-KS",
        "subnational2Code": "US-KS-197",
        "lat": 38.856135,
        "lng": -96.4837736,
        "latestObsDt": "2021-11-24 12:23",
        "numSpeciesAllTime": 17
    },
    {
        "locId": "L4771735",
        "locName": "Altamont WTP",
        "countryCode": "US",
        "subnational1Code": "US-KS",
        "subnational2Code": "US-KS-099",
        "lat": 37.1789454,
        "lng": -95.2942246,
        "latestObsDt": "2019-03-11 11:24",
        "numSpeciesAllTime": 66
    },
    {
        "locId": "L6441651",
        "locName": "Alvey Park",
        "countryCode": "US",
        "subnational1Code": "US-KS",
        "subnational2Code": "US-KS-209",
        "lat": 39.0752851,
        "lng": -94.6894723
    },
    {
        "locId": "L4913189",
        "locName": "Americus WTP",
        "countryCode": "US",
        "subnational1Code": "US-KS",
        "subnational2Code": "US-KS-111",
        "lat": 38.4972314,
        "lng": -96.2574181,
        "latestObsDt": "2023-01-28 09:15",
        "numSpeciesAllTime": 26
    },
    {
        "locId": "L2389977",
        "locName": "Amesbury Lake Park",
        "countryCode": "US",
        "subnational1Code": "US-KS",
        "subnational2Code": "US-KS-091",
        "lat": 38.8711888,
        "lng": -94.7314596,
        "latestObsDt": "2024-01-31 12:39",
        "numSpeciesAllTime": 57
    },
    {
        "locId": "L6437536",
        "locName": "Amesbury Park",
        "countryCode": "US",
        "subnational1Code": "US-KS",
        "subnational2Code": "US-KS-091",
        "lat": 38.8745466,
        "lng": -94.7263634,
        "latestObsDt": "2023-12-16 08:00",
        "numSpeciesAllTime": 49
    },
    {
        "locId": "L4750463",
        "locName": "Andover Central Park",
        "countryCode": "US",
        "subnational1Code": "US-KS",
        "subnational2Code": "US-KS-015",
        "lat": 37.6900778,
        "lng": -97.1199453,
        "latestObsDt": "2023-06-09 08:30",
        "numSpeciesAllTime": 76
    },
    {
        "locId": "L4612754",
        "locName": "Angel Falls Trail",
        "countryCode": "US",
        "subnational1Code": "US-KS",
        "subnational2Code": "US-KS-103",
        "lat": 39.2487142,
        "lng": -94.914912,
        "latestObsDt": "2023-12-23 13:39",
        "numSpeciesAllTime": 138
    },
    {
        "locId": "L2237835",
        "locName": "Angel Lake, Medicine Lodge",
        "countryCode": "US",
        "subnational1Code": "US-KS",
        "subnational2Code": "US-KS-007",
        "lat": 37.2885992,
        "lng": -98.5746789,
        "latestObsDt": "2024-01-20 15:37",
        "numSpeciesAllTime": 103
    },
    {
        "locId": "L908186",
        "locName": "Antelope Lake",
        "countryCode": "US",
        "subnational1Code": "US-KS",
        "subnational2Code": "US-KS-065",
        "lat": 39.373919,
        "lng": -100.112164,
        "latestObsDt": "2024-02-17 09:24",
        "numSpeciesAllTime": 164
    },
    {
        "locId": "L4771577",
        "locName": "Anthony Cemetery",
        "countryCode": "US",
        "subnational1Code": "US-KS",
        "subnational2Code": "US-KS-077",
        "lat": 37.147738,
        "lng": -98.0193114,
        "latestObsDt": "2023-06-30 10:42",
        "numSpeciesAllTime": 23
    },
    {
        "locId": "L2442118",
        "locName": "Anthony Municipal Lake",
        "countryCode": "US",
        "subnational1Code": "US-KS",
        "subnational2Code": "US-KS-077",
        "lat": 37.1778124,
        "lng": -98.051065,
        "latestObsDt": "2024-01-28 11:53",
        "numSpeciesAllTime": 194
    },
    {
        "locId": "L2442144",
        "locName": "Anthony WTP",
        "countryCode": "US",
        "subnational1Code": "US-KS",
        "subnational2Code": "US-KS-077",
        "lat": 37.1371502,
        "lng": -98.0407262,
        "latestObsDt": "2024-01-01 12:21",
        "numSpeciesAllTime": 145
    },
    {
        "locId": "L6437548",
        "locName": "Antioch Acres Park",
        "countryCode": "US",
        "subnational1Code": "US-KS",
        "subnational2Code": "US-KS-091",
        "lat": 38.9958533,
        "lng": -94.6808115,
        "latestObsDt": "2024-01-13 15:50",
        "numSpeciesAllTime": 28
    },
    {
        "locId": "L6447130",
        "locName": "Antioch Cemetery",
        "countryCode": "US",
        "subnational1Code": "US-KS",
        "subnational2Code": "US-KS-059",
        "lat": 38.538767,
        "lng": -95.3597724,
        "latestObsDt": "2022-03-01 13:33",
        "numSpeciesAllTime": 2
    },
    {
        "locId": "L144862",
        "locName": "Antioch Park",
        "countryCode": "US",
        "subnational1Code": "US-KS",
        "subnational2Code": "US-KS-091",
        "lat": 39.0095571,
        "lng": -94.6841612,
        "latestObsDt": "2024-02-24 15:24",
        "numSpeciesAllTime": 173
    },
    {
        "locId": "L2977098",
        "locName": "Appleton Township Cemetery & Playa Lake",
        "countryCode": "US",
        "subnational1Code": "US-KS",
        "subnational2Code": "US-KS-025",
        "lat": 37.4001646,
        "lng": -100.0061417,
        "latestObsDt": "2023-10-26 14:26",
        "numSpeciesAllTime": 54
    },
    {
        "locId": "L6437579",
        "locName": "Arapaho Park",
        "countryCode": "US",
        "subnational1Code": "US-KS",
        "subnational2Code": "US-KS-091",
        "lat": 38.9051858,
        "lng": -94.7669452,
        "latestObsDt": "2022-03-01 14:06",
        "numSpeciesAllTime": 1
    },
    {
        "locId": "L633654",
        "locName": "Arbor Day Memorial Park",
        "countryCode": "US",
        "subnational1Code": "US-KS",
        "subnational2Code": "US-KS-173",
        "lat": 37.5445773,
        "lng": -97.254281,
        "latestObsDt": "2020-04-07 12:15",
        "numSpeciesAllTime": 22
    },
    {
        "locId": "L4771569",
        "locName": "Arcadia Cemetery",
        "countryCode": "US",
        "subnational1Code": "US-KS",
        "subnational2Code": "US-KS-037",
        "lat": 37.6535,
        "lng": -94.6280095
    },
    {
        "locId": "L3738034",
        "locName": "Arikaree Breaks--Rd. 2",
        "countryCode": "US",
        "subnational1Code": "US-KS",
        "subnational2Code": "US-KS-023",
        "lat": 39.9429666,
        "lng": -102.0299381,
        "latestObsDt": "2023-05-21 14:04",
        "numSpeciesAllTime": 42
    },
    {
        "locId": "L3753706",
        "locName": "Arikaree River--Rd. DD",
        "countryCode": "US",
        "subnational1Code": "US-KS",
        "subnational2Code": "US-KS-023",
        "lat": 39.9841645,
        "lng": -102.0328631,
        "latestObsDt": "2023-10-10 09:09",
        "numSpeciesAllTime": 88
    },
    {
        "locId": "L836480",
        "locName": "Arkalon Park",
        "countryCode": "US",
        "subnational1Code": "US-KS",
        "subnational2Code": "US-KS-175",
        "lat": 37.1463269,
        "lng": -100.7672882,
        "latestObsDt": "2023-07-24 10:00",
        "numSpeciesAllTime": 209
    },
    {
        "locId": "L4293769",
        "locName": "Arkansas River--12th Rd. Access",
        "countryCode": "US",
        "subnational1Code": "US-KS",
        "subnational2Code": "US-KS-159",
        "lat": 38.1938052,
        "lng": -98.2704493,
        "latestObsDt": "2021-12-04 07:50",
        "numSpeciesAllTime": 56
    },
    {
        "locId": "L4715697",
        "locName": "Arkansas River--130 Rd.",
        "countryCode": "US",
        "subnational1Code": "US-KS",
        "subnational2Code": "US-KS-191",
        "lat": 37.449505,
        "lng": -97.240812,
        "latestObsDt": "2020-10-07 08:35",
        "numSpeciesAllTime": 20
    },
    {
        "locId": "L2140766",
        "locName": "Arkansas River--131 Rd.",
        "countryCode": "US",
        "subnational1Code": "US-KS",
        "subnational2Code": "US-KS-057",
        "lat": 37.6575792,
        "lng": -99.6413827,
        "latestObsDt": "2022-05-14 13:52",
        "numSpeciesAllTime": 76
    },
    {
        "locId": "L931037",
        "locName": "Arkansas River--71st St. Access",
        "countryCode": "US",
        "subnational1Code": "US-KS",
        "subnational2Code": "US-KS-173",
        "lat": 37.5659662,
        "lng": -97.2886309,
        "latestObsDt": "2024-02-26 08:15",
        "numSpeciesAllTime": 203
    },
    {
        "locId": "L3331442",
        "locName": "Arkansas River--A Rd (Pawnee Co.)",
        "countryCode": "US",
        "subnational1Code": "US-KS",
        "subnational2Code": "US-KS-145",
        "lat": 38.0013155,
        "lng": -99.3178439,
        "latestObsDt": "2021-06-22 12:30",
        "numSpeciesAllTime": 41
    },
    {
        "locId": "L4293784",
        "locName": "Arkansas River--Alden Access",
        "countryCode": "US",
        "subnational1Code": "US-KS",
        "subnational2Code": "US-KS-159",
        "lat": 38.2077969,
        "lng": -98.3204243,
        "latestObsDt": "2019-10-03 17:01",
        "numSpeciesAllTime": 68
    },
    {
        "locId": "L4734513",
        "locName": "Arkansas River--Burley Bend",
        "countryCode": "US",
        "subnational1Code": "US-KS",
        "subnational2Code": "US-KS-191",
        "lat": 37.391049,
        "lng": -97.192886,
        "latestObsDt": "2023-10-23 13:57",
        "numSpeciesAllTime": 34
    },
    {
        "locId": "L4788484",
        "locName": "Arkansas River--Coolidge Access",
        "countryCode": "US",
        "subnational1Code": "US-KS",
        "subnational2Code": "US-KS-075",
        "lat": 38.0281152,
        "lng": -102.0115301,
        "latestObsDt": "2023-10-14 15:45",
        "numSpeciesAllTime": 58
    },
    {
        "locId": "L4765913",
        "locName": "Arkansas River--Nickerson Access",
        "countryCode": "US",
        "subnational1Code": "US-KS",
        "subnational2Code": "US-KS-155",
        "lat": 38.1311472,
        "lng": -98.0869809,
        "latestObsDt": "2023-12-31 09:26",
        "numSpeciesAllTime": 91
    },
    {
        "locId": "L7220650",
        "locName": "Arkansas River--Public Paddle Access",
        "countryCode": "US",
        "subnational1Code": "US-KS",
        "subnational2Code": "US-KS-173",
        "lat": 37.6929692,
        "lng": -97.3582723,
        "latestObsDt": "2024-02-18 16:47",
        "numSpeciesAllTime": 108
    },
    {
        "locId": "L2059283",
        "locName": "Arkansas River--Rainbow Bend Bridge",
        "countryCode": "US",
        "subnational1Code": "US-KS",
        "subnational2Code": "US-KS-035",
        "lat": 37.1868222,
        "lng": -97.1225014,
        "latestObsDt": "2024-02-11 12:52",
        "numSpeciesAllTime": 33
    },
    {
        "locId": "L2792968",
        "locName": "Arkansas River--Raymond Access",
        "countryCode": "US",
        "subnational1Code": "US-KS",
        "subnational2Code": "US-KS-159",
        "lat": 38.2687097,
        "lng": -98.4163535,
        "latestObsDt": "2022-08-15 12:25",
        "numSpeciesAllTime": 70
    },
    {
        "locId": "L2858503",
        "locName": "Arkansas River--Rd. Y",
        "countryCode": "US",
        "subnational1Code": "US-KS",
        "subnational2Code": "US-KS-075",
        "lat": 37.9298168,
        "lng": -101.5490663,
        "latestObsDt": "2024-02-14 16:03",
        "numSpeciesAllTime": 70
    },
    {
        "locId": "L4762953",
        "locName": "Arkansas River--W 4th Ave. Access",
        "countryCode": "US",
        "subnational1Code": "US-KS",
        "subnational2Code": "US-KS-155",
        "lat": 38.0578404,
        "lng": -97.9926234,
        "latestObsDt": "2023-12-17 12:19",
        "numSpeciesAllTime": 100
    },
    {
        "locId": "L4762935",
        "locName": "Arkansas River--W Lincoln St. Access",
        "countryCode": "US",
        "subnational1Code": "US-KS",
        "subnational2Code": "US-KS-173",
        "lat": 37.6701628,
        "lng": -97.343329,
        "latestObsDt": "2024-02-12 10:49",
        "numSpeciesAllTime": 32
    },
    {
        "locId": "L3557827",
        "locName": "Arkansas River--Worthington Rd.",
        "countryCode": "US",
        "subnational1Code": "US-KS",
        "subnational2Code": "US-KS-155",
        "lat": 37.9205495,
        "lng": -97.720449,
        "latestObsDt": "2020-05-13 18:40",
        "numSpeciesAllTime": 44
    },
    {
        "locId": "L4771555",
        "locName": "Arlington City Park",
        "countryCode": "US",
        "subnational1Code": "US-KS",
        "subnational2Code": "US-KS-155",
        "lat": 37.8929322,
        "lng": -98.1805041,
        "latestObsDt": "2024-02-03 08:29",
        "numSpeciesAllTime": 46
    },
    {
        "locId": "L2818045",
        "locName": "Arma WTP",
        "countryCode": "US",
        "subnational1Code": "US-KS",
        "subnational2Code": "US-KS-037",
        "lat": 37.5376441,
        "lng": -94.7115684,
        "latestObsDt": "2024-02-16 13:45",
        "numSpeciesAllTime": 77
    },
    {
        "locId": "L4822076",
        "locName": "Arnold (town)",
        "countryCode": "US",
        "subnational1Code": "US-KS",
        "subnational2Code": "US-KS-135",
        "lat": 38.6390983,
        "lng": -100.0470024,
        "latestObsDt": "2023-01-07 16:44",
        "numSpeciesAllTime": 10
    },
    {
        "locId": "L6437580",
        "locName": "Arrowhead Park, Olathe",
        "countryCode": "US",
        "subnational1Code": "US-KS",
        "subnational2Code": "US-KS-091",
        "lat": 38.8577499,
        "lng": -94.7887972,
        "latestObsDt": "2023-12-16 09:43",
        "numSpeciesAllTime": 53
    },
    {
        "locId": "L4825305",
        "locName": "Ashland (town)",
        "countryCode": "US",
        "subnational1Code": "US-KS",
        "subnational2Code": "US-KS-025",
        "lat": 37.1884761,
        "lng": -99.7658104,
        "latestObsDt": "2023-05-29 12:12",
        "numSpeciesAllTime": 41
    },
    {
        "locId": "L1065474",
        "locName": "Ashland Bottoms",
        "countryCode": "US",
        "subnational1Code": "US-KS",
        "subnational2Code": "US-KS-161",
        "lat": 39.1524276,
        "lng": -96.5904236,
        "latestObsDt": "2023-03-22 08:31",
        "numSpeciesAllTime": 91
    },
    {
        "locId": "L3447945",
        "locName": "Ashland Cemetery",
        "countryCode": "US",
        "subnational1Code": "US-KS",
        "subnational2Code": "US-KS-025",
        "lat": 37.1993088,
        "lng": -99.7479844,
        "latestObsDt": "2023-05-27 09:09",
        "numSpeciesAllTime": 16
    },
    {
        "locId": "L1962599",
        "locName": "Ashland City Park",
        "countryCode": "US",
        "subnational1Code": "US-KS",
        "subnational2Code": "US-KS-025",
        "lat": 37.1880316,
        "lng": -99.7629941,
        "latestObsDt": "2023-09-22 15:02",
        "numSpeciesAllTime": 66
    },
    {
        "locId": "L4554522",
        "locName": "Ashland Rest Area & E Branch Bear Creek",
        "countryCode": "US",
        "subnational1Code": "US-KS",
        "subnational2Code": "US-KS-025",
        "lat": 37.1920173,
        "lng": -99.7597269,
        "latestObsDt": "2020-11-26 13:26",
        "numSpeciesAllTime": 50
    },
    {
        "locId": "L4771547",
        "locName": "Assaria WTP",
        "countryCode": "US",
        "subnational1Code": "US-KS",
        "subnational2Code": "US-KS-169",
        "lat": 38.680937,
        "lng": -97.5864726,
        "latestObsDt": "2019-06-24 12:44",
        "numSpeciesAllTime": 19
    },
    {
        "locId": "L2525437",
        "locName": "Atchison Riverfront Park",
        "countryCode": "US",
        "subnational1Code": "US-KS",
        "subnational2Code": "US-KS-005",
        "lat": 39.5631505,
        "lng": -95.113374,
        "latestObsDt": "2024-02-08 09:00",
        "numSpeciesAllTime": 96
    },
    {
        "locId": "L610961",
        "locName": "Atchison SFL",
        "countryCode": "US",
        "subnational1Code": "US-KS",
        "subnational2Code": "US-KS-005",
        "lat": 39.6354395,
        "lng": -95.1734447,
        "latestObsDt": "2024-02-10 10:51",
        "numSpeciesAllTime": 223
    },
    {
        "locId": "L4771535",
        "locName": "Attica Cemetery",
        "countryCode": "US",
        "subnational1Code": "US-KS",
        "subnational2Code": "US-KS-077",
        "lat": 37.2385137,
        "lng": -98.2455692,
        "latestObsDt": "2017-09-14 13:10",
        "numSpeciesAllTime": 14
    },
    {
        "locId": "L4589136",
        "locName": "Attica WTP",
        "countryCode": "US",
        "subnational1Code": "US-KS",
        "subnational2Code": "US-KS-077",
        "lat": 37.2337851,
        "lng": -98.2321603,
        "latestObsDt": "2023-03-30 19:44",
        "numSpeciesAllTime": 43
    },
    {
        "locId": "L4816347",
        "locName": "Atwood (town)",
        "countryCode": "US",
        "subnational1Code": "US-KS",
        "subnational2Code": "US-KS-153",
        "lat": 39.8075388,
        "lng": -101.04222,
        "latestObsDt": "2024-01-28 13:00",
        "numSpeciesAllTime": 57
    },
    {
        "locId": "L2366974",
        "locName": "Atwood Lake",
        "countryCode": "US",
        "subnational1Code": "US-KS",
        "subnational2Code": "US-KS-153",
        "lat": 39.8160109,
        "lng": -101.0413992,
        "latestObsDt": "2024-02-26 16:04",
        "numSpeciesAllTime": 143
    },
    {
        "locId": "L2366971",
        "locName": "Atwood WTP",
        "countryCode": "US",
        "subnational1Code": "US-KS",
        "subnational2Code": "US-KS-153",
        "lat": 39.8199582,
        "lng": -101.0284817,
        "latestObsDt": "2024-02-26 16:23",
        "numSpeciesAllTime": 125
    },
    {
        "locId": "L292461",
        "locName": "Auburn (town)",
        "countryCode": "US",
        "subnational1Code": "US-KS",
        "subnational2Code": "US-KS-177",
        "lat": 38.9066619,
        "lng": -95.8170429,
        "latestObsDt": "2022-04-30 06:57",
        "numSpeciesAllTime": 150
    },
    {
        "locId": "L4771533",
        "locName": "Auburn Cemetery",
        "countryCode": "US",
        "subnational1Code": "US-KS",
        "subnational2Code": "US-KS-177",
        "lat": 38.9086673,
        "lng": -95.8344054,
        "latestObsDt": "2024-02-11 09:57",
        "numSpeciesAllTime": 135
    },
    {
        "locId": "L618662",
        "locName": "Augusta Lake",
        "countryCode": "US",
        "subnational1Code": "US-KS",
        "subnational2Code": "US-KS-015",
        "lat": 37.6998152,
        "lng": -96.9813395,
        "latestObsDt": "2024-02-21 13:20",
        "numSpeciesAllTime": 206
    },
    {
        "locId": "L2957221",
        "locName": "Ave. L Lake",
        "countryCode": "US",
        "subnational1Code": "US-KS",
        "subnational2Code": "US-KS-159",
        "lat": 38.405535,
        "lng": -97.987339,
        "latestObsDt": "2021-03-29 11:00",
        "numSpeciesAllTime": 29
    },
    {
        "locId": "L2885771",
        "locName": "Ave. L Wetlands",
        "countryCode": "US",
        "subnational1Code": "US-KS",
        "subnational2Code": "US-KS-033",
        "lat": 37.222925,
        "lng": -99.2587455,
        "latestObsDt": "2023-09-22 11:30",
        "numSpeciesAllTime": 80
    },
    {
        "locId": "L3460893",
        "locName": "Ave. M & Rd. 150 Watershed Pond",
        "countryCode": "US",
        "subnational1Code": "US-KS",
        "subnational2Code": "US-KS-165",
        "lat": 38.5262579,
        "lng": -99.4969832,
        "latestObsDt": "2023-09-04 11:02",
        "numSpeciesAllTime": 110
    },
    {
        "locId": "L5804475",
        "locName": "Ave. P & Rd. 260 Watershed Pond",
        "countryCode": "US",
        "subnational1Code": "US-KS",
        "subnational2Code": "US-KS-165",
        "lat": 38.4829389,
        "lng": -99.2953026,
        "latestObsDt": "2021-12-07 16:04",
        "numSpeciesAllTime": 43
    },
    {
        "locId": "L4771406",
        "locName": "Axtell Cemetery",
        "countryCode": "US",
        "subnational1Code": "US-KS",
        "subnational2Code": "US-KS-117",
        "lat": 39.8789505,
        "lng": -96.2668097,
        "latestObsDt": "2023-11-18 13:56",
        "numSpeciesAllTime": 39
    },
    {
        "locId": "L4763661",
        "locName": "Baker Cemetery",
        "countryCode": "US",
        "subnational1Code": "US-KS",
        "subnational2Code": "US-KS-059",
        "lat": 38.4375645,
        "lng": -95.1339895
    },
    {
        "locId": "L4760813",
        "locName": "Baker University Campus",
        "countryCode": "US",
        "subnational1Code": "US-KS",
        "subnational2Code": "US-KS-045",
        "lat": 38.7775524,
        "lng": -95.1876283,
        "latestObsDt": "2024-02-26 14:25",
        "numSpeciesAllTime": 68
    },
    {
        "locId": "L208634",
        "locName": "Baker Wetlands (general)",
        "countryCode": "US",
        "subnational1Code": "US-KS",
        "subnational2Code": "US-KS-045",
        "lat": 38.9234094,
        "lng": -95.232861,
        "latestObsDt": "2024-02-26 07:23",
        "numSpeciesAllTime": 285
    },
    {
        "locId": "L6345970",
        "locName": "Baker Wetlands--Central",
        "countryCode": "US",
        "subnational1Code": "US-KS",
        "subnational2Code": "US-KS-045",
        "lat": 38.9208977,
        "lng": -95.2328342,
        "latestObsDt": "2024-02-26 11:17",
        "numSpeciesAllTime": 253
    },
    {
        "locId": "L3536090",
        "locName": "Baker Wetlands--East Restoration",
        "countryCode": "US",
        "subnational1Code": "US-KS",
        "subnational2Code": "US-KS-045",
        "lat": 38.9208135,
        "lng": -95.2166927,
        "latestObsDt": "2024-02-26 09:02",
        "numSpeciesAllTime": 252
    },
    {
        "locId": "L1404666",
        "locName": "Baker Wetlands--West Restoration",
        "countryCode": "US",
        "subnational1Code": "US-KS",
        "subnational2Code": "US-KS-045",
        "lat": 38.9198707,
        "lng": -95.2486914,
        "latestObsDt": "2024-02-25 07:47",
        "numSpeciesAllTime": 265
    },
    {
        "locId": "L1768611",
        "locName": "Bala Park",
        "countryCode": "US",
        "subnational1Code": "US-KS",
        "subnational2Code": "US-KS-161",
        "lat": 39.307456,
        "lng": -96.9448312,
        "latestObsDt": "2023-11-22 10:43",
        "numSpeciesAllTime": 8
    },
    {
        "locId": "L3577891",
        "locName": "Baldwin City Lake",
        "countryCode": "US",
        "subnational1Code": "US-KS",
        "subnational2Code": "US-KS-045",
        "lat": 38.7543194,
        "lng": -95.1623267,
        "latestObsDt": "2023-11-11 10:37",
        "numSpeciesAllTime": 101
    },
    {
        "locId": "L548498",
        "locName": "Baldwin Woods (restricted access)",
        "countryCode": "US",
        "subnational1Code": "US-KS",
        "subnational2Code": "US-KS-045",
        "lat": 38.8098929,
        "lng": -95.1865339,
        "latestObsDt": "2023-09-13 08:19",
        "numSpeciesAllTime": 131
    },
    {
        "locId": "L600678",
        "locName": "Banner Creek Lake",
        "countryCode": "US",
        "subnational1Code": "US-KS",
        "subnational2Code": "US-KS-085",
        "lat": 39.4549527,
        "lng": -95.7727572,
        "latestObsDt": "2023-12-30 07:24",
        "numSpeciesAllTime": 227
    },
    {
        "locId": "L1433304",
        "locName": "Barber SFL",
        "countryCode": "US",
        "subnational1Code": "US-KS",
        "subnational2Code": "US-KS-007",
        "lat": 37.2972028,
        "lng": -98.5813844,
        "latestObsDt": "2024-02-13 13:49",
        "numSpeciesAllTime": 170
    },
    {
        "locId": "L1660467",
        "locName": "Bartlett Arboretum (restricted access)",
        "countryCode": "US",
        "subnational1Code": "US-KS",
        "subnational2Code": "US-KS-191",
        "lat": 37.3919101,
        "lng": -97.2854711,
        "latestObsDt": "2023-10-22 12:10",
        "numSpeciesAllTime": 70
    },
    {
        "locId": "L4763114",
        "locName": "Bartlett City Lake",
        "countryCode": "US",
        "subnational1Code": "US-KS",
        "subnational2Code": "US-KS-099",
        "lat": 37.0583451,
        "lng": -95.2154052,
        "latestObsDt": "2022-12-18 14:43",
        "numSpeciesAllTime": 14
    },
    {
        "locId": "L4763115",
        "locName": "Bartlett WTP",
        "countryCode": "US",
        "subnational1Code": "US-KS",
        "subnational2Code": "US-KS-099",
        "lat": 37.0619752,
        "lng": -95.2146703
    },
    {
        "locId": "L4760839",
        "locName": "Barton Community College Campus",
        "countryCode": "US",
        "subnational1Code": "US-KS",
        "subnational2Code": "US-KS-009",
        "lat": 38.4035739,
        "lng": -98.731674,
        "latestObsDt": "2022-05-13 11:05",
        "numSpeciesAllTime": 25
    },
    {
        "locId": "L3782134",
        "locName": "Barton St. Sandpits",
        "countryCode": "US",
        "subnational1Code": "US-KS",
        "subnational2Code": "US-KS-075",
        "lat": 37.9620204,
        "lng": -101.7427915,
        "latestObsDt": "2024-01-26 14:29",
        "numSpeciesAllTime": 38
    },
    {
        "locId": "L4770401",
        "locName": "Basehor City Park",
        "countryCode": "US",
        "subnational1Code": "US-KS",
        "subnational2Code": "US-KS-103",
        "lat": 39.1438244,
        "lng": -94.9476698,
        "latestObsDt": "2023-10-14 13:01",
        "numSpeciesAllTime": 39
    },
    {
        "locId": "L1739215",
        "locName": "Battin Park",
        "countryCode": "US",
        "subnational1Code": "US-KS",
        "subnational2Code": "US-KS-187",
        "lat": 37.5650841,
        "lng": -101.7471528,
        "latestObsDt": "2023-11-18 13:29",
        "numSpeciesAllTime": 62
    },
    {
        "locId": "L2895125",
        "locName": "Battle Canyon",
        "countryCode": "US",
        "subnational1Code": "US-KS",
        "subnational2Code": "US-KS-171",
        "lat": 38.643033,
        "lng": -100.9279954,
        "latestObsDt": "2024-02-22 14:53",
        "numSpeciesAllTime": 68
    },
    {
        "locId": "L2512677",
        "locName": "Baxter Springs Cemetery",
        "countryCode": "US",
        "subnational1Code": "US-KS",
        "subnational2Code": "US-KS-021",
        "lat": 37.0325952,
        "lng": -94.7697133,
        "latestObsDt": "2022-09-01 10:40",
        "numSpeciesAllTime": 76
    },
    {
        "locId": "L275785",
        "locName": "Baxter Springs City Park & WTP",
        "countryCode": "US",
        "subnational1Code": "US-KS",
        "subnational2Code": "US-KS-021",
        "lat": 37.0223596,
        "lng": -94.7217607,
        "latestObsDt": "2024-02-19 09:15",
        "numSpeciesAllTime": 174
    },
    {
        "locId": "L3752151",
        "locName": "Baxter Springs Massacre Site",
        "countryCode": "US",
        "subnational1Code": "US-KS",
        "subnational2Code": "US-KS-021",
        "lat": 37.067266,
        "lng": -94.7264707,
        "latestObsDt": "2023-07-16 10:00",
        "numSpeciesAllTime": 30
    },
    {
        "locId": "L10119531",
        "locName": "Bazaar Cattle Crossing Scenic Area",
        "countryCode": "US",
        "subnational1Code": "US-KS",
        "subnational2Code": "US-KS-017",
        "lat": 38.2284862,
        "lng": -96.4096012,
        "latestObsDt": "2023-12-31 16:16",
        "numSpeciesAllTime": 36
    },
    {
        "locId": "L8331297",
        "locName": "Bazaar Cemetery",
        "countryCode": "US",
        "subnational1Code": "US-KS",
        "subnational2Code": "US-KS-017",
        "lat": 38.2717502,
        "lng": -96.545659,
        "latestObsDt": "2022-08-27 12:37",
        "numSpeciesAllTime": 35
    },
    {
        "locId": "L4822063",
        "locName": "Bazine (town)",
        "countryCode": "US",
        "subnational1Code": "US-KS",
        "subnational2Code": "US-KS-135",
        "lat": 38.4449847,
        "lng": -99.691599,
        "latestObsDt": "2019-01-20 11:30",
        "numSpeciesAllTime": 13
    },
    {
        "locId": "L1475231",
        "locName": "Bazine WTP",
        "countryCode": "US",
        "subnational1Code": "US-KS",
        "subnational2Code": "US-KS-135",
        "lat": 38.4448322,
        "lng": -99.6835048,
        "latestObsDt": "2013-07-07 14:16",
        "numSpeciesAllTime": 44
    },
    {
        "locId": "L4766840",
        "locName": "Bean Cemetery",
        "countryCode": "US",
        "subnational1Code": "US-KS",
        "subnational2Code": "US-KS-159",
        "lat": 38.4063379,
        "lng": -97.9978591,
        "latestObsDt": "2017-04-30 09:02",
        "numSpeciesAllTime": 5
    },
    {
        "locId": "L2285674",
        "locName": "Bear Creek--Rd. X",
        "countryCode": "US",
        "subnational1Code": "US-KS",
        "subnational2Code": "US-KS-187",
        "lat": 37.522279,
        "lng": -101.99872,
        "latestObsDt": "2021-12-23 11:01",
        "numSpeciesAllTime": 70
    },
    {
        "locId": "L5411641",
        "locName": "Bear Lake (restricted access)",
        "countryCode": "US",
        "subnational1Code": "US-KS",
        "subnational2Code": "US-KS-103",
        "lat": 39.0482383,
        "lng": -94.9553215,
        "latestObsDt": "2020-12-18 16:57",
        "numSpeciesAllTime": 49
    },
    {
        "locId": "L4770399",
        "locName": "Beattie WTP",
        "countryCode": "US",
        "subnational1Code": "US-KS",
        "subnational2Code": "US-KS-117",
        "lat": 39.8563381,
        "lng": -96.426031,
        "latestObsDt": "2023-11-10 08:50",
        "numSpeciesAllTime": 47
    },
    {
        "locId": "L6429863",
        "locName": "Beaumont Hotel",
        "countryCode": "US",
        "subnational1Code": "US-KS",
        "subnational2Code": "US-KS-015",
        "lat": 37.6555747,
        "lng": -96.5328392,
        "latestObsDt": "2023-10-15 17:45",
        "numSpeciesAllTime": 26
    },
    {
        "locId": "L4745538",
        "locName": "Beaumont Rest Area",
        "countryCode": "US",
        "subnational1Code": "US-KS",
        "subnational2Code": "US-KS-073",
        "lat": 37.6632847,
        "lng": -96.510015,
        "latestObsDt": "2023-08-15 13:00",
        "numSpeciesAllTime": 26
    },
    {
        "locId": "L5531172",
        "locName": "Beaver Lake, Osawatomie",
        "countryCode": "US",
        "subnational1Code": "US-KS",
        "subnational2Code": "US-KS-121",
        "lat": 38.5292667,
        "lng": -94.9992862,
        "latestObsDt": "2020-04-25 11:45",
        "numSpeciesAllTime": 15
    },
    {
        "locId": "L4822072",
        "locName": "Beeler (town)",
        "countryCode": "US",
        "subnational1Code": "US-KS",
        "subnational2Code": "US-KS-135",
        "lat": 38.4450351,
        "lng": -100.1960474,
        "latestObsDt": "2023-06-02 14:57",
        "numSpeciesAllTime": 23
    },
    {
        "locId": "L633660",
        "locName": "Belle Plaine Cemetery",
        "countryCode": "US",
        "subnational1Code": "US-KS",
        "subnational2Code": "US-KS-191",
        "lat": 37.3866201,
        "lng": -97.28459,
        "latestObsDt": "2023-05-07 13:47",
        "numSpeciesAllTime": 76
    },
    {
        "locId": "L4745517",
        "locName": "Belle Plaine Service Area",
        "countryCode": "US",
        "subnational1Code": "US-KS",
        "subnational2Code": "US-KS-191",
        "lat": 37.3663596,
        "lng": -97.3224628,
        "latestObsDt": "2024-02-25 12:44",
        "numSpeciesAllTime": 36
    },
    {
        "locId": "L633665",
        "locName": "Belle Plaine WTP",
        "countryCode": "US",
        "subnational1Code": "US-KS",
        "subnational2Code": "US-KS-191",
        "lat": 37.3796106,
        "lng": -97.2834657,
        "latestObsDt": "2023-04-09 08:45",
        "numSpeciesAllTime": 83
    },
    {
        "locId": "L4770394",
        "locName": "Belleville Cemetery",
        "countryCode": "US",
        "subnational1Code": "US-KS",
        "subnational2Code": "US-KS-157",
        "lat": 39.8277532,
        "lng": -97.6414096,
        "latestObsDt": "2023-07-06 11:28",
        "numSpeciesAllTime": 32
    },
    {
        "locId": "L2236081",
        "locName": "Belvidere (town)",
        "countryCode": "US",
        "subnational1Code": "US-KS",
        "subnational2Code": "US-KS-097",
        "lat": 37.4501488,
        "lng": -99.0803611,
        "latestObsDt": "2023-03-24 09:01",
        "numSpeciesAllTime": 153
    },
    {
        "locId": "L3332459",
        "locName": "Belvidere Cemetery",
        "countryCode": "US",
        "subnational1Code": "US-KS",
        "subnational2Code": "US-KS-097",
        "lat": 37.4550204,
        "lng": -99.0492151,
        "latestObsDt": "2020-11-13 10:48",
        "numSpeciesAllTime": 4
    },
    {
        "locId": "L4562139",
        "locName": "Belvue Camp Creek Rd. Wetland",
        "countryCode": "US",
        "subnational1Code": "US-KS",
        "subnational2Code": "US-KS-149",
        "lat": 39.2120607,
        "lng": -96.2034035,
        "latestObsDt": "2024-01-04 11:00",
        "numSpeciesAllTime": 57
    },
    {
        "locId": "L661674",
        "locName": "Belvue Sandpit",
        "countryCode": "US",
        "subnational1Code": "US-KS",
        "subnational2Code": "US-KS-149",
        "lat": 39.2147907,
        "lng": -96.1863434,
        "latestObsDt": "2020-04-18 17:31",
        "numSpeciesAllTime": 39
    },
    {
        "locId": "L2186714",
        "locName": "Benedictine Bottoms WA",
        "countryCode": "US",
        "subnational1Code": "US-KS",
        "subnational2Code": "US-KS-005",
        "lat": 39.5938915,
        "lng": -95.0804257,
        "latestObsDt": "2024-02-08 09:15",
        "numSpeciesAllTime": 150
    },
    {
        "locId": "L4750311",
        "locName": "Benedictine College Campus",
        "countryCode": "US",
        "subnational1Code": "US-KS",
        "subnational2Code": "US-KS-005",
        "lat": 39.5737822,
        "lng": -95.1129878,
        "latestObsDt": "2024-02-24 16:55",
        "numSpeciesAllTime": 123
    },
    {
        "locId": "L6437668",
        "locName": "Bennett Park, Prairie Village",
        "countryCode": "US",
        "subnational1Code": "US-KS",
        "subnational2Code": "US-KS-091",
        "lat": 38.9897862,
        "lng": -94.6447062,
        "latestObsDt": "2023-10-29 12:26",
        "numSpeciesAllTime": 5
    },
    {
        "locId": "L5610566",
        "locName": "Bennington WTP (restricted access)",
        "countryCode": "US",
        "subnational1Code": "US-KS",
        "subnational2Code": "US-KS-143",
        "lat": 39.0253684,
        "lng": -97.601788,
        "latestObsDt": "2024-02-01 07:35",
        "numSpeciesAllTime": 34
    },
    {
        "locId": "L4770384",
        "locName": "Benton WTP",
        "countryCode": "US",
        "subnational1Code": "US-KS",
        "subnational2Code": "US-KS-015",
        "lat": 37.7954576,
        "lng": -97.0980638,
        "latestObsDt": "2021-06-12 15:55",
        "numSpeciesAllTime": 30
    },
    {
        "locId": "L1927923",
        "locName": "Berryton School WTP",
        "countryCode": "US",
        "subnational1Code": "US-KS",
        "subnational2Code": "US-KS-177",
        "lat": 38.9408398,
        "lng": -95.6289589,
        "latestObsDt": "2022-04-24 09:43",
        "numSpeciesAllTime": 59
    },
    {
        "locId": "L6437545",
        "locName": "Beth Torah Park",
        "countryCode": "US",
        "subnational1Code": "US-KS",
        "subnational2Code": "US-KS-091",
        "lat": 38.8998172,
        "lng": -94.6564114,
        "latestObsDt": "2023-02-20 16:04",
        "numSpeciesAllTime": 24
    },
    {
        "locId": "L4765862",
        "locName": "Bethel Church Cemetery",
        "countryCode": "US",
        "subnational1Code": "US-KS",
        "subnational2Code": "US-KS-121",
        "lat": 38.5051074,
        "lng": -94.9933451
    },
    {
        "locId": "L4760819",
        "locName": "Bethel College Campus",
        "countryCode": "US",
        "subnational1Code": "US-KS",
        "subnational2Code": "US-KS-079",
        "lat": 38.074109,
        "lng": -97.3426169,
        "latestObsDt": "2024-02-12 13:54",
        "numSpeciesAllTime": 51
    },
    {
        "locId": "L2832193",
        "locName": "Bethel College--Kauffman Woods",
        "countryCode": "US",
        "subnational1Code": "US-KS",
        "subnational2Code": "US-KS-079",
        "lat": 38.0755598,
        "lng": -97.3468548,
        "latestObsDt": "2024-02-25 15:29",
        "numSpeciesAllTime": 93
    },
    {
        "locId": "L473947",
        "locName": "Bethel College--Sand Creek Trail",
        "countryCode": "US",
        "subnational1Code": "US-KS",
        "subnational2Code": "US-KS-079",
        "lat": 38.075473,
        "lng": -97.3405382,
        "latestObsDt": "2024-02-13 14:31",
        "numSpeciesAllTime": 154
    },
    {
        "locId": "L2934063",
        "locName": "Bethlehem Cemetery",
        "countryCode": "US",
        "subnational1Code": "US-KS",
        "subnational2Code": "US-KS-197",
        "lat": 39.0371446,
        "lng": -96.1542454,
        "latestObsDt": "2021-06-23 21:08",
        "numSpeciesAllTime": 63
    },
    {
        "locId": "L3752110",
        "locName": "Beto Junction & WTP",
        "countryCode": "US",
        "subnational1Code": "US-KS",
        "subnational2Code": "US-KS-031",
        "lat": 38.4273154,
        "lng": -95.7271761,
        "latestObsDt": "2023-12-02 11:50",
        "numSpeciesAllTime": 29
    },
    {
        "locId": "L4770237",
        "locName": "Beulah Cemetery",
        "countryCode": "US",
        "subnational1Code": "US-KS",
        "subnational2Code": "US-KS-193",
        "lat": 39.3900504,
        "lng": -101.0386527,
        "latestObsDt": "2024-02-26 14:09",
        "numSpeciesAllTime": 33
    },
    {
        "locId": "L2265285",
        "locName": "Beymer Park",
        "countryCode": "US",
        "subnational1Code": "US-KS",
        "subnational2Code": "US-KS-093",
        "lat": 37.896828,
        "lng": -101.256928,
        "latestObsDt": "2023-03-31 08:52",
        "numSpeciesAllTime": 93
    },
    {
        "locId": "L1925446",
        "locName": "Big Badger Creek--202nd Rd.",
        "countryCode": "US",
        "subnational1Code": "US-KS",
        "subnational2Code": "US-KS-035",
        "lat": 37.1875936,
        "lng": -96.9421028,
        "latestObsDt": "2021-12-19 10:10",
        "numSpeciesAllTime": 75
    },
    {
        "locId": "L1893769",
        "locName": "Big Basin Prairie Preserve",
        "countryCode": "US",
        "subnational1Code": "US-KS",
        "subnational2Code": "US-KS-025",
        "lat": 37.2403394,
        "lng": -99.9818482,
        "latestObsDt": "2023-10-05 12:50",
        "numSpeciesAllTime": 66
    },
    {
        "locId": "L4822080",
        "locName": "Big Bow (town)",
        "countryCode": "US",
        "subnational1Code": "US-KS",
        "subnational2Code": "US-KS-187",
        "lat": 37.5646078,
        "lng": -101.5616164,
        "latestObsDt": "2020-10-19 16:18",
        "numSpeciesAllTime": 20
    },
    {
        "locId": "L7949771",
        "locName": "Big Bull Creek Park",
        "countryCode": "US",
        "subnational1Code": "US-KS",
        "subnational2Code": "US-KS-091",
        "lat": 38.7575284,
        "lng": -94.9980146,
        "latestObsDt": "2024-02-24 11:05",
        "numSpeciesAllTime": 184
    },
    {
        "locId": "L3875846",
        "locName": "Big Creek--O Rd.",
        "countryCode": "US",
        "subnational1Code": "US-KS",
        "subnational2Code": "US-KS-195",
        "lat": 38.9281295,
        "lng": -99.7629297,
        "latestObsDt": "2024-02-18 11:35",
        "numSpeciesAllTime": 58
    },
    {
        "locId": "L1112790",
        "locName": "Big Ditch--S Hydraulic St.",
        "countryCode": "US",
        "subnational1Code": "US-KS",
        "subnational2Code": "US-KS-173",
        "lat": 37.5697623,
        "lng": -97.3157465,
        "latestObsDt": "2023-03-31 07:59",
        "numSpeciesAllTime": 87
    },
    {
        "locId": "L4762981",
        "locName": "Big Eleven Lake",
        "countryCode": "US",
        "subnational1Code": "US-KS",
        "subnational2Code": "US-KS-209",
        "lat": 39.1175878,
        "lng": -94.637306,
        "latestObsDt": "2020-02-21 14:31",
        "numSpeciesAllTime": 11
    },
    {
        "locId": "L516827",
        "locName": "Big Hill Lake",
        "countryCode": "US",
        "subnational1Code": "US-KS",
        "subnational2Code": "US-KS-099",
        "lat": 37.2889407,
        "lng": -95.4568577,
        "latestObsDt": "2024-02-26 13:49",
        "numSpeciesAllTime": 202
    },
    {
        "locId": "L3597022",
        "locName": "Big Hill Lake--Horse Trail",
        "countryCode": "US",
        "subnational1Code": "US-KS",
        "subnational2Code": "US-KS-099",
        "lat": 37.3373,
        "lng": -95.43844,
        "latestObsDt": "2023-11-03 08:04",
        "numSpeciesAllTime": 70
    },
    {
        "locId": "L4759224",
        "locName": "Big Hill WA",
        "countryCode": "US",
        "subnational1Code": "US-KS",
        "subnational2Code": "US-KS-099",
        "lat": 37.2683496,
        "lng": -95.4321599,
        "latestObsDt": "2023-04-23 21:04",
        "numSpeciesAllTime": 77
    },
    {
        "locId": "L4762933",
        "locName": "Big River Park",
        "countryCode": "US",
        "subnational1Code": "US-KS",
        "subnational2Code": "US-KS-173",
        "lat": 37.7243017,
        "lng": -97.3862833,
        "latestObsDt": "2024-01-01 12:05",
        "numSpeciesAllTime": 109
    },
    {
        "locId": "L998056",
        "locName": "Big Shunga Park",
        "countryCode": "US",
        "subnational1Code": "US-KS",
        "subnational2Code": "US-KS-177",
        "lat": 39.0188886,
        "lng": -95.710918,
        "latestObsDt": "2024-02-10 08:04",
        "numSpeciesAllTime": 171
    },
    {
        "locId": "L6544285",
        "locName": "Big Timber Creek--Rd. 44 & Rd. 250",
        "countryCode": "US",
        "subnational1Code": "US-KS",
        "subnational2Code": "US-KS-165",
        "lat": 38.655174,
        "lng": -99.3094727,
        "latestObsDt": "2023-08-15 09:30",
        "numSpeciesAllTime": 55
    },
    {
        "locId": "L3546172",
        "locName": "Biller Wetland",
        "countryCode": "US",
        "subnational1Code": "US-KS",
        "subnational2Code": "US-KS-099",
        "lat": 37.0644,
        "lng": -95.10087,
        "latestObsDt": "2022-05-15 09:40",
        "numSpeciesAllTime": 137
    },
    {
        "locId": "L4822029",
        "locName": "Bird City (town)",
        "countryCode": "US",
        "subnational1Code": "US-KS",
        "subnational2Code": "US-KS-023",
        "lat": 39.7496317,
        "lng": -101.532796,
        "latestObsDt": "2023-11-18 13:30",
        "numSpeciesAllTime": 35
    },
    {
        "locId": "L4770383",
        "locName": "Bird City Park",
        "countryCode": "US",
        "subnational1Code": "US-KS",
        "subnational2Code": "US-KS-023",
        "lat": 39.7540714,
        "lng": -101.535776,
        "latestObsDt": "2022-11-20 15:34",
        "numSpeciesAllTime": 28
    },
    {
        "locId": "L2408837",
        "locName": "Bird City WTP",
        "countryCode": "US",
        "subnational1Code": "US-KS",
        "subnational2Code": "US-KS-023",
        "lat": 39.7419268,
        "lng": -101.5261388,
        "latestObsDt": "2023-12-09 10:05",
        "numSpeciesAllTime": 57
    },
    {
        "locId": "L24951837",
        "locName": "Bird Valley Park",
        "countryCode": "US",
        "subnational1Code": "US-KS",
        "subnational2Code": "US-KS-071",
        "lat": 38.470481,
        "lng": -101.747559,
        "latestObsDt": "2023-12-08 07:42",
        "numSpeciesAllTime": 30
    },
    {
        "locId": "L481479",
        "locName": "Bismark Lake (restricted access)",
        "countryCode": "US",
        "subnational1Code": "US-KS",
        "subnational2Code": "US-KS-045",
        "lat": 38.9913706,
        "lng": -95.2086568,
        "latestObsDt": "2024-02-10 09:09",
        "numSpeciesAllTime": 167
    },
    {
        "locId": "L1475629",
        "locName": "Bismark Slough",
        "countryCode": "US",
        "subnational1Code": "US-KS",
        "subnational2Code": "US-KS-045",
        "lat": 38.9979464,
        "lng": -95.2057546,
        "latestObsDt": "2023-10-11 08:30",
        "numSpeciesAllTime": 108
    },
    {
        "locId": "L2264990",
        "locName": "Bison WTP",
        "countryCode": "US",
        "subnational1Code": "US-KS",
        "subnational2Code": "US-KS-165",
        "lat": 38.5164536,
        "lng": -99.1882664,
        "latestObsDt": "2023-08-26 12:54",
        "numSpeciesAllTime": 64
    },
    {
        "locId": "L6437614",
        "locName": "Black Bob Park",
        "countryCode": "US",
        "subnational1Code": "US-KS",
        "subnational2Code": "US-KS-091",
        "lat": 38.8586749,
        "lng": -94.7542691,
        "latestObsDt": "2024-01-28 11:01",
        "numSpeciesAllTime": 48
    },
    {
        "locId": "L6437451",
        "locName": "Black Hoof Park Trail",
        "countryCode": "US",
        "subnational1Code": "US-KS",
        "subnational2Code": "US-KS-091",
        "lat": 38.9588415,
        "lng": -94.8482698,
        "latestObsDt": "2024-02-18 18:57",
        "numSpeciesAllTime": 124
    },
    {
        "locId": "L2089786",
        "locName": "Black Jack Battlefield Trust",
        "countryCode": "US",
        "subnational1Code": "US-KS",
        "subnational2Code": "US-KS-045",
        "lat": 38.7631724,
        "lng": -95.131731,
        "latestObsDt": "2023-07-07 14:46",
        "numSpeciesAllTime": 105
    },
    {
        "locId": "L4911137",
        "locName": "Black Jack Park",
        "countryCode": "US",
        "subnational1Code": "US-KS",
        "subnational2Code": "US-KS-045",
        "lat": 38.7673476,
        "lng": -95.1291052,
        "latestObsDt": "2023-12-09 10:04",
        "numSpeciesAllTime": 76
    },
    {
        "locId": "L4766119",
        "locName": "Black Kettle Park",
        "countryCode": "US",
        "subnational1Code": "US-KS",
        "subnational2Code": "US-KS-113",
        "lat": 38.201497,
        "lng": -97.5154397,
        "latestObsDt": "2023-05-09 11:30",
        "numSpeciesAllTime": 51
    },
    {
        "locId": "L3689259",
        "locName": "Black Kettle SFL",
        "countryCode": "US",
        "subnational1Code": "US-KS",
        "subnational2Code": "US-KS-113",
        "lat": 38.2300081,
        "lng": -97.5099677,
        "latestObsDt": "2023-11-18 16:05",
        "numSpeciesAllTime": 111
    },
    {
        "locId": "L4745520",
        "locName": "Bloom Rest Area",
        "countryCode": "US",
        "subnational1Code": "US-KS",
        "subnational2Code": "US-KS-057",
        "lat": 37.4914598,
        "lng": -99.8866653,
        "latestObsDt": "2023-07-26 18:09",
        "numSpeciesAllTime": 31
    },
    {
        "locId": "L4770381",
        "locName": "Blue Mound Cemetery",
        "countryCode": "US",
        "subnational1Code": "US-KS",
        "subnational2Code": "US-KS-107",
        "lat": 38.0952587,
        "lng": -95.0150576
    },
    {
        "locId": "L4763085",
        "locName": "Blue Mound City Lake",
        "countryCode": "US",
        "subnational1Code": "US-KS",
        "subnational2Code": "US-KS-107",
        "lat": 38.1047274,
        "lng": -95.0261056,
        "latestObsDt": "2023-03-29 16:14",
        "numSpeciesAllTime": 26
    },
    {
        "locId": "L21074609",
        "locName": "Blue River Trail",
        "countryCode": "US",
        "subnational1Code": "US-KS",
        "subnational2Code": "US-KS-117",
        "lat": 39.8604442,
        "lng": -96.6528821,
        "latestObsDt": "2023-07-16 06:40",
        "numSpeciesAllTime": 26
    },
    {
        "locId": "L6437538",
        "locName": "Blue Valley Recreation Complex",
        "countryCode": "US",
        "subnational1Code": "US-KS",
        "subnational2Code": "US-KS-091",
        "lat": 38.8767851,
        "lng": -94.6950352,
        "latestObsDt": "2024-02-24 08:10",
        "numSpeciesAllTime": 133
    },
    {
        "locId": "L6437522",
        "locName": "Bluejacket Park",
        "countryCode": "US",
        "subnational1Code": "US-KS",
        "subnational2Code": "US-KS-091",
        "lat": 38.946343,
        "lng": -94.7167021,
        "latestObsDt": "2023-11-22 14:00",
        "numSpeciesAllTime": 14
    },
    {
        "locId": "L1076851",
        "locName": "Bluestem B&B (restricted access)",
        "countryCode": "US",
        "subnational1Code": "US-KS",
        "subnational2Code": "US-KS-035",
        "lat": 37.2314432,
        "lng": -96.9277757,
        "latestObsDt": "2011-01-27 08:00",
        "numSpeciesAllTime": 41
    },
    {
        "locId": "L29420348",
        "locName": "Bob Wandt Memorial Triangle",
        "countryCode": "US",
        "subnational1Code": "US-KS",
        "subnational2Code": "US-KS-155",
        "lat": 37.7361218,
        "lng": -97.7751875,
        "latestObsDt": "2024-02-24 08:45",
        "numSpeciesAllTime": 8
    },
    {
        "locId": "L4820226",
        "locName": "Bogue (town)",
        "countryCode": "US",
        "subnational1Code": "US-KS",
        "subnational2Code": "US-KS-065",
        "lat": 39.359918,
        "lng": -99.6873826,
        "latestObsDt": "2022-05-05 13:33",
        "numSpeciesAllTime": 17
    },
    {
        "locId": "L6437473",
        "locName": "Bois D'Arc Park",
        "countryCode": "US",
        "subnational1Code": "US-KS",
        "subnational2Code": "US-KS-091",
        "lat": 38.9690439,
        "lng": -94.7615808,
        "latestObsDt": "2024-02-02 14:20",
        "numSpeciesAllTime": 11
    },
    {
        "locId": "L890458",
        "locName": "Bone Creek Lake",
        "countryCode": "US",
        "subnational1Code": "US-KS",
        "subnational2Code": "US-KS-037",
        "lat": 37.6227296,
        "lng": -94.7442055,
        "latestObsDt": "2024-02-22 08:30",
        "numSpeciesAllTime": 199
    },
    {
        "locId": "L27330114",
        "locName": "Bonner Springs Cemetery",
        "countryCode": "US",
        "subnational1Code": "US-KS",
        "subnational2Code": "US-KS-209",
        "lat": 39.0716135,
        "lng": -94.8802228,
        "latestObsDt": "2023-11-25 10:53",
        "numSpeciesAllTime": 3
    },
    {
        "locId": "L4227220",
        "locName": "Bonner Springs WTP",
        "countryCode": "US",
        "subnational1Code": "US-KS",
        "subnational2Code": "US-KS-103",
        "lat": 39.0711194,
        "lng": -94.9132115,
        "latestObsDt": "2024-02-26 14:25",
        "numSpeciesAllTime": 117
    },
    {
        "locId": "L4763184",
        "locName": "Botanica",
        "countryCode": "US",
        "subnational1Code": "US-KS",
        "subnational2Code": "US-KS-173",
        "lat": 37.6955536,
        "lng": -97.3633182,
        "latestObsDt": "2024-02-05 14:18",
        "numSpeciesAllTime": 101
    },
    {
        "locId": "L984201",
        "locName": "Bourbon SFL",
        "countryCode": "US",
        "subnational1Code": "US-KS",
        "subnational2Code": "US-KS-011",
        "lat": 37.7925072,
        "lng": -95.0673795,
        "latestObsDt": "2024-02-22 09:40",
        "numSpeciesAllTime": 191
    },
    {
        "locId": "L326693",
        "locName": "Bradbury Prairie Park",
        "countryCode": "US",
        "subnational1Code": "US-KS",
        "subnational2Code": "US-KS-177",
        "lat": 38.964386,
        "lng": -95.6881527,
        "latestObsDt": "2023-12-16 12:33",
        "numSpeciesAllTime": 69
    },
    {
        "locId": "L14426828",
        "locName": "Bradley Fair Pond & Walking Path",
        "countryCode": "US",
        "subnational1Code": "US-KS",
        "subnational2Code": "US-KS-173",
        "lat": 37.7195948,
        "lng": -97.2415399,
        "latestObsDt": "2023-09-24 18:48",
        "numSpeciesAllTime": 26
    },
    {
        "locId": "L29186090",
        "locName": "Bradshaw Park",
        "countryCode": "US",
        "subnational1Code": "US-KS",
        "subnational2Code": "US-KS-091",
        "lat": 38.96183,
        "lng": -94.738658,
        "latestObsDt": "2024-02-10 11:21",
        "numSpeciesAllTime": 5
    },
    {
        "locId": "L4820189",
        "locName": "Brewster (town)",
        "countryCode": "US",
        "subnational1Code": "US-KS",
        "subnational2Code": "US-KS-193",
        "lat": 39.3634849,
        "lng": -101.3770026,
        "latestObsDt": "2023-09-15 13:00",
        "numSpeciesAllTime": 13
    },
    {
        "locId": "L2366969",
        "locName": "Brewster WTP",
        "countryCode": "US",
        "subnational1Code": "US-KS",
        "subnational2Code": "US-KS-193",
        "lat": 39.3527256,
        "lng": -101.3706458,
        "latestObsDt": "2024-02-26 13:34",
        "numSpeciesAllTime": 101
    },
    {
        "locId": "L4769019",
        "locName": "Bridal Veil Park",
        "countryCode": "US",
        "subnational1Code": "US-KS",
        "subnational2Code": "US-KS-011",
        "lat": 37.840178,
        "lng": -94.7204357,
        "latestObsDt": "2019-05-12 13:00",
        "numSpeciesAllTime": 16
    },
    {
        "locId": "L6437646",
        "locName": "Bridgewater Lake",
        "countryCode": "US",
        "subnational1Code": "US-KS",
        "subnational2Code": "US-KS-091",
        "lat": 38.7634911,
        "lng": -95.0164121,
        "latestObsDt": "2023-12-09 09:47",
        "numSpeciesAllTime": 3
    },
    {
        "locId": "L4767270",
        "locName": "Briggs Park",
        "countryCode": "US",
        "subnational1Code": "US-KS",
        "subnational2Code": "US-KS-181",
        "lat": 39.3325755,
        "lng": -102.0339909,
        "latestObsDt": "2022-11-13 14:45",
        "numSpeciesAllTime": 31
    },
    {
        "locId": "L3752288",
        "locName": "Brit Spaugh Park",
        "countryCode": "US",
        "subnational1Code": "US-KS",
        "subnational2Code": "US-KS-009",
        "lat": 38.3734407,
        "lng": -98.7670577,
        "latestObsDt": "2023-05-05 09:38",
        "numSpeciesAllTime": 60
    },
    {
        "locId": "L6437550",
        "locName": "Brittany Park",
        "countryCode": "US",
        "subnational1Code": "US-KS",
        "subnational2Code": "US-KS-091",
        "lat": 38.8481391,
        "lng": -94.6716088,
        "latestObsDt": "2021-12-18 09:11",
        "numSpeciesAllTime": 19
    },
    {
        "locId": "L16491064",
        "locName": "Broken Arrow Park,",
        "countryCode": "US",
        "subnational1Code": "US-KS",
        "subnational2Code": "US-KS-045",
        "lat": 38.930922,
        "lng": -95.240138,
        "latestObsDt": "2024-02-22 17:54",
        "numSpeciesAllTime": 48
    },
    {
        "locId": "L3079138",
        "locName": "Brook Creek Park",
        "countryCode": "US",
        "subnational1Code": "US-KS",
        "subnational2Code": "US-KS-045",
        "lat": 38.962472,
        "lng": -95.218611,
        "latestObsDt": "2024-02-25 08:13",
        "numSpeciesAllTime": 64
    },
    {
        "locId": "L2884196",
        "locName": "Brookover Cattle Company (restricted access)",
        "countryCode": "US",
        "subnational1Code": "US-KS",
        "subnational2Code": "US-KS-171",
        "lat": 38.5582337,
        "lng": -100.8288717,
        "latestObsDt": "2023-01-07 15:19",
        "numSpeciesAllTime": 42
    },
    {
        "locId": "L6437648",
        "locName": "Brookside Park, Gardner",
        "countryCode": "US",
        "subnational1Code": "US-KS",
        "subnational2Code": "US-KS-091",
        "lat": 38.8136833,
        "lng": -94.9181092,
        "latestObsDt": "2023-05-12 22:38",
        "numSpeciesAllTime": 22
    },
    {
        "locId": "L4770365",
        "locName": "Brookville WTP",
        "countryCode": "US",
        "subnational1Code": "US-KS",
        "subnational2Code": "US-KS-169",
        "lat": 38.7706476,
        "lng": -97.8724229,
        "latestObsDt": "2023-11-12 14:51",
        "numSpeciesAllTime": 29
    },
    {
        "locId": "L6437581",
        "locName": "Brougham Park",
        "countryCode": "US",
        "subnational1Code": "US-KS",
        "subnational2Code": "US-KS-091",
        "lat": 38.846635,
        "lng": -94.7699869,
        "latestObsDt": "2023-09-28 17:51",
        "numSpeciesAllTime": 21
    },
    {
        "locId": "L1505956",
        "locName": "Brown Memorial Park",
        "countryCode": "US",
        "subnational1Code": "US-KS",
        "subnational2Code": "US-KS-041",
        "lat": 38.8790736,
        "lng": -97.1945429,
        "latestObsDt": "2024-02-09 13:03",
        "numSpeciesAllTime": 103
    },
    {
        "locId": "L898799",
        "locName": "Brown SFL",
        "countryCode": "US",
        "subnational1Code": "US-KS",
        "subnational2Code": "US-KS-013",
        "lat": 39.8482746,
        "lng": -95.3749216,
        "latestObsDt": "2024-02-11 12:02",
        "numSpeciesAllTime": 189
    },
    {
        "locId": "L4822067",
        "locName": "Brownell (town)",
        "countryCode": "US",
        "subnational1Code": "US-KS",
        "subnational2Code": "US-KS-135",
        "lat": 38.6390396,
        "lng": -99.7461444,
        "latestObsDt": "2024-01-28 08:08",
        "numSpeciesAllTime": 36
    },
    {
        "locId": "L2089755",
        "locName": "Browning Lake (KS)",
        "countryCode": "US",
        "subnational1Code": "US-KS",
        "subnational2Code": "US-KS-043",
        "lat": 39.7565273,
        "lng": -94.9081206,
        "latestObsDt": "2024-02-08 10:18",
        "numSpeciesAllTime": 181
    },
    {
        "locId": "L14617317",
        "locName": "Browning Lake--165th Rd. Access",
        "countryCode": "US",
        "subnational1Code": "US-KS",
        "subnational2Code": "US-KS-043",
        "lat": 39.7480546,
        "lng": -94.9152589,
        "latestObsDt": "2023-09-09 08:26",
        "numSpeciesAllTime": 125
    },
    {
        "locId": "L14617132",
        "locName": "Browning Lake--Treece Rd. Access",
        "countryCode": "US",
        "subnational1Code": "US-KS",
        "subnational2Code": "US-KS-043",
        "lat": 39.7790436,
        "lng": -94.9366431,
        "latestObsDt": "2023-04-24 18:19",
        "numSpeciesAllTime": 37
    },
    {
        "locId": "L4762300",
        "locName": "Brzon WA",
        "countryCode": "US",
        "subnational1Code": "US-KS",
        "subnational2Code": "US-KS-157",
        "lat": 39.9298629,
        "lng": -97.6969153,
        "latestObsDt": "2023-03-01 15:36",
        "numSpeciesAllTime": 29
    },
    {
        "locId": "L5738546",
        "locName": "Buche WA",
        "countryCode": "US",
        "subnational1Code": "US-KS",
        "subnational2Code": "US-KS-021",
        "lat": 37.3188208,
        "lng": -94.6800014,
        "latestObsDt": "2023-04-18 14:03",
        "numSpeciesAllTime": 96
    },
    {
        "locId": "L4841092",
        "locName": "Bucklin (town)",
        "countryCode": "US",
        "subnational1Code": "US-KS",
        "subnational2Code": "US-KS-057",
        "lat": 37.5494642,
        "lng": -99.6341005,
        "latestObsDt": "2024-02-03 11:19",
        "numSpeciesAllTime": 65
    },
    {
        "locId": "L3447927",
        "locName": "Bucklin City Park",
        "countryCode": "US",
        "subnational1Code": "US-KS",
        "subnational2Code": "US-KS-057",
        "lat": 37.5447549,
        "lng": -99.6320674,
        "latestObsDt": "2022-05-14 14:45",
        "numSpeciesAllTime": 31
    },
    {
        "locId": "L2140753",
        "locName": "Bucklin WTP",
        "countryCode": "US",
        "subnational1Code": "US-KS",
        "subnational2Code": "US-KS-057",
        "lat": 37.5431482,
        "lng": -99.6214271,
        "latestObsDt": "2024-01-21 16:19",
        "numSpeciesAllTime": 104
    },
    {
        "locId": "L2738626",
        "locName": "Buckner Creek--C Rd.",
        "countryCode": "US",
        "subnational1Code": "US-KS",
        "subnational2Code": "US-KS-083",
        "lat": 37.9427693,
        "lng": -100.2029085,
        "latestObsDt": "2023-06-24 15:32",
        "numSpeciesAllTime": 79
    },
    {
        "locId": "L3405038",
        "locName": "Buckner Creek--D Rd. & Prairie-Dog Town",
        "countryCode": "US",
        "subnational1Code": "US-KS",
        "subnational2Code": "US-KS-083",
        "lat": 37.9573678,
        "lng": -100.1794821,
        "latestObsDt": "2023-09-23 09:47",
        "numSpeciesAllTime": 115
    },
    {
        "locId": "L3405098",
        "locName": "Buckner Creek--H Rd.",
        "countryCode": "US",
        "subnational1Code": "US-KS",
        "subnational2Code": "US-KS-083",
        "lat": 38.0150611,
        "lng": -100.1065528,
        "latestObsDt": "2023-05-28 12:38",
        "numSpeciesAllTime": 43
    },
    {
        "locId": "L2988371",
        "locName": "Buckner Creek--L Rd. & 214 Rd.",
        "countryCode": "US",
        "subnational1Code": "US-KS",
        "subnational2Code": "US-KS-083",
        "lat": 38.0733962,
        "lng": -99.9725604,
        "latestObsDt": "2023-12-22 16:49",
        "numSpeciesAllTime": 49
    },
    {
        "locId": "L2872514",
        "locName": "Buckner Creek--L Rd. (east)",
        "countryCode": "US",
        "subnational1Code": "US-KS",
        "subnational2Code": "US-KS-083",
        "lat": 38.073737,
        "lng": -99.905904,
        "latestObsDt": "2018-05-06 09:31",
        "numSpeciesAllTime": 26
    },
    {
        "locId": "L2988369",
        "locName": "Buckner Creek--L Rd. (west)",
        "countryCode": "US",
        "subnational1Code": "US-KS",
        "subnational2Code": "US-KS-083",
        "lat": 38.0734999,
        "lng": -99.9284796,
        "latestObsDt": "2023-12-22 17:17",
        "numSpeciesAllTime": 42
    },
    {
        "locId": "L1757772",
        "locName": "Buckner Valley Park",
        "countryCode": "US",
        "subnational1Code": "US-KS",
        "subnational2Code": "US-KS-083",
        "lat": 38.0677152,
        "lng": -100.0010991,
        "latestObsDt": "2023-12-22 16:09",
        "numSpeciesAllTime": 160
    },
    {
        "locId": "L6439985",
        "locName": "Buffalo Bill Cody Park",
        "countryCode": "US",
        "subnational1Code": "US-KS",
        "subnational2Code": "US-KS-103",
        "lat": 39.2880064,
        "lng": -94.916288,
        "latestObsDt": "2023-05-05 13:32",
        "numSpeciesAllTime": 33
    },
    {
        "locId": "L2170383",
        "locName": "Buffalo Bill Park",
        "countryCode": "US",
        "subnational1Code": "US-KS",
        "subnational2Code": "US-KS-179",
        "lat": 39.3480723,
        "lng": -100.4409827,
        "latestObsDt": "2023-11-12 13:21",
        "numSpeciesAllTime": 58
    },
    {
        "locId": "L20988936",
        "locName": "Buffalo Meadows Park",
        "countryCode": "US",
        "subnational1Code": "US-KS",
        "subnational2Code": "US-KS-091",
        "lat": 38.9535103,
        "lng": -94.8371601,
        "latestObsDt": "2023-12-01 07:48",
        "numSpeciesAllTime": 33
    },
    {
        "locId": "L4763140",
        "locName": "Buffalo Park, Wichita",
        "countryCode": "US",
        "subnational1Code": "US-KS",
        "subnational2Code": "US-KS-173",
        "lat": 37.6877175,
        "lng": -97.461471,
        "latestObsDt": "2023-12-08 11:45",
        "numSpeciesAllTime": 115
    },
    {
        "locId": "L4759235",
        "locName": "Buffalo Range WA",
        "countryCode": "US",
        "subnational1Code": "US-KS",
        "subnational2Code": "US-KS-125",
        "lat": 37.1956383,
        "lng": -95.9365547,
        "latestObsDt": "2020-08-08 08:16",
        "numSpeciesAllTime": 38
    },
    {
        "locId": "L11857569",
        "locName": "Buffalo Soldier Monument",
        "countryCode": "US",
        "subnational1Code": "US-KS",
        "subnational2Code": "US-KS-103",
        "lat": 39.3458146,
        "lng": -94.9192142,
        "latestObsDt": "2023-04-28 13:04",
        "numSpeciesAllTime": 23
    },
    {
        "locId": "L4770362",
        "locName": "Buffalo WTP",
        "countryCode": "US",
        "subnational1Code": "US-KS",
        "subnational2Code": "US-KS-205",
        "lat": 37.7151786,
        "lng": -95.7066786,
        "latestObsDt": "2023-01-27 08:42",
        "numSpeciesAllTime": 41
    },
    {
        "locId": "L4477408",
        "locName": "Bull Creek--W 223rd St. (east access)",
        "countryCode": "US",
        "subnational1Code": "US-KS",
        "subnational2Code": "US-KS-121",
        "lat": 38.7236552,
        "lng": -94.9589539,
        "latestObsDt": "2022-02-12 15:41",
        "numSpeciesAllTime": 77
    },
    {
        "locId": "L4760382",
        "locName": "Bull Creek--W 223rd St. (west access)",
        "countryCode": "US",
        "subnational1Code": "US-KS",
        "subnational2Code": "US-KS-121",
        "lat": 38.7236301,
        "lng": -94.9704713,
        "latestObsDt": "2024-02-24 09:21",
        "numSpeciesAllTime": 138
    },
    {
        "locId": "L1627544",
        "locName": "Bunker Hill Cemetery",
        "countryCode": "US",
        "subnational1Code": "US-KS",
        "subnational2Code": "US-KS-167",
        "lat": 38.8847528,
        "lng": -98.6892495,
        "latestObsDt": "2023-10-17 08:47",
        "numSpeciesAllTime": 56
    },
    {
        "locId": "L520911",
        "locName": "Burcham Park, Lawrence",
        "countryCode": "US",
        "subnational1Code": "US-KS",
        "subnational2Code": "US-KS-045",
        "lat": 38.9792448,
        "lng": -95.2408154,
        "latestObsDt": "2024-02-23 09:02",
        "numSpeciesAllTime": 211
    },
    {
        "locId": "L2784070",
        "locName": "Burdett WTP",
        "countryCode": "US",
        "subnational1Code": "US-KS",
        "subnational2Code": "US-KS-145",
        "lat": 38.20302,
        "lng": -99.5234823,
        "latestObsDt": "2023-11-23 15:48",
        "numSpeciesAllTime": 49
    },
    {
        "locId": "L4770355",
        "locName": "Burlingame WTP",
        "countryCode": "US",
        "subnational1Code": "US-KS",
        "subnational2Code": "US-KS-139",
        "lat": 38.7469963,
        "lng": -95.8230704,
        "latestObsDt": "2022-04-30 06:48",
        "numSpeciesAllTime": 4
    },
    {
        "locId": "L2366117",
        "locName": "Burlington WTP",
        "countryCode": "US",
        "subnational1Code": "US-KS",
        "subnational2Code": "US-KS-031",
        "lat": 38.1768232,
        "lng": -95.7342303,
        "latestObsDt": "2024-02-24 10:12",
        "numSpeciesAllTime": 85
    },
    {
        "locId": "L4384182",
        "locName": "Burroughs Creek Rail-Trail",
        "countryCode": "US",
        "subnational1Code": "US-KS",
        "subnational2Code": "US-KS-045",
        "lat": 38.9430974,
        "lng": -95.2279191,
        "latestObsDt": "2023-08-27 08:46",
        "numSpeciesAllTime": 47
    },
    {
        "locId": "L4835465",
        "locName": "Buster Cemetery",
        "countryCode": "US",
        "subnational1Code": "US-KS",
        "subnational2Code": "US-KS-087",
        "lat": 39.1285619,
        "lng": -95.3444332,
        "latestObsDt": "2023-01-07 16:49",
        "numSpeciesAllTime": 12
    },
    {
        "locId": "L11788061",
        "locName": "Butcher Falls",
        "countryCode": "US",
        "subnational1Code": "US-KS",
        "subnational2Code": "US-KS-019",
        "lat": 37.1470143,
        "lng": -96.2669057,
        "latestObsDt": "2024-02-17 15:22",
        "numSpeciesAllTime": 48
    },
    {
        "locId": "L1287754",
        "locName": "Butler Co. Landfill (restricted access)",
        "countryCode": "US",
        "subnational1Code": "US-KS",
        "subnational2Code": "US-KS-015",
        "lat": 37.7678291,
        "lng": -96.8962088,
        "latestObsDt": "2022-06-25 19:50",
        "numSpeciesAllTime": 19
    },
    {
        "locId": "L569292",
        "locName": "Butler SFL",
        "countryCode": "US",
        "subnational1Code": "US-KS",
        "subnational2Code": "US-KS-015",
        "lat": 37.5485622,
        "lng": -96.6890228,
        "latestObsDt": "2023-10-15 16:48",
        "numSpeciesAllTime": 171
    },
    {
        "locId": "L4770347",
        "locName": "Byers Cemetery",
        "countryCode": "US",
        "subnational1Code": "US-KS",
        "subnational2Code": "US-KS-151",
        "lat": 37.7959663,
        "lng": -98.8761511,
        "latestObsDt": "2020-11-14 16:25",
        "numSpeciesAllTime": 20
    },
    {
        "locId": "L833150",
        "locName": "Byron Walker WA",
        "countryCode": "US",
        "subnational1Code": "US-KS",
        "subnational2Code": "US-KS-095",
        "lat": 37.6489661,
        "lng": -98.2907295,
        "latestObsDt": "2024-01-11 09:16",
        "numSpeciesAllTime": 124
    },
    {
        "locId": "L14772117",
        "locName": "C2T Ranch & Campground",
        "countryCode": "US",
        "subnational1Code": "US-KS",
        "subnational2Code": "US-KS-051",
        "lat": 39.0861036,
        "lng": -99.3828392,
        "latestObsDt": "2023-10-08 11:21",
        "numSpeciesAllTime": 71
    },
    {
        "locId": "L3787070",
        "locName": "CC Rd. & Rd. 10 Playa Lake",
        "countryCode": "US",
        "subnational1Code": "US-KS",
        "subnational2Code": "US-KS-069",
        "lat": 37.591283,
        "lng": -100.488581,
        "latestObsDt": "2023-12-28 09:00",
        "numSpeciesAllTime": 76
    },
    {
        "locId": "L2738639",
        "locName": "CRP Grasslands--E Rd.",
        "countryCode": "US",
        "subnational1Code": "US-KS",
        "subnational2Code": "US-KS-069",
        "lat": 37.9430087,
        "lng": -100.245274,
        "latestObsDt": "2020-02-22 15:53",
        "numSpeciesAllTime": 42
    },
    {
        "locId": "L6437585",
        "locName": "Calamity Line Park",
        "countryCode": "US",
        "subnational1Code": "US-KS",
        "subnational2Code": "US-KS-091",
        "lat": 38.8831994,
        "lng": -94.8301649,
        "latestObsDt": "2022-07-13 11:26",
        "numSpeciesAllTime": 13
    },
    {
        "locId": "L4770279",
        "locName": "Caldwell Cemetery",
        "countryCode": "US",
        "subnational1Code": "US-KS",
        "subnational2Code": "US-KS-191",
        "lat": 37.0543723,
        "lng": -97.6146519,
        "latestObsDt": "2022-02-26 17:01",
        "numSpeciesAllTime": 11
    },
    {
        "locId": "L12584316",
        "locName": "Caldwell Roadside Park",
        "countryCode": "US",
        "subnational1Code": "US-KS",
        "subnational2Code": "US-KS-191",
        "lat": 37.0070771,
        "lng": -97.606843,
        "latestObsDt": "2023-10-16 16:08",
        "numSpeciesAllTime": 11
    },
    {
        "locId": "L4770281",
        "locName": "Caldwell WTP",
        "countryCode": "US",
        "subnational1Code": "US-KS",
        "subnational2Code": "US-KS-191",
        "lat": 37.0280301,
        "lng": -97.5865638,
        "latestObsDt": "2022-05-03 11:48",
        "numSpeciesAllTime": 34
    },
    {
        "locId": "L4770277",
        "locName": "Cambridge Cemetery",
        "countryCode": "US",
        "subnational1Code": "US-KS",
        "subnational2Code": "US-KS-035",
        "lat": 37.3113991,
        "lng": -96.6801006,
        "latestObsDt": "2023-11-30 11:08",
        "numSpeciesAllTime": 18
    },
    {
        "locId": "L5290272",
        "locName": "Camp Branch Glade",
        "countryCode": "US",
        "subnational1Code": "US-KS",
        "subnational2Code": "US-KS-091",
        "lat": 38.8105561,
        "lng": -94.6459293,
        "latestObsDt": "2023-02-07 15:34",
        "numSpeciesAllTime": 87
    },
    {
        "locId": "L1351814",
        "locName": "Camp Horizon (restricted access)",
        "countryCode": "US",
        "subnational1Code": "US-KS",
        "subnational2Code": "US-KS-035",
        "lat": 37.0367833,
        "lng": -96.9335854,
        "latestObsDt": "2023-12-23 10:48",
        "numSpeciesAllTime": 122
    },
    {
        "locId": "L3133924",
        "locName": "Camp Hunter",
        "countryCode": "US",
        "subnational1Code": "US-KS",
        "subnational2Code": "US-KS-001",
        "lat": 37.8024812,
        "lng": -95.4462951,
        "latestObsDt": "2023-05-21 07:00",
        "numSpeciesAllTime": 98
    },
    {
        "locId": "L1012575",
        "locName": "Camp Mennoscah (restricted access)",
        "countryCode": "US",
        "subnational1Code": "US-KS",
        "subnational2Code": "US-KS-095",
        "lat": 37.5947158,
        "lng": -97.9490161,
        "latestObsDt": "2023-10-22 08:58",
        "numSpeciesAllTime": 147
    },
    {
        "locId": "L2584325",
        "locName": "Camp Pawnee",
        "countryCode": "US",
        "subnational1Code": "US-KS",
        "subnational2Code": "US-KS-145",
        "lat": 38.17732,
        "lng": -99.168145,
        "latestObsDt": "2023-10-24 14:57",
        "numSpeciesAllTime": 67
    },
    {
        "locId": "L630094",
        "locName": "Camp Theodore Naish (restricted access)",
        "countryCode": "US",
        "subnational1Code": "US-KS",
        "subnational2Code": "US-KS-209",
        "lat": 39.0723449,
        "lng": -94.8533607,
        "latestObsDt": "2019-05-03 22:29",
        "numSpeciesAllTime": 83
    },
    {
        "locId": "L3750392",
        "locName": "Camp Tomah Shinga (restricted access)",
        "countryCode": "US",
        "subnational1Code": "US-KS",
        "subnational2Code": "US-KS-061",
        "lat": 38.961995,
        "lng": -96.8323749,
        "latestObsDt": "2023-06-21 22:00",
        "numSpeciesAllTime": 84
    },
    {
        "locId": "L2957341",
        "locName": "Camp Wa-Ja-To (restricted access)",
        "countryCode": "US",
        "subnational1Code": "US-KS",
        "subnational2Code": "US-KS-159",
        "lat": 38.31598,
        "lng": -98.199505,
        "latestObsDt": "2022-09-16 17:30",
        "numSpeciesAllTime": 22
    },
    {
        "locId": "L3985340",
        "locName": "Camp Wood YMCA (restricted access)",
        "countryCode": "US",
        "subnational1Code": "US-KS",
        "subnational2Code": "US-KS-017",
        "lat": 38.3439029,
        "lng": -96.6508819,
        "latestObsDt": "2023-05-30 18:25",
        "numSpeciesAllTime": 109
    },
    {
        "locId": "L9075425",
        "locName": "Campbell Park, Merriam",
        "countryCode": "US",
        "subnational1Code": "US-KS",
        "subnational2Code": "US-KS-091",
        "lat": 39.0191599,
        "lng": -94.6969513,
        "latestObsDt": "2023-09-03 10:55",
        "numSpeciesAllTime": 42
    },
    {
        "locId": "L2113732",
        "locName": "Caney River--Elgin Bridge",
        "countryCode": "US",
        "subnational1Code": "US-KS",
        "subnational2Code": "US-KS-019",
        "lat": 37.0038004,
        "lng": -96.3161892,
        "latestObsDt": "2023-06-13 13:32",
        "numSpeciesAllTime": 68
    },
    {
        "locId": "L2722609",
        "locName": "Caney River--Hart's Mill",
        "countryCode": "US",
        "subnational1Code": "US-KS",
        "subnational2Code": "US-KS-019",
        "lat": 37.0364546,
        "lng": -96.3739988,
        "latestObsDt": "2023-06-12 11:52",
        "numSpeciesAllTime": 72
    },
    {
        "locId": "L1125001",
        "locName": "Caney River--Osro Falls",
        "countryCode": "US",
        "subnational1Code": "US-KS",
        "subnational2Code": "US-KS-019",
        "lat": 37.0559552,
        "lng": -96.4437363,
        "latestObsDt": "2023-11-08 14:40",
        "numSpeciesAllTime": 44
    },
    {
        "locId": "L917030",
        "locName": "Caney River--Rd. 8",
        "countryCode": "US",
        "subnational1Code": "US-KS",
        "subnational2Code": "US-KS-019",
        "lat": 37.0243469,
        "lng": -96.4067768,
        "latestObsDt": "2023-06-12 11:39",
        "numSpeciesAllTime": 87
    },
    {
        "locId": "L2722613",
        "locName": "Caney River--Wilson Cemetery",
        "countryCode": "US",
        "subnational1Code": "US-KS",
        "subnational2Code": "US-KS-019",
        "lat": 37.0151318,
        "lng": -96.343427,
        "latestObsDt": "2023-06-13 14:00",
        "numSpeciesAllTime": 66
    },
    {
        "locId": "L8860654",
        "locName": "Canton Township Cemetery",
        "countryCode": "US",
        "subnational1Code": "US-KS",
        "subnational2Code": "US-KS-113",
        "lat": 38.397456,
        "lng": -97.4282384,
        "latestObsDt": "2022-06-16 10:43",
        "numSpeciesAllTime": 8
    },
    {
        "locId": "L632918",
        "locName": "Carbondale Lake",
        "countryCode": "US",
        "subnational1Code": "US-KS",
        "subnational2Code": "US-KS-139",
        "lat": 38.8160541,
        "lng": -95.6413722,
        "latestObsDt": "2024-02-06 10:01",
        "numSpeciesAllTime": 106
    },
    {
        "locId": "L4762930",
        "locName": "Carey Park, Hutchinson",
        "countryCode": "US",
        "subnational1Code": "US-KS",
        "subnational2Code": "US-KS-155",
        "lat": 38.0279123,
        "lng": -97.9242861,
        "latestObsDt": "2024-01-31 07:35",
        "numSpeciesAllTime": 107
    },
    {
        "locId": "L4750457",
        "locName": "Cassoday WTP",
        "countryCode": "US",
        "subnational1Code": "US-KS",
        "subnational2Code": "US-KS-015",
        "lat": 38.0433426,
        "lng": -96.6385531,
        "latestObsDt": "2023-12-29 14:17",
        "numSpeciesAllTime": 87
    },
    {
        "locId": "L4763196",
        "locName": "Castle Rock Badlands",
        "countryCode": "US",
        "subnational1Code": "US-KS",
        "subnational2Code": "US-KS-063",
        "lat": 38.8611237,
        "lng": -100.1696914,
        "latestObsDt": "2023-04-17 05:15",
        "numSpeciesAllTime": 42
    },
    {
        "locId": "L3544616",
        "locName": "Cathouse RA (restricted access)",
        "countryCode": "US",
        "subnational1Code": "US-KS",
        "subnational2Code": "US-KS-101",
        "lat": 38.6768117,
        "lng": -100.3725314,
        "latestObsDt": "2017-11-19 13:34",
        "numSpeciesAllTime": 7
    },
    {
        "locId": "L3790051",
        "locName": "Cave Park",
        "countryCode": "US",
        "subnational1Code": "US-KS",
        "subnational2Code": "US-KS-191",
        "lat": 37.2748207,
        "lng": -97.1631141,
        "latestObsDt": "2023-10-11 13:45",
        "numSpeciesAllTime": 43
    },
    {
        "locId": "L6363330",
        "locName": "Cawker City WTP",
        "countryCode": "US",
        "subnational1Code": "US-KS",
        "subnational2Code": "US-KS-123",
        "lat": 39.4977076,
        "lng": -98.435204,
        "latestObsDt": "2023-12-22 08:22",
        "numSpeciesAllTime": 22
    },
    {
        "locId": "L602545",
        "locName": "Cedar Bluff Res.",
        "countryCode": "US",
        "subnational1Code": "US-KS",
        "subnational2Code": "US-KS-195",
        "lat": 38.7854016,
        "lng": -99.731226,
        "latestObsDt": "2023-09-17 15:31",
        "numSpeciesAllTime": 194
    },
    {
        "locId": "L3001967",
        "locName": "Cedar Bluff Res.--Cedar Bluff Overlook",
        "countryCode": "US",
        "subnational1Code": "US-KS",
        "subnational2Code": "US-KS-195",
        "lat": 38.7761263,
        "lng": -99.8100454,
        "latestObsDt": "2024-02-18 08:20",
        "numSpeciesAllTime": 120
    },
    {
        "locId": "L1501419",
        "locName": "Cedar Bluff Res.--Dam & Outlet Park",
        "countryCode": "US",
        "subnational1Code": "US-KS",
        "subnational2Code": "US-KS-195",
        "lat": 38.7862463,
        "lng": -99.721849,
        "latestObsDt": "2024-02-18 10:12",
        "numSpeciesAllTime": 139
    },
    {
        "locId": "L6347224",
        "locName": "Cedar Bluff SP--Agave Ridge Nature Trail",
        "countryCode": "US",
        "subnational1Code": "US-KS",
        "subnational2Code": "US-KS-195",
        "lat": 38.7756769,
        "lng": -99.7887401,
        "latestObsDt": "2023-10-06 15:02",
        "numSpeciesAllTime": 108
    },
    {
        "locId": "L3782184",
        "locName": "Cedar Bluff SP--Bluffton Area",
        "countryCode": "US",
        "subnational1Code": "US-KS",
        "subnational2Code": "US-KS-195",
        "lat": 38.8075269,
        "lng": -99.7371697,
        "latestObsDt": "2023-12-13 08:15",
        "numSpeciesAllTime": 161
    },
    {
        "locId": "L3001431",
        "locName": "Cedar Bluff SP--Page Creek Area",
        "countryCode": "US",
        "subnational1Code": "US-KS",
        "subnational2Code": "US-KS-195",
        "lat": 38.773178,
        "lng": -99.770615,
        "latestObsDt": "2024-02-18 09:36",
        "numSpeciesAllTime": 149
    },
    {
        "locId": "L4762303",
        "locName": "Cedar Bluff WA",
        "countryCode": "US",
        "subnational1Code": "US-KS",
        "subnational2Code": "US-KS-195",
        "lat": 38.7820563,
        "lng": -99.8538351,
        "latestObsDt": "2023-10-06 14:34",
        "numSpeciesAllTime": 91
    },
    {
        "locId": "L4184587",
        "locName": "Cedar Bluff WA--Cove 3",
        "countryCode": "US",
        "subnational1Code": "US-KS",
        "subnational2Code": "US-KS-195",
        "lat": 38.7922256,
        "lng": -99.7980237,
        "latestObsDt": "2023-10-07 15:16",
        "numSpeciesAllTime": 71
    },
    {
        "locId": "L4769512",
        "locName": "Cedar Bluff WA--Droptine Ridge",
        "countryCode": "US",
        "subnational1Code": "US-KS",
        "subnational2Code": "US-KS-195",
        "lat": 38.7863717,
        "lng": -99.81107,
        "latestObsDt": "2023-05-30 12:49",
        "numSpeciesAllTime": 48
    },
    {
        "locId": "L4769515",
        "locName": "Cedar Bluff WA--Riverview",
        "countryCode": "US",
        "subnational1Code": "US-KS",
        "subnational2Code": "US-KS-195",
        "lat": 38.7839631,
        "lng": -99.8879904,
        "latestObsDt": "2024-02-18 07:35",
        "numSpeciesAllTime": 78
    },
    {
        "locId": "L4770271",
        "locName": "Cedar Cemetery",
        "countryCode": "US",
        "subnational1Code": "US-KS",
        "subnational2Code": "US-KS-183",
        "lat": 39.6688284,
        "lng": -98.9314073,
        "latestObsDt": "2023-06-03 10:15",
        "numSpeciesAllTime": 21
    },
    {
        "locId": "L3091098",
        "locName": "Cedar Creek Cemetery",
        "countryCode": "US",
        "subnational1Code": "US-KS",
        "subnational2Code": "US-KS-149",
        "lat": 39.2703808,
        "lng": -96.5515456,
        "latestObsDt": "2023-06-08 20:00",
        "numSpeciesAllTime": 73
    },
    {
        "locId": "L3836526",
        "locName": "Cedar Creek Lake",
        "countryCode": "US",
        "subnational1Code": "US-KS",
        "subnational2Code": "US-KS-011",
        "lat": 37.8204,
        "lng": -94.79466,
        "latestObsDt": "2024-02-22 10:51",
        "numSpeciesAllTime": 32
    },
    {
        "locId": "L506323",
        "locName": "Cedar Creek Lake",
        "countryCode": "US",
        "subnational1Code": "US-KS",
        "subnational2Code": "US-KS-003",
        "lat": 38.251426,
        "lng": -95.3148079,
        "latestObsDt": "2024-01-04 13:10",
        "numSpeciesAllTime": 189
    },
    {
        "locId": "L6656386",
        "locName": "Cedar Creek Lake--Boat Launch Area",
        "countryCode": "US",
        "subnational1Code": "US-KS",
        "subnational2Code": "US-KS-003",
        "lat": 38.242048,
        "lng": -95.3233695,
        "latestObsDt": "2023-12-30 10:06",
        "numSpeciesAllTime": 123
    },
    {
        "locId": "L20757631",
        "locName": "Cedar Creek Trail, Olathe",
        "countryCode": "US",
        "subnational1Code": "US-KS",
        "subnational2Code": "US-KS-091",
        "lat": 38.8618302,
        "lng": -94.8548533,
        "latestObsDt": "2024-02-26 10:00",
        "numSpeciesAllTime": 151
    },