[
    {
        "locId": "L9173467",
        "locName": "100th St. Wetland",
        "countryCode": "US",
        "subnational1Code": "US-ND",
        "subnational2Code": "US-ND-011",
        "lat": 45.9741554,
        "lng": -103.3905629,
        "latestObsDt": "2023-08-27 18:06",
        "numSpeciesAllTime": 67
    },
    {
        "locId": "L15017086",
        "locName": "101st St. Coulee",
        "countryCode": "US",
        "subnational1Code": "US-ND",
        "subnational2Code": "US-ND-081",
        "lat": 45.9500764,
        "lng": -97.4614232,
        "latestObsDt": "2023-07-16 10:15",
        "numSpeciesAllTime": 89
    },
    {
        "locId": "L14542808",
        "locName": "123rd Ave. Dam",
        "countryCode": "US",
        "subnational1Code": "US-ND",
        "subnational2Code": "US-ND-007",
        "lat": 47.190753,
        "lng": -103.096509,
        "latestObsDt": "2023-10-27 11:19",
        "numSpeciesAllTime": 73
    },
    {
        "locId": "L8341457",
        "locName": "139th Ave. Wetland",
        "countryCode": "US",
        "subnational1Code": "US-ND",
        "subnational2Code": "US-ND-053",
        "lat": 47.6419542,
        "lng": -103.5023403,
        "latestObsDt": "2023-08-13 13:18",
        "numSpeciesAllTime": 25
    },
    {
        "locId": "L8093595",
        "locName": "147th Ave. Dam",
        "countryCode": "US",
        "subnational1Code": "US-ND",
        "subnational2Code": "US-ND-053",
        "lat": 47.9176157,
        "lng": -103.7304496,
        "latestObsDt": "2023-12-03 09:57",
        "numSpeciesAllTime": 106
    },
    {
        "locId": "L17000934",
        "locName": "152nd Ave. Lake",
        "countryCode": "US",
        "subnational1Code": "US-ND",
        "subnational2Code": "US-ND-023",
        "lat": 48.6550509,
        "lng": -103.9733668,
        "latestObsDt": "2023-11-15 15:41",
        "numSpeciesAllTime": 6
    },
    {
        "locId": "L11600620",
        "locName": "31st St. Prairie (Billings Co.)",
        "countryCode": "US",
        "subnational1Code": "US-ND",
        "subnational2Code": "US-ND-007",
        "lat": 46.963079,
        "lng": -103.2417649,
        "latestObsDt": "2023-08-23 10:03",
        "numSpeciesAllTime": 101
    },
    {
        "locId": "L18896362",
        "locName": "31st St. Prairie (Stark Co.)",
        "countryCode": "US",
        "subnational1Code": "US-ND",
        "subnational2Code": "US-ND-089",
        "lat": 46.9630658,
        "lng": -103.2259106,
        "latestObsDt": "2023-09-16 16:07",
        "numSpeciesAllTime": 96
    },
    {
        "locId": "L9147462",
        "locName": "42nd St. Prairie & fields",
        "countryCode": "US",
        "subnational1Code": "US-ND",
        "subnational2Code": "US-ND-053",
        "lat": 48.0313092,
        "lng": -103.7429212,
        "latestObsDt": "2023-12-10 09:59",
        "numSpeciesAllTime": 63
    },
    {
        "locId": "L1203015",
        "locName": "51st Ave. Lake",
        "countryCode": "US",
        "subnational1Code": "US-ND",
        "subnational2Code": "US-ND-093",
        "lat": 47.0882489,
        "lng": -99.4182783,
        "latestObsDt": "2022-09-08 12:21",
        "numSpeciesAllTime": 80
    },
    {
        "locId": "L935173",
        "locName": "57th St. N Wetland (McHenry Co.)",
        "countryCode": "US",
        "subnational1Code": "US-ND",
        "subnational2Code": "US-ND-049",
        "lat": 48.2397176,
        "lng": -100.7254422,
        "latestObsDt": "2023-07-30 14:23",
        "numSpeciesAllTime": 181
    },
    {
        "locId": "L2838815",
        "locName": "7th Day Adventist WPA",
        "countryCode": "US",
        "subnational1Code": "US-ND",
        "subnational2Code": "US-ND-015",
        "lat": 46.8100741,
        "lng": -100.5725955,
        "latestObsDt": "2023-05-25 09:15",
        "numSpeciesAllTime": 148
    },
    {
        "locId": "L6036784",
        "locName": "80th St pond & fields",
        "countryCode": "US",
        "subnational1Code": "US-ND",
        "subnational2Code": "US-ND-085",
        "lat": 46.262735,
        "lng": -100.6110707,
        "latestObsDt": "2023-10-24 09:51",
        "numSpeciesAllTime": 55
    },
    {
        "locId": "L1784907",
        "locName": "Absaraka Lake (Cass Co.)",
        "countryCode": "US",
        "subnational1Code": "US-ND",
        "subnational2Code": "US-ND-017",
        "lat": 46.9843986,
        "lng": -97.3911728,
        "latestObsDt": "2022-06-22 11:51",
        "numSpeciesAllTime": 51
    },
    {
        "locId": "L7137586",
        "locName": "Adam & Teresa Raab WMA",
        "countryCode": "US",
        "subnational1Code": "US-ND",
        "subnational2Code": "US-ND-089",
        "lat": 46.7514672,
        "lng": -102.6279178,
        "latestObsDt": "2023-09-12 16:50",
        "numSpeciesAllTime": 103
    },
    {
        "locId": "L12828571",
        "locName": "Adams (town)",
        "countryCode": "US",
        "subnational1Code": "US-ND",
        "subnational2Code": "US-ND-099",
        "lat": 48.4220982,
        "lng": -98.0735584,
        "latestObsDt": "2022-10-30 12:58",
        "numSpeciesAllTime": 49
    },
    {
        "locId": "L19879044",
        "locName": "Adams Marsh",
        "countryCode": "US",
        "subnational1Code": "US-ND",
        "subnational2Code": "US-ND-001",
        "lat": 46.13646,
        "lng": -102.200907,
        "latestObsDt": "2022-06-28 11:39",
        "numSpeciesAllTime": 34
    },
    {
        "locId": "L7639569",
        "locName": "Adrian Coulee",
        "countryCode": "US",
        "subnational1Code": "US-ND",
        "subnational2Code": "US-ND-045",
        "lat": 46.6020277,
        "lng": -98.5705392,
        "latestObsDt": "2023-07-13 17:20",
        "numSpeciesAllTime": 63
    },
    {
        "locId": "L14516888",
        "locName": "Agnes Marsh WPA",
        "countryCode": "US",
        "subnational1Code": "US-ND",
        "subnational2Code": "US-ND-035",
        "lat": 48.0895327,
        "lng": -97.7199261,
        "latestObsDt": "2024-02-03 11:20",
        "numSpeciesAllTime": 112
    },
    {
        "locId": "L9608404",
        "locName": "Alamo (town)",
        "countryCode": "US",
        "subnational1Code": "US-ND",
        "subnational2Code": "US-ND-105",
        "lat": 48.5811684,
        "lng": -103.4694096,
        "latestObsDt": "2021-09-22 12:52",
        "numSpeciesAllTime": 28
    },
    {
        "locId": "L5797558",
        "locName": "Albert K. Ekre Grassland Preserve",
        "countryCode": "US",
        "subnational1Code": "US-ND",
        "subnational2Code": "US-ND-077",
        "lat": 46.5546013,
        "lng": -97.1363795,
        "latestObsDt": "2023-10-29 15:16",
        "numSpeciesAllTime": 101
    },
    {
        "locId": "L8054690",
        "locName": "Alexander (town)",
        "countryCode": "US",
        "subnational1Code": "US-ND",
        "subnational2Code": "US-ND-053",
        "lat": 47.8425823,
        "lng": -103.6416057,
        "latestObsDt": "2024-01-07 10:37",
        "numSpeciesAllTime": 61
    },
    {
        "locId": "L12618802",
        "locName": "Alexander Cemetery",
        "countryCode": "US",
        "subnational1Code": "US-ND",
        "subnational2Code": "US-ND-053",
        "lat": 47.8491311,
        "lng": -103.6163715,
        "latestObsDt": "2023-11-07 09:34",
        "numSpeciesAllTime": 21
    },
    {
        "locId": "L19671636",
        "locName": "Alexander Henry Rest Area",
        "countryCode": "US",
        "subnational1Code": "US-ND",
        "subnational2Code": "US-ND-099",
        "lat": 48.4590262,
        "lng": -97.1934882,
        "latestObsDt": "2024-02-21 16:19",
        "numSpeciesAllTime": 58
    },
    {
        "locId": "L20201569",
        "locName": "Alice WPA",
        "countryCode": "US",
        "subnational1Code": "US-ND",
        "subnational2Code": "US-ND-017",
        "lat": 46.7745447,
        "lng": -97.5143541,
        "latestObsDt": "2023-09-17 12:36",
        "numSpeciesAllTime": 80
    },
    {
        "locId": "L9173644",
        "locName": "Alkali Creek WMA",
        "countryCode": "US",
        "subnational1Code": "US-ND",
        "subnational2Code": "US-ND-011",
        "lat": 45.9962936,
        "lng": -103.3071102,
        "latestObsDt": "2023-08-02 07:24",
        "numSpeciesAllTime": 97
    },
    {
        "locId": "L822794",
        "locName": "Alkali Lake (Kidder Co.)",
        "countryCode": "US",
        "subnational1Code": "US-ND",
        "subnational2Code": "US-ND-043",
        "lat": 46.8234976,
        "lng": -99.7811365,
        "latestObsDt": "2023-06-18 08:33",
        "numSpeciesAllTime": 103
    },
    {
        "locId": "L12673685",
        "locName": "Alkali Lake (Sargent Co.)",
        "countryCode": "US",
        "subnational1Code": "US-ND",
        "subnational2Code": "US-ND-081",
        "lat": 46.0257501,
        "lng": -97.3834427,
        "latestObsDt": "2023-11-24 09:45",
        "numSpeciesAllTime": 36
    },
    {
        "locId": "L4699080",
        "locName": "Alkali Lake (Williams Co.)",
        "countryCode": "US",
        "subnational1Code": "US-ND",
        "subnational2Code": "US-ND-105",
        "lat": 48.5777528,
        "lng": -103.6039434,
        "latestObsDt": "2023-09-16 11:26",
        "numSpeciesAllTime": 116
    },
    {
        "locId": "L158813",
        "locName": "Alkaline Lake (Kidder Co.)",
        "countryCode": "US",
        "subnational1Code": "US-ND",
        "subnational2Code": "US-ND-043",
        "lat": 46.6544883,
        "lng": -99.5669273,
        "latestObsDt": "2023-11-18 11:00",
        "numSpeciesAllTime": 117
    },
    {
        "locId": "L18041559",
        "locName": "Alton Ponds",
        "countryCode": "US",
        "subnational1Code": "US-ND",
        "subnational2Code": "US-ND-097",
        "lat": 47.3529473,
        "lng": -97.0426136,
        "latestObsDt": "2023-10-13 13:00",
        "numSpeciesAllTime": 35
    },
    {
        "locId": "L9875882",
        "locName": "Ambrose (town)",
        "countryCode": "US",
        "subnational1Code": "US-ND",
        "subnational2Code": "US-ND-023",
        "lat": 48.9533602,
        "lng": -103.4821682,
        "latestObsDt": "2023-05-27 11:45",
        "numSpeciesAllTime": 82
    },
    {
        "locId": "L5065718",
        "locName": "American Legion Park",
        "countryCode": "US",
        "subnational1Code": "US-ND",
        "subnational2Code": "US-ND-053",
        "lat": 48.0568425,
        "lng": -103.5883267,
        "latestObsDt": "2023-05-28 19:13",
        "numSpeciesAllTime": 114
    },
    {
        "locId": "L9875871",
        "locName": "Amidon (town)",
        "countryCode": "US",
        "subnational1Code": "US-ND",
        "subnational2Code": "US-ND-087",
        "lat": 46.4824553,
        "lng": -103.3214189,
        "latestObsDt": "2023-09-07 17:20",
        "numSpeciesAllTime": 90
    },
    {
        "locId": "L14719819",
        "locName": "Anamoose (town)",
        "countryCode": "US",
        "subnational1Code": "US-ND",
        "subnational2Code": "US-ND-049",
        "lat": 47.8771671,
        "lng": -100.2411116,
        "latestObsDt": "2023-07-25 15:11",
        "numSpeciesAllTime": 60
    },
    {
        "locId": "L15982549",
        "locName": "Aneta (town)",
        "countryCode": "US",
        "subnational1Code": "US-ND",
        "subnational2Code": "US-ND-063",
        "lat": 47.6794532,
        "lng": -97.9897393,
        "latestObsDt": "2023-05-09 14:05",
        "numSpeciesAllTime": 17
    },
    {
        "locId": "L8964786",
        "locName": "Antelope Lakes",
        "countryCode": "US",
        "subnational1Code": "US-ND",
        "subnational2Code": "US-ND-069",
        "lat": 47.9447338,
        "lng": -100.0654216,
        "latestObsDt": "2023-10-13 17:40",
        "numSpeciesAllTime": 161
    },
    {
        "locId": "L4870095",
        "locName": "Antler--Memorial Park",
        "countryCode": "US",
        "subnational1Code": "US-ND",
        "subnational2Code": "US-ND-009",
        "lat": 48.991586,
        "lng": -101.279641,
        "latestObsDt": "2023-10-08 15:07",
        "numSpeciesAllTime": 148
    },
    {
        "locId": "L7118692",
        "locName": "Apache Loop & Arikara Ln Cabins",
        "countryCode": "US",
        "subnational1Code": "US-ND",
        "subnational2Code": "US-ND-057",
        "lat": 47.5278633,
        "lng": -101.4805586,
        "latestObsDt": "2024-01-01 16:24",
        "numSpeciesAllTime": 42
    },
    {
        "locId": "L5914475",
        "locName": "Apple Creek Bottoms",
        "countryCode": "US",
        "subnational1Code": "US-ND",
        "subnational2Code": "US-ND-015",
        "lat": 46.6989703,
        "lng": -100.7702457,
        "latestObsDt": "2024-02-22 12:13",
        "numSpeciesAllTime": 137
    },
    {
        "locId": "L6524538",
        "locName": "Ardoch NWR",
        "countryCode": "US",
        "subnational1Code": "US-ND",
        "subnational2Code": "US-ND-099",
        "lat": 48.2378653,
        "lng": -97.3133067,
        "latestObsDt": "2023-07-29 13:39",
        "numSpeciesAllTime": 88
    },
    {
        "locId": "L8080866",
        "locName": "Arnegard (town)",
        "countryCode": "US",
        "subnational1Code": "US-ND",
        "subnational2Code": "US-ND-053",
        "lat": 47.8077147,
        "lng": -103.439217,
        "latestObsDt": "2023-12-03 10:58",
        "numSpeciesAllTime": 36
    },
    {
        "locId": "L9150172",
        "locName": "Arnegard Dam",
        "countryCode": "US",
        "subnational1Code": "US-ND",
        "subnational2Code": "US-ND-053",
        "lat": 47.8352981,
        "lng": -103.4857218,
        "latestObsDt": "2023-12-03 10:46",
        "numSpeciesAllTime": 73
    },
    {
        "locId": "L15262244",
        "locName": "Arroda Lakes",
        "countryCode": "US",
        "subnational1Code": "US-ND",
        "subnational2Code": "US-ND-065",
        "lat": 47.2345632,
        "lng": -101.2226622,
        "latestObsDt": "2023-09-01 16:38",
        "numSpeciesAllTime": 54
    },
    {
        "locId": "L158896",
        "locName": "Arrowwood NWR (please use a more specific location)",
        "countryCode": "US",
        "subnational1Code": "US-ND",
        "subnational2Code": "US-ND-093",
        "lat": 47.2345589,
        "lng": -98.8529893,
        "latestObsDt": "2023-08-23 08:56",
        "numSpeciesAllTime": 238
    },
    {
        "locId": "L473511",
        "locName": "Arrowwood NWR--Auto Tour m.p. 0",
        "countryCode": "US",
        "subnational1Code": "US-ND",
        "subnational2Code": "US-ND-093",
        "lat": 47.25462,
        "lng": -98.8596,
        "latestObsDt": "2023-08-29 09:16",
        "numSpeciesAllTime": 167
    },
    {
        "locId": "L473512",
        "locName": "Arrowwood NWR--Auto Tour m.p. 0.5",
        "countryCode": "US",
        "subnational1Code": "US-ND",
        "subnational2Code": "US-ND-093",
        "lat": 47.24757,
        "lng": -98.85772,
        "latestObsDt": "2023-08-06 12:11",
        "numSpeciesAllTime": 71
    },
    {
        "locId": "L473515",
        "locName": "Arrowwood NWR--Auto Tour m.p. 1.0",
        "countryCode": "US",
        "subnational1Code": "US-ND",
        "subnational2Code": "US-ND-093",
        "lat": 47.2424734,
        "lng": -98.8515043,
        "latestObsDt": "2023-07-09 11:11",
        "numSpeciesAllTime": 91
    },
    {
        "locId": "L473519",
        "locName": "Arrowwood NWR--Auto Tour m.p. 1.5",
        "countryCode": "US",
        "subnational1Code": "US-ND",
        "subnational2Code": "US-ND-093",
        "lat": 47.2373454,
        "lng": -98.8442302,
        "latestObsDt": "2023-08-17 15:28",
        "numSpeciesAllTime": 105
    },
    {
        "locId": "L473524",
        "locName": "Arrowwood NWR--Auto Tour m.p. 2.0",
        "countryCode": "US",
        "subnational1Code": "US-ND",
        "subnational2Code": "US-ND-093",
        "lat": 47.23245,
        "lng": -98.8478994,
        "latestObsDt": "2023-05-05 06:15",
        "numSpeciesAllTime": 120
    },
    {
        "locId": "L473525",
        "locName": "Arrowwood NWR--Auto Tour m.p. 2.5",
        "countryCode": "US",
        "subnational1Code": "US-ND",
        "subnational2Code": "US-ND-093",
        "lat": 47.2263593,
        "lng": -98.8535857,
        "latestObsDt": "2021-07-11 15:48",
        "numSpeciesAllTime": 64
    },
    {
        "locId": "L473526",
        "locName": "Arrowwood NWR--Auto Tour m.p. 3.0",
        "countryCode": "US",
        "subnational1Code": "US-ND",
        "subnational2Code": "US-ND-093",
        "lat": 47.2212005,
        "lng": -98.8583493,
        "latestObsDt": "2021-07-01 10:30",
        "numSpeciesAllTime": 117
    },
    {
        "locId": "L473527",
        "locName": "Arrowwood NWR--Auto Tour m.p. 3.5",
        "countryCode": "US",
        "subnational1Code": "US-ND",
        "subnational2Code": "US-ND-093",
        "lat": 47.2239111,
        "lng": -98.8659883,
        "latestObsDt": "2022-08-25 15:47",
        "numSpeciesAllTime": 92
    },
    {
        "locId": "L473530",
        "locName": "Arrowwood NWR--Auto Tour m.p. 4.0",
        "countryCode": "US",
        "subnational1Code": "US-ND",
        "subnational2Code": "US-ND-093",
        "lat": 47.2303061,
        "lng": -98.8685474,
        "latestObsDt": "2022-07-26 17:04",
        "numSpeciesAllTime": 88
    },
    {
        "locId": "L473531",
        "locName": "Arrowwood NWR--Auto Tour m.p. 4.5",
        "countryCode": "US",
        "subnational1Code": "US-ND",
        "subnational2Code": "US-ND-093",
        "lat": 47.2371269,
        "lng": -98.8663745,
        "latestObsDt": "2023-05-27 07:10",
        "numSpeciesAllTime": 73
    },
    {
        "locId": "L473532",
        "locName": "Arrowwood NWR--Auto Tour m.p. 5.0",
        "countryCode": "US",
        "subnational1Code": "US-ND",
        "subnational2Code": "US-ND-093",
        "lat": 47.24259,
        "lng": -98.8622117,
        "latestObsDt": "2022-08-15 12:10",
        "numSpeciesAllTime": 33
    },
    {
        "locId": "L473533",
        "locName": "Arrowwood NWR--Auto Tour m.p. 5.5",
        "countryCode": "US",
        "subnational1Code": "US-ND",
        "subnational2Code": "US-ND-093",
        "lat": 47.2494945,
        "lng": -98.860023,
        "latestObsDt": "2022-07-20 16:40",
        "numSpeciesAllTime": 122
    },
    {
        "locId": "L473383",
        "locName": "Arrowwood NWR--Depuy Marsh (N end)",
        "countryCode": "US",
        "subnational1Code": "US-ND",
        "subnational2Code": "US-ND-093",
        "lat": 47.1616133,
        "lng": -98.78715,
        "latestObsDt": "2023-06-09 14:20",
        "numSpeciesAllTime": 136
    },
    {
        "locId": "L473391",
        "locName": "Arrowwood NWR--Mud Lake Crossing (Humpback Rd.)",
        "countryCode": "US",
        "subnational1Code": "US-ND",
        "subnational2Code": "US-ND-093",
        "lat": 47.20264,
        "lng": -98.8577,
        "latestObsDt": "2023-07-01 12:27",
        "numSpeciesAllTime": 56
    },
    {
        "locId": "L473540",
        "locName": "Arrowwood NWR--ND 9 Crossing",
        "countryCode": "US",
        "subnational1Code": "US-ND",
        "subnational2Code": "US-ND-031",
        "lat": 47.3268843,
        "lng": -98.8319021,
        "latestObsDt": "2022-08-28 16:11",
        "numSpeciesAllTime": 59
    },
    {
        "locId": "L1086534",
        "locName": "Arrowwood NWR--Warbler Woodland Trail",
        "countryCode": "US",
        "subnational1Code": "US-ND",
        "subnational2Code": "US-ND-093",
        "lat": 47.2627984,
        "lng": -98.8438453,
        "latestObsDt": "2023-08-17 13:36",
        "numSpeciesAllTime": 165
    },
    {
        "locId": "L7216048",
        "locName": "Arrowwood NWR--visitor center area",
        "countryCode": "US",
        "subnational1Code": "US-ND",
        "subnational2Code": "US-ND-093",
        "lat": 47.269036,
        "lng": -98.8526309,
        "latestObsDt": "2023-09-14 12:00",
        "numSpeciesAllTime": 140
    },
    {
        "locId": "L12844293",
        "locName": "Arvilla (town)",
        "countryCode": "US",
        "subnational1Code": "US-ND",
        "subnational2Code": "US-ND-035",
        "lat": 47.9193661,
        "lng": -97.4977881,
        "latestObsDt": "2023-03-24 10:52",
        "numSpeciesAllTime": 27
    },
    {
        "locId": "L18377178",
        "locName": "Arvilla Cemetery",
        "countryCode": "US",
        "subnational1Code": "US-ND",
        "subnational2Code": "US-ND-035",
        "lat": 47.9249193,
        "lng": -97.4954522,
        "latestObsDt": "2024-02-22 11:05",
        "numSpeciesAllTime": 5
    },
    {
        "locId": "L14227002",
        "locName": "Ashley (town)",
        "countryCode": "US",
        "subnational1Code": "US-ND",
        "subnational2Code": "US-ND-051",
        "lat": 46.0344756,
        "lng": -99.3717786,
        "latestObsDt": "2023-11-30 14:58",
        "numSpeciesAllTime": 80
    },
    {
        "locId": "L158895",
        "locName": "Audubon NWR",
        "countryCode": "US",
        "subnational1Code": "US-ND",
        "subnational2Code": "US-ND-055",
        "lat": 47.577987,
        "lng": -101.2470187,
        "latestObsDt": "2023-12-16 11:15",
        "numSpeciesAllTime": 226
    },
    {
        "locId": "L11474602",
        "locName": "Augustadt Dam",
        "countryCode": "US",
        "subnational1Code": "US-ND",
        "subnational2Code": "US-ND-097",
        "lat": 47.3026546,
        "lng": -97.3619319,
        "latestObsDt": "2022-07-23 09:17",
        "numSpeciesAllTime": 63
    },
    {
        "locId": "L14689370",
        "locName": "Barnes County Longspur Pasture",
        "countryCode": "US",
        "subnational1Code": "US-ND",
        "subnational2Code": "US-ND-003",
        "lat": 47.1345426,
        "lng": -98.0033695,
        "latestObsDt": "2023-07-08 10:24",
        "numSpeciesAllTime": 31
    },
    {
        "locId": "L27068877",
        "locName": "Barton (town)",
        "countryCode": "US",
        "subnational1Code": "US-ND",
        "subnational2Code": "US-ND-069",
        "lat": 48.5069042,
        "lng": -100.1765458,
        "latestObsDt": "1884-05-04 00:00",
        "numSpeciesAllTime": 1
    },
    {
        "locId": "L9549146",
        "locName": "Basaraba WPA",
        "countryCode": "US",
        "subnational1Code": "US-ND",
        "subnational2Code": "US-ND-015",
        "lat": 47.2001452,
        "lng": -100.4319939,
        "latestObsDt": "2023-06-02 18:35",
        "numSpeciesAllTime": 94
    },
    {
        "locId": "L18297716",
        "locName": "Bathgate (town)",
        "countryCode": "US",
        "subnational1Code": "US-ND",
        "subnational2Code": "US-ND-067",
        "lat": 48.87734,
        "lng": -97.4762885,
        "latestObsDt": "2022-03-29 09:00",
        "numSpeciesAllTime": 4
    },
    {
        "locId": "L15950274",
        "locName": "Battle of the Badlands Interpretive Site",
        "countryCode": "US",
        "subnational1Code": "US-ND",
        "subnational2Code": "US-ND-033",
        "lat": 46.8724742,
        "lng": -103.6767923,
        "latestObsDt": "2024-02-24 13:04",
        "numSpeciesAllTime": 20
    },
    {
        "locId": "L8633849",
        "locName": "Baumgartner Lake",
        "countryCode": "US",
        "subnational1Code": "US-ND",
        "subnational2Code": "US-ND-029",
        "lat": 46.1787602,
        "lng": -100.1929964,
        "latestObsDt": "2023-11-17 15:11",
        "numSpeciesAllTime": 80
    },
    {
        "locId": "L5606709",
        "locName": "Beach (town)",
        "countryCode": "US",
        "subnational1Code": "US-ND",
        "subnational2Code": "US-ND-033",
        "lat": 46.9156053,
        "lng": -104.006082,
        "latestObsDt": "2023-11-26 15:25",
        "numSpeciesAllTime": 115
    },
    {
        "locId": "L9168689",
        "locName": "Beach Cemetery",
        "countryCode": "US",
        "subnational1Code": "US-ND",
        "subnational2Code": "US-ND-033",
        "lat": 46.905396,
        "lng": -104.007657,
        "latestObsDt": "2023-09-25 11:20",
        "numSpeciesAllTime": 74
    },
    {
        "locId": "L2897205",
        "locName": "Beach Lagoons",
        "countryCode": "US",
        "subnational1Code": "US-ND",
        "subnational2Code": "US-ND-033",
        "lat": 46.916449,
        "lng": -103.9854632,
        "latestObsDt": "2023-06-17 18:22",
        "numSpeciesAllTime": 96
    },
    {
        "locId": "L11964710",
        "locName": "Bear Den Creek area",
        "countryCode": "US",
        "subnational1Code": "US-ND",
        "subnational2Code": "US-ND-053",
        "lat": 47.8141984,
        "lng": -102.7167817,
        "latestObsDt": "2023-10-01 13:09",
        "numSpeciesAllTime": 30
    },
    {
        "locId": "L5041475",
        "locName": "Beaver Creek Bay",
        "countryCode": "US",
        "subnational1Code": "US-ND",
        "subnational2Code": "US-ND-057",
        "lat": 47.4597709,
        "lng": -101.9155801,
        "latestObsDt": "2022-09-10 15:07",
        "numSpeciesAllTime": 52
    },
    {
        "locId": "L741613",
        "locName": "Beaver Creek Recreation Area",
        "countryCode": "US",
        "subnational1Code": "US-ND",
        "subnational2Code": "US-ND-029",
        "lat": 46.2497201,
        "lng": -100.5333343,
        "latestObsDt": "2023-11-30 12:25",
        "numSpeciesAllTime": 173
    },
    {
        "locId": "L3645385",
        "locName": "Beaver Lake SP",
        "countryCode": "US",
        "subnational1Code": "US-ND",
        "subnational2Code": "US-ND-047",
        "lat": 46.4027266,
        "lng": -99.6152618,
        "latestObsDt": "2023-09-10 06:50",
        "numSpeciesAllTime": 198
    },
    {
        "locId": "L22221266",
        "locName": "Belcourt--Ox Creek Park",
        "countryCode": "US",
        "subnational1Code": "US-ND",
        "subnational2Code": "US-ND-079",
        "lat": 48.8405464,
        "lng": -99.7476397,
        "latestObsDt": "2023-01-22 08:50",
        "numSpeciesAllTime": 5
    },
    {
        "locId": "L4791817",
        "locName": "Belden Slough",
        "countryCode": "US",
        "subnational1Code": "US-ND",
        "subnational2Code": "US-ND-061",
        "lat": 48.1548365,
        "lng": -102.287129,
        "latestObsDt": "2023-03-31 13:30",
        "numSpeciesAllTime": 125
    },
    {
        "locId": "L10835975",
        "locName": "Belfield (town)",
        "countryCode": "US",
        "subnational1Code": "US-ND",
        "subnational2Code": "US-ND-089",
        "lat": 46.8865376,
        "lng": -103.1992521,
        "latestObsDt": "2023-07-20 10:17",
        "numSpeciesAllTime": 72
    },
    {
        "locId": "L9991190",
        "locName": "Belfield Dam",
        "countryCode": "US",
        "subnational1Code": "US-ND",
        "subnational2Code": "US-ND-089",
        "lat": 46.878735,
        "lng": -103.206973,
        "latestObsDt": "2024-02-18 08:49",
        "numSpeciesAllTime": 79
    },
    {
        "locId": "L3579907",
        "locName": "Belfield WTP",
        "countryCode": "US",
        "subnational1Code": "US-ND",
        "subnational2Code": "US-ND-089",
        "lat": 46.8822302,
        "lng": -103.1783259,
        "latestObsDt": "2023-10-14 14:06",
        "numSpeciesAllTime": 123
    },
    {
        "locId": "L12189852",
        "locName": "Belmont Park (Frog Point)",
        "countryCode": "US",
        "subnational1Code": "US-ND",
        "subnational2Code": "US-ND-097",
        "lat": 47.6228567,
        "lng": -96.8783109,
        "latestObsDt": "2022-09-03 18:58",
        "numSpeciesAllTime": 99
    },
    {
        "locId": "L5060288",
        "locName": "Bennett Campground",
        "countryCode": "US",
        "subnational1Code": "US-ND",
        "subnational2Code": "US-ND-053",
        "lat": 47.490629,
        "lng": -103.3499773,
        "latestObsDt": "2023-12-26 12:50",
        "numSpeciesAllTime": 64
    },
    {
        "locId": "L3189986",
        "locName": "Berthold (town)",
        "countryCode": "US",
        "subnational1Code": "US-ND",
        "subnational2Code": "US-ND-101",
        "lat": 48.315416,
        "lng": -101.7351445,
        "latestObsDt": "2023-06-03 21:33",
        "numSpeciesAllTime": 17
    },
    {
        "locId": "L12744205",
        "locName": "Bethania Cemetery",
        "countryCode": "US",
        "subnational1Code": "US-ND",
        "subnational2Code": "US-ND-035",
        "lat": 47.7146212,
        "lng": -97.6781316,
        "latestObsDt": "2022-05-25 12:25",
        "numSpeciesAllTime": 24
    },
    {
        "locId": "L14444431",
        "locName": "Bethel Lutheran Church & Cemetery",
        "countryCode": "US",
        "subnational1Code": "US-ND",
        "subnational2Code": "US-ND-035",
        "lat": 47.884256,
        "lng": -97.7958048,
        "latestObsDt": "2021-08-16 17:40",
        "numSpeciesAllTime": 1
    },
    {
        "locId": "L25231694",
        "locName": "Bethesda Lutheran Church & Cemetery",
        "countryCode": "US",
        "subnational1Code": "US-ND",
        "subnational2Code": "US-ND-037",
        "lat": 46.1327217,
        "lng": -101.6655288
    },
    {
        "locId": "L5041424",
        "locName": "Beulah Bay",
        "countryCode": "US",
        "subnational1Code": "US-ND",
        "subnational2Code": "US-ND-057",
        "lat": 47.5026437,
        "lng": -101.7660953,
        "latestObsDt": "2022-09-12 10:50",
        "numSpeciesAllTime": 80
    },
    {
        "locId": "L4722088",
        "locName": "Beulah--Riverside Park",
        "countryCode": "US",
        "subnational1Code": "US-ND",
        "subnational2Code": "US-ND-057",
        "lat": 47.2538644,
        "lng": -101.7822907,
        "latestObsDt": "2023-08-21 13:56",
        "numSpeciesAllTime": 135
    },
    {
        "locId": "L11041318",
        "locName": "Big Bend Slough",
        "countryCode": "US",
        "subnational1Code": "US-ND",
        "subnational2Code": "US-ND-061",
        "lat": 47.8797403,
        "lng": -102.5511714,
        "latestObsDt": "2020-03-28 11:07",
        "numSpeciesAllTime": 25
    },
    {
        "locId": "L9387776",
        "locName": "Big Coulee Dam",
        "countryCode": "US",
        "subnational1Code": "US-ND",
        "subnational2Code": "US-ND-095",
        "lat": 48.6406727,
        "lng": -99.3609872,
        "latestObsDt": "2023-06-13 13:46",
        "numSpeciesAllTime": 83
    },
    {
        "locId": "L6307959",
        "locName": "Big Gumbo Mgmt. Area--Cedar Ridge",
        "countryCode": "US",
        "subnational1Code": "US-ND",
        "subnational2Code": "US-ND-011",
        "lat": 46.0546383,
        "lng": -103.9689774,
        "latestObsDt": "2024-01-30 11:17",
        "numSpeciesAllTime": 138
    },
    {
        "locId": "L2818292",
        "locName": "Big Gumbo--Little Missouri crossing",
        "countryCode": "US",
        "subnational1Code": "US-ND",
        "subnational2Code": "US-ND-011",
        "lat": 46.0474868,
        "lng": -103.9542103,
        "latestObsDt": "2023-06-09 08:51",
        "numSpeciesAllTime": 81
    },
    {
        "locId": "L3708353",
        "locName": "Big Marshall Pond",
        "countryCode": "US",
        "subnational1Code": "US-ND",
        "subnational2Code": "US-ND-025",
        "lat": 47.21301,
        "lng": -102.40518,
        "latestObsDt": "2022-09-09 16:40",
        "numSpeciesAllTime": 64
    },
    {
        "locId": "L15716879",
        "locName": "Bilkre WPA",
        "countryCode": "US",
        "subnational1Code": "US-ND",
        "subnational2Code": "US-ND-073",
        "lat": 46.5583412,
        "lng": -97.9804556,
        "latestObsDt": "2021-07-10 08:00",
        "numSpeciesAllTime": 32
    },
    {
        "locId": "L12216718",
        "locName": "Binford (town)",
        "countryCode": "US",
        "subnational1Code": "US-ND",
        "subnational2Code": "US-ND-039",
        "lat": 47.5618608,
        "lng": -98.3451324,
        "latestObsDt": "2023-11-11 14:45",
        "numSpeciesAllTime": 29
    },
    {
        "locId": "L12212086",
        "locName": "Bisbee (town)",
        "countryCode": "US",
        "subnational1Code": "US-ND",
        "subnational2Code": "US-ND-095",
        "lat": 48.6267414,
        "lng": -99.3789834,
        "latestObsDt": "2023-04-15 10:21",
        "numSpeciesAllTime": 17
    },
    {
        "locId": "L5661409",
        "locName": "Bisek Lake",
        "countryCode": "US",
        "subnational1Code": "US-ND",
        "subnational2Code": "US-ND-077",
        "lat": 46.1020555,
        "lng": -97.1717038,
        "latestObsDt": "2022-06-20 12:08",
        "numSpeciesAllTime": 63
    },
    {
        "locId": "L9247715",
        "locName": "Bismarck Airport",
        "countryCode": "US",
        "subnational1Code": "US-ND",
        "subnational2Code": "US-ND-015",
        "lat": 46.7752162,
        "lng": -100.7572434,
        "latestObsDt": "2023-06-24 11:45",
        "numSpeciesAllTime": 28
    },
    {
        "locId": "L375975",
        "locName": "Bismarck Landfill",
        "countryCode": "US",
        "subnational1Code": "US-ND",
        "subnational2Code": "US-ND-015",
        "lat": 46.8342147,
        "lng": -100.6981516,
        "latestObsDt": "2023-04-08 08:38",
        "numSpeciesAllTime": 45
    },
    {
        "locId": "L11621340",
        "locName": "Bismarck--Atkinson Nature Park",
        "countryCode": "US",
        "subnational1Code": "US-ND",
        "subnational2Code": "US-ND-015",
        "lat": 46.7792773,
        "lng": -100.815278,
        "latestObsDt": "2024-02-25 10:43",
        "numSpeciesAllTime": 106
    },
    {
        "locId": "L26024964",
        "locName": "Bismarck--Bill Mills Nature Trail",
        "countryCode": "US",
        "subnational1Code": "US-ND",
        "subnational2Code": "US-ND-015",
        "lat": 46.7946121,
        "lng": -100.8108191,
        "latestObsDt": "2024-02-25 14:49",
        "numSpeciesAllTime": 66
    },
    {
        "locId": "L23636049",
        "locName": "Bismarck--Camp Hancock Historic Site",
        "countryCode": "US",
        "subnational1Code": "US-ND",
        "subnational2Code": "US-ND-015",
        "lat": 46.8051802,
        "lng": -100.7904032,
        "latestObsDt": "2023-06-09 17:20",
        "numSpeciesAllTime": 3
    },
    {
        "locId": "L6375099",
        "locName": "Bismarck--Cottonwood Park",
        "countryCode": "US",
        "subnational1Code": "US-ND",
        "subnational2Code": "US-ND-015",
        "lat": 46.7736279,
        "lng": -100.7799159,
        "latestObsDt": "2024-02-21 10:23",
        "numSpeciesAllTime": 115
    },
    {
        "locId": "L9427360",
        "locName": "Bismarck--Custer Park",
        "countryCode": "US",
        "subnational1Code": "US-ND",
        "subnational2Code": "US-ND-015",
        "lat": 46.8073873,
        "lng": -100.7952787,
        "latestObsDt": "2020-06-04 18:47",
        "numSpeciesAllTime": 19
    },
    {
        "locId": "L7115977",
        "locName": "Bismarck--Fairview Cemetery",
        "countryCode": "US",
        "subnational1Code": "US-ND",
        "subnational2Code": "US-ND-015",
        "lat": 46.8374209,
        "lng": -100.748131,
        "latestObsDt": "2023-12-23 12:28",
        "numSpeciesAllTime": 69
    },
    {
        "locId": "L8665575",
        "locName": "Bismarck--Fox Island Boat Ramp",
        "countryCode": "US",
        "subnational1Code": "US-ND",
        "subnational2Code": "US-ND-015",
        "lat": 46.7756691,
        "lng": -100.8270641,
        "latestObsDt": "2023-04-07 14:58",
        "numSpeciesAllTime": 60
    },
    {
        "locId": "L921203",
        "locName": "Bismarck--General Sibley Park",
        "countryCode": "US",
        "subnational1Code": "US-ND",
        "subnational2Code": "US-ND-015",
        "lat": 46.7451567,
        "lng": -100.7877484,
        "latestObsDt": "2024-02-11 08:18",
        "numSpeciesAllTime": 197
    },
    {
        "locId": "L18643015",
        "locName": "Bismarck--Johnny Gisi Memorial Park",
        "countryCode": "US",
        "subnational1Code": "US-ND",
        "subnational2Code": "US-ND-015",
        "lat": 46.8464193,
        "lng": -100.7515061,
        "latestObsDt": "2023-08-06 19:42",
        "numSpeciesAllTime": 49
    },
    {
        "locId": "L8665616",
        "locName": "Bismarck--Keelboat Park",
        "countryCode": "US",
        "subnational1Code": "US-ND",
        "subnational2Code": "US-ND-015",
        "lat": 46.8229648,
        "lng": -100.828037,
        "latestObsDt": "2024-02-21 17:43",
        "numSpeciesAllTime": 76
    },
    {
        "locId": "L9557377",
        "locName": "Bismarck--Kiwanis Park",
        "countryCode": "US",
        "subnational1Code": "US-ND",
        "subnational2Code": "US-ND-015",
        "lat": 46.8024745,
        "lng": -100.7968046,
        "latestObsDt": "2022-09-17 19:05",
        "numSpeciesAllTime": 30
    },
    {
        "locId": "L8665579",
        "locName": "Bismarck--Kniefel Boat Ramp",
        "countryCode": "US",
        "subnational1Code": "US-ND",
        "subnational2Code": "US-ND-015",
        "lat": 46.8672001,
        "lng": -100.87151,
        "latestObsDt": "2023-12-23 15:18",
        "numSpeciesAllTime": 56
    },
    {
        "locId": "L2764155",
        "locName": "Bismarck--Lions Park",
        "countryCode": "US",
        "subnational1Code": "US-ND",
        "subnational2Code": "US-ND-015",
        "lat": 46.8151519,
        "lng": -100.7631977,
        "latestObsDt": "2023-08-22 14:35",
        "numSpeciesAllTime": 47
    },
    {
        "locId": "L13012227",
        "locName": "Bismarck--NDGF Owls Pond",
        "countryCode": "US",
        "subnational1Code": "US-ND",
        "subnational2Code": "US-ND-015",
        "lat": 46.8052645,
        "lng": -100.7346209,
        "latestObsDt": "2024-02-23 07:00",
        "numSpeciesAllTime": 85
    },
    {
        "locId": "L791983",
        "locName": "Bismarck--Pioneer Park",
        "countryCode": "US",
        "subnational1Code": "US-ND",
        "subnational2Code": "US-ND-015",
        "lat": 46.8297962,
        "lng": -100.8328259,
        "latestObsDt": "2024-02-22 17:45",
        "numSpeciesAllTime": 160
    },
    {
        "locId": "L6341842",
        "locName": "Bismarck--Riverfront Trail",
        "countryCode": "US",
        "subnational1Code": "US-ND",
        "subnational2Code": "US-ND-015",
        "lat": 46.8028306,
        "lng": -100.812202,
        "latestObsDt": "2023-12-17 13:50",
        "numSpeciesAllTime": 117
    },
    {
        "locId": "L9305732",
        "locName": "Bismarck--Riverwood Golf Course Loop",
        "countryCode": "US",
        "subnational1Code": "US-ND",
        "subnational2Code": "US-ND-015",
        "lat": 46.790088,
        "lng": -100.8136022,
        "latestObsDt": "2024-02-25 14:38",
        "numSpeciesAllTime": 66
    },
    {
        "locId": "L1637608",
        "locName": "Bismarck--Sibley Nature Park",
        "countryCode": "US",
        "subnational1Code": "US-ND",
        "subnational2Code": "US-ND-015",
        "lat": 46.7216348,
        "lng": -100.7680178,
        "latestObsDt": "2024-02-22 10:33",
        "numSpeciesAllTime": 158
    },
    {
        "locId": "L720872",
        "locName": "Bismarck--Sleepy Hollow Park",
        "countryCode": "US",
        "subnational1Code": "US-ND",
        "subnational2Code": "US-ND-015",
        "lat": 46.8215831,
        "lng": -100.7496251,
        "latestObsDt": "2024-02-14 09:05",
        "numSpeciesAllTime": 162
    },
    {
        "locId": "L8268795",
        "locName": "Bismarck--St. Maryâ€™s Cemetery",
        "countryCode": "US",
        "subnational1Code": "US-ND",
        "subnational2Code": "US-ND-015",
        "lat": 46.8150592,
        "lng": -100.7559717,
        "latestObsDt": "2023-08-22 14:28",
        "numSpeciesAllTime": 28
    },
    {
        "locId": "L8665516",
        "locName": "Bismarck--Steamboat Park",
        "countryCode": "US",
        "subnational1Code": "US-ND",
        "subnational2Code": "US-ND-015",
        "lat": 46.8164051,
        "lng": -100.8228125,
        "latestObsDt": "2023-12-25 15:15",
        "numSpeciesAllTime": 50
    },
    {
        "locId": "L2275193",
        "locName": "Bismarck--Tom O'Leary Arboretum",
        "countryCode": "US",
        "subnational1Code": "US-ND",
        "subnational2Code": "US-ND-015",
        "lat": 46.8224276,
        "lng": -100.8055271,
        "latestObsDt": "2024-02-11 16:27",
        "numSpeciesAllTime": 140
    },
    {
        "locId": "L9358706",
        "locName": "Bismarck--Zonta Park",
        "countryCode": "US",
        "subnational1Code": "US-ND",
        "subnational2Code": "US-ND-015",
        "lat": 46.806295,
        "lng": -100.8011982,
        "latestObsDt": "2024-01-22 10:54",
        "numSpeciesAllTime": 28
    },
    {
        "locId": "L2236785",
        "locName": "Blacktail Dam",
        "countryCode": "US",
        "subnational1Code": "US-ND",
        "subnational2Code": "US-ND-105",
        "lat": 48.4328439,
        "lng": -103.7365999,
        "latestObsDt": "2023-11-09 16:18",
        "numSpeciesAllTime": 174
    },
    {
        "locId": "L5606568",
        "locName": "Blacktail Rd (Golden Valley Co.)",
        "countryCode": "US",
        "subnational1Code": "US-ND",
        "subnational2Code": "US-ND-033",
        "lat": 47.2963044,
        "lng": -103.775416,
        "latestObsDt": "2021-12-20 14:21",
        "numSpeciesAllTime": 37
    },
    {
        "locId": "L16095090",
        "locName": "Bladow WPA",
        "countryCode": "US",
        "subnational1Code": "US-ND",
        "subnational2Code": "US-ND-077",
        "lat": 46.0594521,
        "lng": -96.9821429,
        "latestObsDt": "2022-10-04 14:05",
        "numSpeciesAllTime": 46
    },
    {
        "locId": "L18897081",
        "locName": "Borg Lake (Sargent Co.)",
        "countryCode": "US",
        "subnational1Code": "US-ND",
        "subnational2Code": "US-ND-081",
        "lat": 46.2100601,
        "lng": -97.4114604,
        "latestObsDt": "2023-11-20 16:08",
        "numSpeciesAllTime": 105
    },
    {
        "locId": "L8500605",
        "locName": "Bottineau--Forestry Park",
        "countryCode": "US",
        "subnational1Code": "US-ND",
        "subnational2Code": "US-ND-009",
        "lat": 48.8246603,
        "lng": -100.4540118,
        "latestObsDt": "2024-01-22 14:37",
        "numSpeciesAllTime": 86
    },
    {
        "locId": "L8224274",
        "locName": "Bowbells (town)",
        "countryCode": "US",
        "subnational1Code": "US-ND",
        "subnational2Code": "US-ND-013",
        "lat": 48.8037701,
        "lng": -102.2450548,
        "latestObsDt": "2023-10-14 09:09",
        "numSpeciesAllTime": 18
    },
    {
        "locId": "L7564457",
        "locName": "Bowman (town)",
        "countryCode": "US",
        "subnational1Code": "US-ND",
        "subnational2Code": "US-ND-011",
        "lat": 46.1812111,
        "lng": -103.397975,
        "latestObsDt": "2024-02-16 10:48",
        "numSpeciesAllTime": 122
    },
    {
        "locId": "L778020",
        "locName": "Bowman WTP",
        "countryCode": "US",
        "subnational1Code": "US-ND",
        "subnational2Code": "US-ND-011",
        "lat": 46.169686,
        "lng": -103.4055499,
        "latestObsDt": "2023-11-25 16:02",
        "numSpeciesAllTime": 157
    },
    {
        "locId": "L16010104",
        "locName": "Bowman-Haley Lake Spillway",
        "countryCode": "US",
        "subnational1Code": "US-ND",
        "subnational2Code": "US-ND-011",
        "lat": 45.9845823,
        "lng": -103.2448508,
        "latestObsDt": "2023-09-06 13:21",
        "numSpeciesAllTime": 36
    },
    {
        "locId": "L14664875",
        "locName": "Bowman-Haley Lake--Southeast shoreline",
        "countryCode": "US",
        "subnational1Code": "US-ND",
        "subnational2Code": "US-ND-011",
        "lat": 45.969577,
        "lng": -103.262861,
        "latestObsDt": "2024-02-13 11:25",
        "numSpeciesAllTime": 131
    },
    {
        "locId": "L19728654",
        "locName": "Bowman-Haley Lake--West point",
        "countryCode": "US",
        "subnational1Code": "US-ND",
        "subnational2Code": "US-ND-011",
        "lat": 45.983775,
        "lng": -103.269422,
        "latestObsDt": "2023-05-30 14:51",
        "numSpeciesAllTime": 60
    },
    {
        "locId": "L158900",
        "locName": "Bowman-Haley Recreation Area",
        "countryCode": "US",
        "subnational1Code": "US-ND",
        "subnational2Code": "US-ND-011",
        "lat": 45.9890367,
        "lng": -103.2518945,
        "latestObsDt": "2023-12-21 11:49",
        "numSpeciesAllTime": 232
    },
    {
        "locId": "L15403703",
        "locName": "Braddock (town)",
        "countryCode": "US",
        "subnational1Code": "US-ND",
        "subnational2Code": "US-ND-029",
        "lat": 46.5659327,
        "lng": -100.0889032,
        "latestObsDt": "2023-05-05 14:00",
        "numSpeciesAllTime": 44
    },
    {
        "locId": "L27732223",
        "locName": "Braddock Dam",
        "countryCode": "US",
        "subnational1Code": "US-ND",
        "subnational2Code": "US-ND-029",
        "lat": 46.5420204,
        "lng": -100.1159427,
        "latestObsDt": "2023-10-29 08:54",
        "numSpeciesAllTime": 12
    },
    {
        "locId": "L712781",
        "locName": "Brewer Lake",
        "countryCode": "US",
        "subnational1Code": "US-ND",
        "subnational2Code": "US-ND-017",
        "lat": 47.0987827,
        "lng": -97.419415,
        "latestObsDt": "2024-02-10 08:21",
        "numSpeciesAllTime": 153
    },
    {
        "locId": "L7237529",
        "locName": "Briar Creek Coulee",
        "countryCode": "US",
        "subnational1Code": "US-ND",
        "subnational2Code": "US-ND-053",
        "lat": 47.9386369,
        "lng": -103.9296276,
        "latestObsDt": "2024-01-07 09:40",
        "numSpeciesAllTime": 80
    },
    {
        "locId": "L7272400",
        "locName": "Briarwood Ponds",
        "countryCode": "US",
        "subnational1Code": "US-ND",
        "subnational2Code": "US-ND-017",
        "lat": 46.7863284,
        "lng": -96.8031517,
        "latestObsDt": "2023-09-22 15:03",
        "numSpeciesAllTime": 90
    },
    {
        "locId": "L158890",
        "locName": "Broken Bone Lake",
        "countryCode": "US",
        "subnational1Code": "US-ND",
        "subnational2Code": "US-ND-005",
        "lat": 48.3476213,
        "lng": -99.8025538,
        "latestObsDt": "2023-09-17 14:17",
        "numSpeciesAllTime": 133
    },
    {
        "locId": "L2838788",
        "locName": "Bryan-Mohler WPA",
        "countryCode": "US",
        "subnational1Code": "US-ND",
        "subnational2Code": "US-ND-015",
        "lat": 46.7943462,
        "lng": -100.6259327,
        "latestObsDt": "2023-05-30 07:10",
        "numSpeciesAllTime": 124
    },
    {
        "locId": "L6573977",
        "locName": "Buffalo Gap Campground",
        "countryCode": "US",
        "subnational1Code": "US-ND",
        "subnational2Code": "US-ND-033",
        "lat": 46.9544546,
        "lng": -103.6748992,
        "latestObsDt": "2023-08-07 08:47",
        "numSpeciesAllTime": 102
    },
    {
        "locId": "L9482826",
        "locName": "Buffalo Gap Dam",
        "countryCode": "US",
        "subnational1Code": "US-ND",
        "subnational2Code": "US-ND-033",
        "lat": 46.9398784,
        "lng": -103.637596,
        "latestObsDt": "2023-06-17 16:58",
        "numSpeciesAllTime": 26
    },
    {
        "locId": "L3668581",
        "locName": "Buffalo Gap Loop Trail",
        "countryCode": "US",
        "subnational1Code": "US-ND",
        "subnational2Code": "US-ND-033",
        "lat": 46.9571156,
        "lng": -103.67677,
        "latestObsDt": "2023-05-29 18:01",
        "numSpeciesAllTime": 101
    },
    {
        "locId": "L12945192",
        "locName": "Buffalo Lake (Sargent Co.)",
        "countryCode": "US",
        "subnational1Code": "US-ND",
        "subnational2Code": "US-ND-081",
        "lat": 46.1437286,
        "lng": -97.4897402,
        "latestObsDt": "2021-08-05 10:15",
        "numSpeciesAllTime": 24
    },
    {
        "locId": "L5089499",
        "locName": "Buffalo Lake Rec. Area (Pierce Co.)",
        "countryCode": "US",
        "subnational1Code": "US-ND",
        "subnational2Code": "US-ND-069",
        "lat": 48.024394,
        "lng": -99.8521158,
        "latestObsDt": "2023-08-13 16:22",
        "numSpeciesAllTime": 136
    },
    {
        "locId": "L1027363",
        "locName": "Buffalo Lodge Lake",
        "countryCode": "US",
        "subnational1Code": "US-ND",
        "subnational2Code": "US-ND-049",
        "lat": 48.3284087,
        "lng": -100.7583618,
        "latestObsDt": "2023-07-30 15:20",
        "numSpeciesAllTime": 142
    },
    {
        "locId": "L158889",
        "locName": "Buffalo Lodge Lake area",
        "countryCode": "US",
        "subnational1Code": "US-ND",
        "subnational2Code": "US-ND-049",
        "lat": 48.29788,
        "lng": -100.799543,
        "latestObsDt": "2023-07-12 16:44",
        "numSpeciesAllTime": 113
    },
    {
        "locId": "L1507238",
        "locName": "Buffalo Springs Lake",
        "countryCode": "US",
        "subnational1Code": "US-ND",
        "subnational2Code": "US-ND-011",
        "lat": 46.1757335,
        "lng": -103.2229274,
        "latestObsDt": "2022-06-10 17:53",
        "numSpeciesAllTime": 85
    },
    {
        "locId": "L2818281",
        "locName": "Bull Creek Dam",
        "countryCode": "US",
        "subnational1Code": "US-ND",
        "subnational2Code": "US-ND-007",
        "lat": 46.7138358,
        "lng": -103.3108826,
        "latestObsDt": "2023-06-18 14:25",
        "numSpeciesAllTime": 57
    },
    {
        "locId": "L8813850",
        "locName": "Burlington (town)",
        "countryCode": "US",
        "subnational1Code": "US-ND",
        "subnational2Code": "US-ND-101",
        "lat": 48.2762892,
        "lng": -101.4258805,
        "latestObsDt": "2023-12-17 10:51",
        "numSpeciesAllTime": 23
    },
    {
        "locId": "L16422740",
        "locName": "Burlington--Old Settler's Park",
        "countryCode": "US",
        "subnational1Code": "US-ND",
        "subnational2Code": "US-ND-101",
        "lat": 48.282879,
        "lng": -101.431115,
        "latestObsDt": "2023-12-17 10:21",
        "numSpeciesAllTime": 25
    },
    {
        "locId": "L8548496",
        "locName": "Burning Coal Vein Campground",
        "countryCode": "US",
        "subnational1Code": "US-ND",
        "subnational2Code": "US-ND-087",
        "lat": 46.5980193,
        "lng": -103.4433848,
        "latestObsDt": "2023-11-25 13:59",
        "numSpeciesAllTime": 117
    },
    {
        "locId": "L16282067",
        "locName": "Butte Saint Paul",
        "countryCode": "US",
        "subnational1Code": "US-ND",
        "subnational2Code": "US-ND-009",
        "lat": 48.8516841,
        "lng": -100.1963611,
        "latestObsDt": "2022-07-27 10:31",
        "numSpeciesAllTime": 26
    },
    {
        "locId": "L15897267",
        "locName": "Buxton (town)",
        "countryCode": "US",
        "subnational1Code": "US-ND",
        "subnational2Code": "US-ND-097",
        "lat": 47.602826,
        "lng": -97.099955,
        "latestObsDt": "2023-11-05 10:56",
        "numSpeciesAllTime": 50
    },
    {
        "locId": "L12870556",
        "locName": "Buxton Sewage Ponds",
        "countryCode": "US",
        "subnational1Code": "US-ND",
        "subnational2Code": "US-ND-097",
        "lat": 47.5923406,
        "lng": -97.0964921,
        "latestObsDt": "2021-07-14 17:45",
        "numSpeciesAllTime": 105
    },
    {
        "locId": "L8951898",
        "locName": "CC Dam Rd",
        "countryCode": "US",
        "subnational1Code": "US-ND",
        "subnational2Code": "US-ND-053",
        "lat": 47.862799,
        "lng": -103.604887,
        "latestObsDt": "2023-10-18 11:24",
        "numSpeciesAllTime": 68
    },
    {
        "locId": "L3842496",
        "locName": "CCC Campground",
        "countryCode": "US",
        "subnational1Code": "US-ND",
        "subnational2Code": "US-ND-053",
        "lat": 47.5872509,
        "lng": -103.276704,
        "latestObsDt": "2023-07-12 09:04",
        "numSpeciesAllTime": 84
    },
    {
        "locId": "L8103858",
        "locName": "Caledonia (town)",
        "countryCode": "US",
        "subnational1Code": "US-ND",
        "subnational2Code": "US-ND-097",
        "lat": 47.4572978,
        "lng": -96.8860941,
        "latestObsDt": "2022-05-24 14:20",
        "numSpeciesAllTime": 53
    },
    {
        "locId": "L3783231",
        "locName": "Camels Hump Lake",
        "countryCode": "US",
        "subnational1Code": "US-ND",
        "subnational2Code": "US-ND-033",
        "lat": 46.94515,
        "lng": -103.8170403,
        "latestObsDt": "2023-09-15 16:10",
        "numSpeciesAllTime": 138
    },
    {
        "locId": "L7653194",
        "locName": "Camp Crook Rd--Brewerâ€™s Bend",
        "countryCode": "US",
        "subnational1Code": "US-ND",
        "subnational2Code": "US-ND-011",
        "lat": 45.996515,
        "lng": -103.9619357,
        "latestObsDt": "2023-09-24 12:28",
        "numSpeciesAllTime": 39
    },
    {
        "locId": "L3671385",
        "locName": "Camp Grafton South--Public Area",
        "countryCode": "US",
        "subnational1Code": "US-ND",
        "subnational2Code": "US-ND-027",
        "lat": 47.6990759,
        "lng": -98.665874,
        "latestObsDt": "2021-11-07 09:32",
        "numSpeciesAllTime": 137
    },
    {
        "locId": "L6085453",
        "locName": "Cando Cemetery",
        "countryCode": "US",
        "subnational1Code": "US-ND",
        "subnational2Code": "US-ND-095",
        "lat": 48.4858662,
        "lng": -99.1888099,
        "latestObsDt": "2023-08-27 09:44",
        "numSpeciesAllTime": 72
    },
    {
        "locId": "L9388085",
        "locName": "Cando--Towner County Arboretum",
        "countryCode": "US",
        "subnational1Code": "US-ND",
        "subnational2Code": "US-ND-095",
        "lat": 48.492941,
        "lng": -99.200919,
        "latestObsDt": "2024-02-19 14:43",
        "numSpeciesAllTime": 85
    },
    {
        "locId": "L5966914",
        "locName": "Cannonball River mouth",
        "countryCode": "US",
        "subnational1Code": "US-ND",
        "subnational2Code": "US-ND-085",
        "lat": 46.4154902,
        "lng": -100.6322524,
        "latestObsDt": "2023-10-22 08:11",
        "numSpeciesAllTime": 134
    },
    {
        "locId": "L25229389",
        "locName": "Cannonball Stage Station Historic Site",
        "countryCode": "US",
        "subnational1Code": "US-ND",
        "subnational2Code": "US-ND-037",
        "lat": 46.2216738,
        "lng": -101.4774352
    },
    {
        "locId": "L22266497",
        "locName": "Carbury Dam",
        "countryCode": "US",
        "subnational1Code": "US-ND",
        "subnational2Code": "US-ND-009",
        "lat": 48.8788407,
        "lng": -100.551802,
        "latestObsDt": "2023-07-09 14:22",
        "numSpeciesAllTime": 8
    },
    {
        "locId": "L8122392",
        "locName": "Carpio (town)",
        "countryCode": "US",
        "subnational1Code": "US-ND",
        "subnational2Code": "US-ND-101",
        "lat": 48.4429266,
        "lng": -101.7149977,
        "latestObsDt": "2023-10-14 08:26",
        "numSpeciesAllTime": 23
    },
    {
        "locId": "L13151754",
        "locName": "Carrington (town)",
        "countryCode": "US",
        "subnational1Code": "US-ND",
        "subnational2Code": "US-ND-031",
        "lat": 47.449486,
        "lng": -99.127231,
        "latestObsDt": "2023-09-10 16:28",
        "numSpeciesAllTime": 57
    },
    {
        "locId": "L1207509",
        "locName": "Carrington to Chase Lake Birding Route (Stop 5)",
        "countryCode": "US",
        "subnational1Code": "US-ND",
        "subnational2Code": "US-ND-093",
        "lat": 47.2860259,
        "lng": -99.2705727,
        "latestObsDt": "2021-06-28 17:42",
        "numSpeciesAllTime": 103
    },
    {
        "locId": "L16017124",
        "locName": "Carrington to Chase Lake Birding Route (Stop 6)",
        "countryCode": "US",
        "subnational1Code": "US-ND",
        "subnational2Code": "US-ND-093",
        "lat": 47.2773675,
        "lng": -99.2705063,
        "latestObsDt": "2023-06-23 14:02",
        "numSpeciesAllTime": 36
    },
    {
        "locId": "L1207512",
        "locName": "Carrington to Chase Lake Birding Route (Stop 7)",
        "countryCode": "US",
        "subnational1Code": "US-ND",
        "subnational2Code": "US-ND-093",
        "lat": 47.2696416,
        "lng": -99.2758083,
        "latestObsDt": "2023-10-14 14:51",
        "numSpeciesAllTime": 149
    },
    {
        "locId": "L9327877",
        "locName": "Casselton Reservoir",
        "countryCode": "US",
        "subnational1Code": "US-ND",
        "subnational2Code": "US-ND-017",
        "lat": 46.9031703,
        "lng": -97.22601,
        "latestObsDt": "2023-08-06 17:25",
        "numSpeciesAllTime": 107
    },
    {
        "locId": "L9263179",
        "locName": "Cattail Bay",
        "countryCode": "US",
        "subnational1Code": "US-ND",
        "subnational2Code": "US-ND-029",
        "lat": 46.0954917,
        "lng": -100.5903006,
        "latestObsDt": "2023-11-30 13:35",
        "numSpeciesAllTime": 27
    },
    {
        "locId": "L4499975",
        "locName": "Causeway Lake",
        "countryCode": "US",
        "subnational1Code": "US-ND",
        "subnational2Code": "US-ND-061",
        "lat": 48.2715984,
        "lng": -102.3299901,
        "latestObsDt": "2023-10-29 08:59",
        "numSpeciesAllTime": 139
    },
    {
        "locId": "L6521779",
        "locName": "Cavalier (town)",
        "countryCode": "US",
        "subnational1Code": "US-ND",
        "subnational2Code": "US-ND-067",
        "lat": 48.7939103,
        "lng": -97.6224346,
        "latestObsDt": "2023-09-02 18:28",
        "numSpeciesAllTime": 18
    },
    {
        "locId": "L9385403",
        "locName": "Cavalier County WMA",
        "countryCode": "US",
        "subnational1Code": "US-ND",
        "subnational2Code": "US-ND-019",
        "lat": 48.7306824,
        "lng": -97.9539688,
        "latestObsDt": "2023-08-27 12:40",
        "numSpeciesAllTime": 94
    },
    {
        "locId": "L13032305",
        "locName": "Cayuga (town)",
        "countryCode": "US",
        "subnational1Code": "US-ND",
        "subnational2Code": "US-ND-081",
        "lat": 46.075212,
        "lng": -97.384446,
        "latestObsDt": "2023-11-28 07:29",
        "numSpeciesAllTime": 55
    },
    {
        "locId": "L8597279",
        "locName": "Cedar Lake (Slope Co.)",
        "countryCode": "US",
        "subnational1Code": "US-ND",
        "subnational2Code": "US-ND-087",
        "lat": 46.2918331,
        "lng": -102.9682144,
        "latestObsDt": "2023-10-27 14:56",
        "numSpeciesAllTime": 197
    },
    {
        "locId": "L159563",
        "locName": "Cedar River National Grassland",
        "countryCode": "US",
        "subnational1Code": "US-ND",
        "subnational2Code": "US-ND-085",
        "lat": 45.9659555,
        "lng": -101.8222826,
        "latestObsDt": "2023-05-14 09:10",
        "numSpeciesAllTime": 71
    },
    {
        "locId": "L6486744",
        "locName": "Center (town)",
        "countryCode": "US",
        "subnational1Code": "US-ND",
        "subnational2Code": "US-ND-065",
        "lat": 47.1153734,
        "lng": -101.2966012,
        "latestObsDt": "2023-04-23 08:50",
        "numSpeciesAllTime": 93
    },
    {
        "locId": "L16353366",
        "locName": "Center Park & Campground",
        "countryCode": "US",
        "subnational1Code": "US-ND",
        "subnational2Code": "US-ND-065",
        "lat": 47.109506,
        "lng": -101.290608,
        "latestObsDt": "2021-10-29 17:55",
        "numSpeciesAllTime": 16
    },
    {
        "locId": "L6717813",
        "locName": "Charbonneau (historical townsite)",
        "countryCode": "US",
        "subnational1Code": "US-ND",
        "subnational2Code": "US-ND-053",
        "lat": 47.85369,
        "lng": -103.7626129,
        "latestObsDt": "2024-01-07 10:22",
        "numSpeciesAllTime": 31
    },
    {
        "locId": "L9116092",
        "locName": "Charbonneau Wetland",
        "countryCode": "US",
        "subnational1Code": "US-ND",
        "subnational2Code": "US-ND-053",
        "lat": 47.8717172,
        "lng": -103.7764025,
        "latestObsDt": "2023-06-05 12:46",
        "numSpeciesAllTime": 95
    },
    {
        "locId": "L9257023",
        "locName": "Charging Eagle Bay",
        "countryCode": "US",
        "subnational1Code": "US-ND",
        "subnational2Code": "US-ND-025",
        "lat": 47.5850739,
        "lng": -102.3910585,
        "latestObsDt": "2021-11-22 14:05",
        "numSpeciesAllTime": 27
    },
    {
        "locId": "L17092313",
        "locName": "Charles V. Pulver WMA",
        "countryCode": "US",
        "subnational1Code": "US-ND",
        "subnational2Code": "US-ND-019",
        "lat": 48.8420208,
        "lng": -98.0713278,
        "latestObsDt": "2022-05-25 12:38",
        "numSpeciesAllTime": 48
    },
    {
        "locId": "L958160",
        "locName": "Chase Lake Grasslands",
        "countryCode": "US",
        "subnational1Code": "US-ND",
        "subnational2Code": "US-ND-093",
        "lat": 47.0076505,
        "lng": -99.3655014,
        "latestObsDt": "2023-08-30 08:56",
        "numSpeciesAllTime": 151
    },
    {
        "locId": "L158812",
        "locName": "Chase Lake NWR (please use a more specific location)",
        "countryCode": "US",
        "subnational1Code": "US-ND",
        "subnational2Code": "US-ND-093",
        "lat": 47.0114,
        "lng": -99.4454,
        "latestObsDt": "2023-09-03 10:00",
        "numSpeciesAllTime": 196
    },
    {
        "locId": "L6073262",
        "locName": "Chase Lake NWR--Headquarters",
        "countryCode": "US",
        "subnational1Code": "US-ND",
        "subnational2Code": "US-ND-093",
        "lat": 47.1368209,
        "lng": -99.2446295,
        "latestObsDt": "2023-10-19 13:05",
        "numSpeciesAllTime": 160
    },
    {
        "locId": "L27080678",
        "locName": "Chase Lake WMA",
        "countryCode": "US",
        "subnational1Code": "US-ND",
        "subnational2Code": "US-ND-093",
        "lat": 47.0353522,
        "lng": -99.4043933,
        "latestObsDt": "2023-09-29 17:45",
        "numSpeciesAllTime": 55
    },
    {
        "locId": "L2878021",
        "locName": "Chicago Lake",
        "countryCode": "US",
        "subnational1Code": "US-ND",
        "subnational2Code": "US-ND-093",
        "lat": 47.0671418,
        "lng": -99.4386769,
        "latestObsDt": "2023-06-29 22:54",
        "numSpeciesAllTime": 143
    },
    {
        "locId": "L5916468",
        "locName": "Church Lake (Nelson Co.)",
        "countryCode": "US",
        "subnational1Code": "US-ND",
        "subnational2Code": "US-ND-063",
        "lat": 47.9040238,
        "lng": -98.0754331,
        "latestObsDt": "2023-08-11 15:32",
        "numSpeciesAllTime": 50
    },
    {
        "locId": "L16163679",
        "locName": "Churchs Ferry (town)",
        "countryCode": "US",
        "subnational1Code": "US-ND",
        "subnational2Code": "US-ND-071",
        "lat": 48.2702899,
        "lng": -99.1954686,
        "latestObsDt": "2024-02-09 10:14",
        "numSpeciesAllTime": 113
    },
    {
        "locId": "L11596623",
        "locName": "Churchs Ferry--West Wetlands (Benson Co.)",
        "countryCode": "US",
        "subnational1Code": "US-ND",
        "subnational2Code": "US-ND-005",
        "lat": 48.2759358,
        "lng": -99.2078128,
        "latestObsDt": "2023-09-16 12:57",
        "numSpeciesAllTime": 132
    },
    {
        "locId": "L1515777",
        "locName": "Clausen Springs Recreation Area",
        "countryCode": "US",
        "subnational1Code": "US-ND",
        "subnational2Code": "US-ND-003",
        "lat": 46.6821581,
        "lng": -98.0449228,
        "latestObsDt": "2024-02-15 10:34",
        "numSpeciesAllTime": 179
    },
    {
        "locId": "L8597400",
        "locName": "Clear Lake (Burleigh Co.)",
        "countryCode": "US",
        "subnational1Code": "US-ND",
        "subnational2Code": "US-ND-015",
        "lat": 46.9248378,
        "lng": -100.1847211,
        "latestObsDt": "2023-11-10 08:37",
        "numSpeciesAllTime": 103
    },
    {
        "locId": "L3118006",
        "locName": "Clearwater Lake (Mountrail Co.)",
        "countryCode": "US",
        "subnational1Code": "US-ND",
        "subnational2Code": "US-ND-061",
        "lat": 48.4118157,
        "lng": -102.2855522,
        "latestObsDt": "2023-10-13 08:43",
        "numSpeciesAllTime": 81
    },
    {
        "locId": "L12190009",
        "locName": "Cleveland Park on the Middle Branch Forest River",
        "countryCode": "US",
        "subnational1Code": "US-ND",
        "subnational2Code": "US-ND-099",
        "lat": 48.2199784,
        "lng": -97.9644946,
        "latestObsDt": "2022-05-26 12:30",
        "numSpeciesAllTime": 51
    },
    {
        "locId": "L11475330",
        "locName": "Clifford Woodlot",
        "countryCode": "US",
        "subnational1Code": "US-ND",
        "subnational2Code": "US-ND-097",
        "lat": 47.3472629,
        "lng": -97.4316123,
        "latestObsDt": "2023-06-13 13:22",
        "numSpeciesAllTime": 98
    },
    {
        "locId": "L16383230",
        "locName": "Clyde (town)",
        "countryCode": "US",
        "subnational1Code": "US-ND",
        "subnational2Code": "US-ND-019",
        "lat": 48.7698704,
        "lng": -98.8990459,
        "latestObsDt": "2023-12-16 14:06",
        "numSpeciesAllTime": 36
    },
    {
        "locId": "L7654794",
        "locName": "Coal Creek Campground",
        "countryCode": "US",
        "subnational1Code": "US-ND",
        "subnational2Code": "US-ND-007",
        "lat": 46.7769698,
        "lng": -103.5151107,
        "latestObsDt": "2023-11-25 13:28",
        "numSpeciesAllTime": 66
    },
    {
        "locId": "L2368480",
        "locName": "Coal Mine Lake Campground",
        "countryCode": "US",
        "subnational1Code": "US-ND",
        "subnational2Code": "US-ND-083",
        "lat": 47.6786153,
        "lng": -100.1367238,
        "latestObsDt": "2024-02-03 15:22",
        "numSpeciesAllTime": 198
    },
    {
        "locId": "L9142244",
        "locName": "Cogswell (town)",
        "countryCode": "US",
        "subnational1Code": "US-ND",
        "subnational2Code": "US-ND-081",
        "lat": 46.1066349,
        "lng": -97.783527,
        "latestObsDt": "2023-07-16 16:47",
        "numSpeciesAllTime": 87
    },
    {
        "locId": "L19278050",
        "locName": "Cogswell--Mount Calvary Cemetery",
        "countryCode": "US",
        "subnational1Code": "US-ND",
        "subnational2Code": "US-ND-081",
        "lat": 46.1074336,
        "lng": -97.8001929,
        "latestObsDt": "2023-05-27 16:30",
        "numSpeciesAllTime": 45
    },
    {
        "locId": "L27624848",
        "locName": "Coldwater Lake Rec. Area",
        "countryCode": "US",
        "subnational1Code": "US-ND",
        "subnational2Code": "US-ND-051",
        "lat": 46.0122882,
        "lng": -99.066734,
        "latestObsDt": "2023-12-03 13:07",
        "numSpeciesAllTime": 16
    },
    {
        "locId": "L6575828",
        "locName": "Coleharbor (town)",
        "countryCode": "US",
        "subnational1Code": "US-ND",
        "subnational2Code": "US-ND-055",
        "lat": 47.5429913,
        "lng": -101.2224017,
        "latestObsDt": "2023-12-16 12:46",
        "numSpeciesAllTime": 29
    },
    {
        "locId": "L12971202",
        "locName": "Columbus (town)",
        "countryCode": "US",
        "subnational1Code": "US-ND",
        "subnational2Code": "US-ND-013",
        "lat": 48.9050669,
        "lng": -102.7806787,
        "latestObsDt": "2022-11-25 14:00",
        "numSpeciesAllTime": 39
    },
    {
        "locId": "L10951178",
        "locName": "Cooperstown (town)",
        "countryCode": "US",
        "subnational1Code": "US-ND",
        "subnational2Code": "US-ND-039",
        "lat": 47.4445758,
        "lng": -98.1238506,
        "latestObsDt": "2023-06-10 13:57",
        "numSpeciesAllTime": 86
    },
    {
        "locId": "L7451475",
        "locName": "Cooperstown Bible Camp area",
        "countryCode": "US",
        "subnational1Code": "US-ND",
        "subnational2Code": "US-ND-039",
        "lat": 47.370452,
        "lng": -98.0392495,
        "latestObsDt": "2023-11-17 19:09",
        "numSpeciesAllTime": 85
    },
    {
        "locId": "L11552968",
        "locName": "Cooperstown Country Club",
        "countryCode": "US",
        "subnational1Code": "US-ND",
        "subnational2Code": "US-ND-039",
        "lat": 47.449722,
        "lng": -98.1327385,
        "latestObsDt": "2022-09-13 12:37",
        "numSpeciesAllTime": 89
    },
    {
        "locId": "L3108602",
        "locName": "Cottonwood Lake (Mountrail Co.)",
        "countryCode": "US",
        "subnational1Code": "US-ND",
        "subnational2Code": "US-ND-061",
        "lat": 48.4287335,
        "lng": -102.580719,
        "latestObsDt": "2021-06-22 08:03",
        "numSpeciesAllTime": 56
    },
    {
        "locId": "L8040583",
        "locName": "Cottonwood Lake (Williams Co.)",
        "countryCode": "US",
        "subnational1Code": "US-ND",
        "subnational2Code": "US-ND-105",
        "lat": 48.5833876,
        "lng": -103.4503818,
        "latestObsDt": "2023-07-29 10:44",
        "numSpeciesAllTime": 76
    },
    {
        "locId": "L3613418",
        "locName": "Cottonwood Lake NWR",
        "countryCode": "US",
        "subnational1Code": "US-ND",
        "subnational2Code": "US-ND-049",
        "lat": 47.8785345,
        "lng": -100.6742414,
        "latestObsDt": "2023-10-29 11:22",
        "numSpeciesAllTime": 65
    },
    {
        "locId": "L5619881",
        "locName": "County Rd 9 Dam (Sioux Co.)",
        "countryCode": "US",
        "subnational1Code": "US-ND",
        "subnational2Code": "US-ND-085",
        "lat": 46.0452501,
        "lng": -101.133576,
        "latestObsDt": "2023-10-23 14:43",
        "numSpeciesAllTime": 42
    },
    {
        "locId": "L14124932",
        "locName": "Crary Rest Area",
        "countryCode": "US",
        "subnational1Code": "US-ND",
        "subnational2Code": "US-ND-071",
        "lat": 48.0505872,
        "lng": -98.7041268,
        "latestObsDt": "2023-06-02 09:50",
        "numSpeciesAllTime": 27
    },
    {
        "locId": "L6431713",
        "locName": "Crooked Lake",
        "countryCode": "US",
        "subnational1Code": "US-ND",
        "subnational2Code": "US-ND-055",
        "lat": 47.661162,
        "lng": -100.898579,
        "latestObsDt": "2023-06-30 08:24",
        "numSpeciesAllTime": 53
    },
    {
        "locId": "L9938073",
        "locName": "Crosby (town)",
        "countryCode": "US",
        "subnational1Code": "US-ND",
        "subnational2Code": "US-ND-023",
        "lat": 48.9116487,
        "lng": -103.2957133,
        "latestObsDt": "2023-06-03 14:43",
        "numSpeciesAllTime": 65
    },
    {
        "locId": "L1764854",
        "locName": "Crosby Country Club",
        "countryCode": "US",
        "subnational1Code": "US-ND",
        "subnational2Code": "US-ND-023",
        "lat": 48.9783993,
        "lng": -103.294522,
        "latestObsDt": "2023-11-06 13:47",
        "numSpeciesAllTime": 173
    },
    {
        "locId": "L3694394",
        "locName": "Crosby Sewage Lagoons",
        "countryCode": "US",
        "subnational1Code": "US-ND",
        "subnational2Code": "US-ND-023",
        "lat": 48.9051822,
        "lng": -103.3060956,
        "latestObsDt": "2022-09-16 12:30",
        "numSpeciesAllTime": 140
    },
    {
        "locId": "L3520718",
        "locName": "Crosby--Carlson WPA",
        "countryCode": "US",
        "subnational1Code": "US-ND",
        "subnational2Code": "US-ND-023",
        "lat": 48.8871704,
        "lng": -103.3066179,
        "latestObsDt": "2023-08-18 10:16",
        "numSpeciesAllTime": 68
    },
    {
        "locId": "L159553",
        "locName": "Cross Ranch SP",
        "countryCode": "US",
        "subnational1Code": "US-ND",
        "subnational2Code": "US-ND-065",
        "lat": 47.2139389,
        "lng": -100.9969883,
        "latestObsDt": "2023-08-18 10:54",
        "numSpeciesAllTime": 184
    },
    {
        "locId": "L8576165",
        "locName": "Cross Ranch SP--Sanger Campground",
        "countryCode": "US",
        "subnational1Code": "US-ND",
        "subnational2Code": "US-ND-065",
        "lat": 47.1804076,
        "lng": -100.9902237,
        "latestObsDt": "2023-07-21 07:30",
        "numSpeciesAllTime": 101
    },
    {
        "locId": "L4765935",
        "locName": "Crow Flies High Butte",
        "countryCode": "US",
        "subnational1Code": "US-ND",
        "subnational2Code": "US-ND-061",
        "lat": 47.9822563,
        "lng": -102.5454905,
        "latestObsDt": "2023-12-02 15:35",
        "numSpeciesAllTime": 70
    },
    {
        "locId": "L8121397",
        "locName": "Crown Butte Dam",
        "countryCode": "US",
        "subnational1Code": "US-ND",
        "subnational2Code": "US-ND-059",
        "lat": 46.8673439,
        "lng": -101.0912354,
        "latestObsDt": "2023-11-20 13:20",
        "numSpeciesAllTime": 112
    },
    {
        "locId": "L12135396",
        "locName": "Crystal City Park",
        "countryCode": "US",
        "subnational1Code": "US-ND",
        "subnational2Code": "US-ND-067",
        "lat": 48.5991,
        "lng": -97.673745,
        "latestObsDt": "2021-08-21 10:12",
        "numSpeciesAllTime": 54
    },
    {
        "locId": "L7424730",
        "locName": "Crystal Springs (Kidder Co.)",
        "countryCode": "US",
        "subnational1Code": "US-ND",
        "subnational2Code": "US-ND-043",
        "lat": 46.8793366,
        "lng": -99.4576866,
        "latestObsDt": "2023-10-29 15:23",
        "numSpeciesAllTime": 162
    },
    {
        "locId": "L18972003",
        "locName": "Crystal Springs Rest Area--East Bound",
        "countryCode": "US",
        "subnational1Code": "US-ND",
        "subnational2Code": "US-ND-043",
        "lat": 46.8799549,
        "lng": -99.4913747,
        "latestObsDt": "2023-09-19 13:15",
        "numSpeciesAllTime": 44
    },
    {
        "locId": "L10288191",
        "locName": "Custer Mine WMA",
        "countryCode": "US",
        "subnational1Code": "US-ND",
        "subnational2Code": "US-ND-055",
        "lat": 47.6234319,
        "lng": -101.3043433,
        "latestObsDt": "2024-02-06 12:45",
        "numSpeciesAllTime": 24
    },
    {
        "locId": "L4641751",
        "locName": "Dakota Lake NWR",
        "countryCode": "US",
        "subnational1Code": "US-ND",
        "subnational2Code": "US-ND-021",
        "lat": 45.9787428,
        "lng": -98.1643438,
        "latestObsDt": "2023-05-26 06:32",
        "numSpeciesAllTime": 94
    },
    {
        "locId": "L12248794",
        "locName": "Dale and Martha Hawk Museum",
        "countryCode": "US",
        "subnational1Code": "US-ND",
        "subnational2Code": "US-ND-079",
        "lat": 48.550639,
        "lng": -99.615329,
        "latestObsDt": "2022-09-21 09:12",
        "numSpeciesAllTime": 95
    },
    {
        "locId": "L365582",
        "locName": "Davis Dam",
        "countryCode": "US",
        "subnational1Code": "US-ND",
        "subnational2Code": "US-ND-087",
        "lat": 46.5460605,
        "lng": -103.6612692,
        "latestObsDt": "2023-06-28 13:36",
        "numSpeciesAllTime": 85
    },
    {
        "locId": "L3931223",
        "locName": "Davis Ranch Preserve",
        "countryCode": "US",
        "subnational1Code": "US-ND",
        "subnational2Code": "US-ND-083",
        "lat": 47.3612166,
        "lng": -100.258217,
        "latestObsDt": "2023-07-30 08:47",
        "numSpeciesAllTime": 147
    },
    {
        "locId": "L12845547",
        "locName": "Dawson (town)",
        "countryCode": "US",
        "subnational1Code": "US-ND",
        "subnational2Code": "US-ND-043",
        "lat": 46.8665452,
        "lng": -99.7513444,
        "latestObsDt": "2023-08-23 19:53",
        "numSpeciesAllTime": 85
    },
    {
        "locId": "L158810",
        "locName": "Dawson WMA",
        "countryCode": "US",
        "subnational1Code": "US-ND",
        "subnational2Code": "US-ND-043",
        "lat": 46.7607844,
        "lng": -99.7628865,
        "latestObsDt": "2024-02-19 11:33",
        "numSpeciesAllTime": 164
    },
    {
        "locId": "L7642695",
        "locName": "Dead Colt Creek Rec. Area",
        "countryCode": "US",
        "subnational1Code": "US-ND",
        "subnational2Code": "US-ND-073",
        "lat": 46.3709345,
        "lng": -97.6248223,
        "latestObsDt": "2023-10-19 15:07",
        "numSpeciesAllTime": 75
    },
    {
        "locId": "L3606702",
        "locName": "Debing Pond",
        "countryCode": "US",
        "subnational1Code": "US-ND",
        "subnational2Code": "US-ND-061",
        "lat": 48.2452997,
        "lng": -102.6342097,
        "latestObsDt": "2020-07-16 13:00",
        "numSpeciesAllTime": 63
    },
    {
        "locId": "L15168921",
        "locName": "Deepwater Creek WMA--North Boat Ramp",
        "countryCode": "US",
        "subnational1Code": "US-ND",
        "subnational2Code": "US-ND-055",
        "lat": 47.738411,
        "lng": -102.1829,
        "latestObsDt": "2022-09-21 09:46",
        "numSpeciesAllTime": 63
    },
    {
        "locId": "L6088517",
        "locName": "Deepwater Creek WMA--Public Use Area",
        "countryCode": "US",
        "subnational1Code": "US-ND",
        "subnational2Code": "US-ND-055",
        "lat": 47.7342438,
        "lng": -102.129275,
        "latestObsDt": "2021-05-30 11:46",
        "numSpeciesAllTime": 45
    },
    {
        "locId": "L5926459",
        "locName": "Deering (town)",
        "countryCode": "US",
        "subnational1Code": "US-ND",
        "subnational2Code": "US-ND-049",
        "lat": 48.3957701,
        "lng": -101.0518699,
        "latestObsDt": "2017-06-03 11:10",
        "numSpeciesAllTime": 27
    },
    {
        "locId": "L3618550",
        "locName": "Demicks Lake",
        "countryCode": "US",
        "subnational1Code": "US-ND",
        "subnational2Code": "US-ND-053",
        "lat": 47.8864686,
        "lng": -103.0197804,
        "latestObsDt": "2023-07-18 10:37",
        "numSpeciesAllTime": 137
    },
    {
        "locId": "L159527",
        "locName": "Denbigh Experimental Forest",
        "countryCode": "US",
        "subnational1Code": "US-ND",
        "subnational2Code": "US-ND-049",
        "lat": 48.2961003,
        "lng": -100.6460087,
        "latestObsDt": "2024-01-06 10:00",
        "numSpeciesAllTime": 189
    },
    {
        "locId": "L3518796",
        "locName": "Derudder Dam",
        "countryCode": "US",
        "subnational1Code": "US-ND",
        "subnational2Code": "US-ND-053",
        "lat": 47.6761496,
        "lng": -103.8749766,
        "latestObsDt": "2023-07-01 15:50",
        "numSpeciesAllTime": 92
    },
    {
        "locId": "L12971119",
        "locName": "Des Lacs (town)",
        "countryCode": "US",
        "subnational1Code": "US-ND",
        "subnational2Code": "US-ND-101",
        "lat": 48.2564109,
        "lng": -101.5640524
    },
    {
        "locId": "L158883",
        "locName": "Des Lacs NWR",
        "countryCode": "US",
        "subnational1Code": "US-ND",
        "subnational2Code": "US-ND-101",
        "lat": 48.6691025,
        "lng": -102.0971815,
        "latestObsDt": "2024-02-14 12:15",
        "numSpeciesAllTime": 236
    },
    {
        "locId": "L3685333",
        "locName": "Des Lacs NWR--Boat Dock Rd",
        "countryCode": "US",
        "subnational1Code": "US-ND",
        "subnational2Code": "US-ND-101",
        "lat": 48.729362,
        "lng": -102.1365517,
        "latestObsDt": "2023-12-23 11:15",
        "numSpeciesAllTime": 182
    },
    {
        "locId": "L3091619",
        "locName": "Des Lacs NWR--Lower Des Lacs Lake",
        "countryCode": "US",
        "subnational1Code": "US-ND",
        "subnational2Code": "US-ND-101",
        "lat": 48.607187,
        "lng": -102.0095084,
        "latestObsDt": "2024-02-12 14:30",
        "numSpeciesAllTime": 190
    },
    {
        "locId": "L9829695",
        "locName": "Des Lacs NWR--Munch's Coulee",
        "countryCode": "US",
        "subnational1Code": "US-ND",
        "subnational2Code": "US-ND-101",
        "lat": 48.614566,
        "lng": -102.013466,
        "latestObsDt": "2023-06-16 11:57",
        "numSpeciesAllTime": 82
    },
    {
        "locId": "L9875848",
        "locName": "Des Lacs NWR--Tasker's Coulee",
        "countryCode": "US",
        "subnational1Code": "US-ND",
        "subnational2Code": "US-ND-101",
        "lat": 48.645566,
        "lng": -102.0915576,
        "latestObsDt": "2023-07-10 08:00",
        "numSpeciesAllTime": 96
    },
    {
        "locId": "L8565622",
        "locName": "Des Moines Lake",
        "countryCode": "US",
        "subnational1Code": "US-ND",
        "subnational2Code": "US-ND-043",
        "lat": 47.1404669,
        "lng": -99.651968,
        "latestObsDt": "2023-06-28 19:17",
        "numSpeciesAllTime": 81
    },
    {
        "locId": "L6237060",
        "locName": "Devils Lake Cemetery",
        "countryCode": "US",
        "subnational1Code": "US-ND",
        "subnational2Code": "US-ND-071",
        "lat": 48.1163783,
        "lng": -98.8411381,
        "latestObsDt": "2023-12-06 13:00",
        "numSpeciesAllTime": 94
    },
    {
        "locId": "L5986641",
        "locName": "Devils Lake--Benson County WPA (NE fork of Mission Bay)",
        "countryCode": "US",
        "subnational1Code": "US-ND",
        "subnational2Code": "US-ND-005",
        "lat": 48.0144123,
        "lng": -98.8242287,
        "latestObsDt": "2022-11-13 17:20",
        "numSpeciesAllTime": 73
    },
    {
        "locId": "L8661050",
        "locName": "Devils Lake--Black Tiger Bay",
        "countryCode": "US",
        "subnational1Code": "US-ND",
        "subnational2Code": "US-ND-005",
        "lat": 47.9674873,
        "lng": -98.7576499,
        "latestObsDt": "2023-05-23 11:33",
        "numSpeciesAllTime": 28
    },
    {
        "locId": "L430060",
        "locName": "Devils Lake--Davis Flats",
        "countryCode": "US",
        "subnational1Code": "US-ND",
        "subnational2Code": "US-ND-071",
        "lat": 48.1139683,
        "lng": -98.885021,
        "latestObsDt": "2021-08-07 07:42",
        "numSpeciesAllTime": 69
    },
    {
        "locId": "L7518070",
        "locName": "Devils Lake--East Bay Landing",
        "countryCode": "US",
        "subnational1Code": "US-ND",
        "subnational2Code": "US-ND-071",
        "lat": 48.063424,
        "lng": -98.890774,
        "latestObsDt": "2023-09-03 17:30",
        "numSpeciesAllTime": 72
    },
    {
        "locId": "L8660993",
        "locName": "Devils Lake--Eastbay Campground",
        "countryCode": "US",
        "subnational1Code": "US-ND",
        "subnational2Code": "US-ND-005",
        "lat": 47.9780596,
        "lng": -98.7271017,
        "latestObsDt": "2022-07-16 20:47",
        "numSpeciesAllTime": 9
    },
    {
        "locId": "L8661071",
        "locName": "Devils Lake--Haybale Bay",
        "countryCode": "US",
        "subnational1Code": "US-ND",
        "subnational2Code": "US-ND-071",
        "lat": 48.0458324,
        "lng": -98.7519359,
        "latestObsDt": "2023-10-31 12:33",
        "numSpeciesAllTime": 66
    },
    {
        "locId": "L159540",
        "locName": "Devils Lake--Lagoons and Marsh",
        "countryCode": "US",
        "subnational1Code": "US-ND",
        "subnational2Code": "US-ND-071",
        "lat": 48.1096638,
        "lng": -98.8833779,
        "latestObsDt": "2024-01-14 12:47",
        "numSpeciesAllTime": 135
    },
    {
        "locId": "L5089937",
        "locName": "Devils Lake--Lakewood Park",
        "countryCode": "US",
        "subnational1Code": "US-ND",
        "subnational2Code": "US-ND-071",
        "lat": 48.0676173,
        "lng": -98.9298901,
        "latestObsDt": "2023-08-19 08:48",
        "numSpeciesAllTime": 116
    },
    {
        "locId": "L8660980",
        "locName": "Devils Lake--Mission Bay area",
        "countryCode": "US",
        "subnational1Code": "US-ND",
        "subnational2Code": "US-ND-005",
        "lat": 48.0067284,
        "lng": -98.8776103,
        "latestObsDt": "2022-11-19 11:29",
        "numSpeciesAllTime": 78
    },
    {
        "locId": "L159539",
        "locName": "Devils Lake--North Narrows",
        "countryCode": "US",
        "subnational1Code": "US-ND",
        "subnational2Code": "US-ND-071",
        "lat": 48.0360324,
        "lng": -98.8933469,
        "latestObsDt": "2023-06-23 11:19",
        "numSpeciesAllTime": 129
    },
    {
        "locId": "L11539866",
        "locName": "Devils Lake--Pelican Lake Landing",
        "countryCode": "US",
        "subnational1Code": "US-ND",
        "subnational2Code": "US-ND-005",
        "lat": 48.117987,
        "lng": -99.1799833,
        "latestObsDt": "2023-05-27 12:51",
        "numSpeciesAllTime": 82
    },
    {
        "locId": "L7761274",
        "locName": "Devils Lake--Round Lake Landing",
        "countryCode": "US",
        "subnational1Code": "US-ND",
        "subnational2Code": "US-ND-005",
        "lat": 48.0222193,
        "lng": -99.2364556,
        "latestObsDt": "2023-05-12 10:28",
        "numSpeciesAllTime": 29
    },
    {
        "locId": "L159538",
        "locName": "Devils Lake--Shelvers Grove",
        "countryCode": "US",
        "subnational1Code": "US-ND",
        "subnational2Code": "US-ND-071",
        "lat": 48.0766577,
        "lng": -98.8024995,
        "latestObsDt": "2023-05-15 13:23",
        "numSpeciesAllTime": 97
    },
    {
        "locId": "L7192169",
        "locName": "Devils Lake--Six Mile Bay",
        "countryCode": "US",
        "subnational1Code": "US-ND",
        "subnational2Code": "US-ND-071",
        "lat": 48.1202514,
        "lng": -99.0068901,
        "latestObsDt": "2024-01-03 13:27",
        "numSpeciesAllTime": 76
    },
    {
        "locId": "L956877",
        "locName": "Devils Lake--Six Mile Bay Campground",
        "countryCode": "US",
        "subnational1Code": "US-ND",
        "subnational2Code": "US-ND-071",
        "lat": 48.1166951,
        "lng": -99.0276457,
        "latestObsDt": "2021-06-23 07:30",
        "numSpeciesAllTime": 82
    },
    {
        "locId": "L5089936",
        "locName": "Devils Lake--South Narrows",
        "countryCode": "US",
        "subnational1Code": "US-ND",
        "subnational2Code": "US-ND-005",
        "lat": 48.0050819,
        "lng": -98.9064362,
        "latestObsDt": "2023-07-07 09:30",
        "numSpeciesAllTime": 68
    },
    {
        "locId": "L14709260",
        "locName": "Devils Lake--West Bay Causeway",
        "countryCode": "US",
        "subnational1Code": "US-ND",
        "subnational2Code": "US-ND-005",
        "lat": 48.1151284,
        "lng": -99.2218021,
        "latestObsDt": "2023-11-11 10:00",
        "numSpeciesAllTime": 82
    },
    {
        "locId": "L14721779",
        "locName": "Devils Lake--West Bay at 63rd Ave. NE",
        "countryCode": "US",
        "subnational1Code": "US-ND",
        "subnational2Code": "US-ND-005",
        "lat": 48.1079244,
        "lng": -99.2649028,
        "latestObsDt": "2022-07-15 20:38",
        "numSpeciesAllTime": 32
    },
    {
        "locId": "L375955",
        "locName": "Dewald Slough",
        "countryCode": "US",
        "subnational1Code": "US-ND",
        "subnational2Code": "US-ND-043",
        "lat": 46.8044071,
        "lng": -99.7814369,
        "latestObsDt": "2023-09-01 13:45",
        "numSpeciesAllTime": 168
    },
    {
        "locId": "L934420",
        "locName": "Dewald Slough--31st Ave. & 44th St.",
        "countryCode": "US",
        "subnational1Code": "US-ND",
        "subnational2Code": "US-ND-043",
        "lat": 46.7793112,
        "lng": -99.8041326,
        "latestObsDt": "2023-08-10 12:04",
        "numSpeciesAllTime": 173
    },
    {
        "locId": "L2808712",
        "locName": "Dickinson Dike & Turtle Park",
        "countryCode": "US",
        "subnational1Code": "US-ND",
        "subnational2Code": "US-ND-089",
        "lat": 46.874483,
        "lng": -102.8204891,
        "latestObsDt": "2023-11-23 08:20",
        "numSpeciesAllTime": 107
    },
    {
        "locId": "L12146003",
        "locName": "Dickinson State University",
        "countryCode": "US",
        "subnational1Code": "US-ND",
        "subnational2Code": "US-ND-089",
        "lat": 46.8825113,
        "lng": -102.8002687,
        "latestObsDt": "2022-09-23 07:56",
        "numSpeciesAllTime": 19
    },
    {
        "locId": "L12528132",
        "locName": "Dickinson WTP",
        "countryCode": "US",
        "subnational1Code": "US-ND",
        "subnational2Code": "US-ND-089",
        "lat": 46.8616555,
        "lng": -102.7308697,
        "latestObsDt": "2023-11-25 12:11",
        "numSpeciesAllTime": 91
    },
    {
        "locId": "L3651120",
        "locName": "Dickinson--Eagles Park",
        "countryCode": "US",
        "subnational1Code": "US-ND",
        "subnational2Code": "US-ND-089",
        "lat": 46.8701673,
        "lng": -102.7941799,
        "latestObsDt": "2021-08-13 09:20",
        "numSpeciesAllTime": 3
    },
    {
        "locId": "L3651996",
        "locName": "Dickinson--Jaycee's Park",
        "countryCode": "US",
        "subnational1Code": "US-ND",
        "subnational2Code": "US-ND-089",
        "lat": 46.8736512,
        "lng": -102.7815521,
        "latestObsDt": "2023-09-24 13:30",
        "numSpeciesAllTime": 85
    },
    {
        "locId": "L9141131",
        "locName": "Dickinson--Rocky Butte Park",
        "countryCode": "US",
        "subnational1Code": "US-ND",
        "subnational2Code": "US-ND-089",
        "lat": 46.890594,
        "lng": -102.7947294,
        "latestObsDt": "2024-02-23 18:26",
        "numSpeciesAllTime": 73
    },
    {
        "locId": "L8669566",
        "locName": "Dodge (town)",
        "countryCode": "US",
        "subnational1Code": "US-ND",
        "subnational2Code": "US-ND-025",
        "lat": 47.3044034,
        "lng": -102.2022027,
        "latestObsDt": "2024-02-06 10:10",
        "numSpeciesAllTime": 23
    },
    {
        "locId": "L6427512",
        "locName": "Don Steckel Boat Ramp",
        "countryCode": "US",
        "subnational1Code": "US-ND",
        "subnational2Code": "US-ND-015",
        "lat": 47.129615,
        "lng": -100.9386626,
        "latestObsDt": "2023-06-11 12:00",
        "numSpeciesAllTime": 52
    },
    {
        "locId": "L8122360",
        "locName": "Donnybrook (town)",
        "countryCode": "US",
        "subnational1Code": "US-ND",
        "subnational2Code": "US-ND-101",
        "lat": 48.5088642,
        "lng": -101.8842394,
        "latestObsDt": "2023-08-25 12:24",
        "numSpeciesAllTime": 5
    },
    {
        "locId": "L8575777",
        "locName": "Double Ditch Historic Site & Rec. Area",
        "countryCode": "US",
        "subnational1Code": "US-ND",
        "subnational2Code": "US-ND-015",
        "lat": 46.9410805,
        "lng": -100.9023656,
        "latestObsDt": "2024-01-28 10:21",
        "numSpeciesAllTime": 68
    },
    {
        "locId": "L5052550",
        "locName": "Douglas Creek Rec. Area",
        "countryCode": "US",
        "subnational1Code": "US-ND",
        "subnational2Code": "US-ND-055",
        "lat": 47.5780594,
        "lng": -101.5771847,
        "latestObsDt": "2023-06-04 10:38",
        "numSpeciesAllTime": 75
    },
    {
        "locId": "L6521974",
        "locName": "Drayton (town)",
        "countryCode": "US",
        "subnational1Code": "US-ND",
        "subnational2Code": "US-ND-067",
        "lat": 48.5616727,
        "lng": -97.1805149,
        "latestObsDt": "2023-11-03 17:31",
        "numSpeciesAllTime": 41
    },
    {
        "locId": "L756232",
        "locName": "Drayton--Crystal Sugar Ponds",
        "countryCode": "US",
        "subnational1Code": "US-ND",
        "subnational2Code": "US-ND-067",
        "lat": 48.6039337,
        "lng": -97.1574811,
        "latestObsDt": "2023-11-12 07:18",
        "numSpeciesAllTime": 121
    },
    {
        "locId": "L15995361",
        "locName": "Dry Lake (Foster Co.)",
        "countryCode": "US",
        "subnational1Code": "US-ND",
        "subnational2Code": "US-ND-031",
        "lat": 47.384623,
        "lng": -98.918515,
        "latestObsDt": "2021-08-03 16:40",
        "numSpeciesAllTime": 4
    },
    {
        "locId": "L5719882",
        "locName": "Dry Lake (Hettinger Co.)",
        "countryCode": "US",
        "subnational1Code": "US-ND",
        "subnational2Code": "US-ND-041",
        "lat": 46.2407257,
        "lng": -102.2274119,
        "latestObsDt": "2023-04-27 11:50",
        "numSpeciesAllTime": 88
    },
    {
        "locId": "L8597508",
        "locName": "Dry Lake (McIntosh Co.)",
        "countryCode": "US",
        "subnational1Code": "US-ND",
        "subnational2Code": "US-ND-051",
        "lat": 46.0860885,
        "lng": -99.4267808,
        "latestObsDt": "2023-11-18 14:48",
        "numSpeciesAllTime": 85
    },
    {
        "locId": "L22288102",
        "locName": "Dry Lake (Ramsey Co.)",
        "countryCode": "US",
        "subnational1Code": "US-ND",
        "subnational2Code": "US-ND-071",
        "lat": 48.250135,
        "lng": -98.9756196,
        "latestObsDt": "1901-06-26 00:00",
        "numSpeciesAllTime": 1
    },
    {
        "locId": "L15971822",
        "locName": "Dunn Center (town)",
        "countryCode": "US",
        "subnational1Code": "US-ND",
        "subnational2Code": "US-ND-025",
        "lat": 47.3536507,
        "lng": -102.6205701,
        "latestObsDt": "2023-07-29 11:47",
        "numSpeciesAllTime": 57
    },
    {
        "locId": "L10303470",
        "locName": "Dunseith (town)",
        "countryCode": "US",
        "subnational1Code": "US-ND",
        "subnational2Code": "US-ND-079",
        "lat": 48.8130467,
        "lng": -100.0611108,
        "latestObsDt": "2024-02-09 11:33",
        "numSpeciesAllTime": 17
    },
    {
        "locId": "L8575728",
        "locName": "Eagles Park & Campground",
        "countryCode": "US",
        "subnational1Code": "US-ND",
        "subnational2Code": "US-ND-015",
        "lat": 46.924632,
        "lng": -100.8947957,
        "latestObsDt": "2023-07-27 10:00",
        "numSpeciesAllTime": 56
    },
    {
        "locId": "L7451643",
        "locName": "East Ashtabula Crossing",
        "countryCode": "US",
        "subnational1Code": "US-ND",
        "subnational2Code": "US-ND-003",
        "lat": 47.1582803,
        "lng": -98.0040077,
        "latestObsDt": "2023-04-25 10:48",
        "numSpeciesAllTime": 49
    },
    {
        "locId": "L159537",
        "locName": "East Devils Lake",
        "countryCode": "US",
        "subnational1Code": "US-ND",
        "subnational2Code": "US-ND-071",
        "lat": 47.9590392,
        "lng": -98.6341362,
        "latestObsDt": "2019-05-05 19:51",
        "numSpeciesAllTime": 108
    },
    {
        "locId": "L11610407",
        "locName": "East Lignite Wetland",
        "countryCode": "US",
        "subnational1Code": "US-ND",
        "subnational2Code": "US-ND-013",
        "lat": 48.8912704,
        "lng": -102.5244532,
        "latestObsDt": "2023-06-23 19:03",
        "numSpeciesAllTime": 56
    },