[
    {
        "locId": "L10228775",
        "locName": "102 Ranch",
        "countryCode": "US",
        "subnational1Code": "US-NV",
        "subnational2Code": "US-NV-031",
        "lat": 39.5649001,
        "lng": -119.4935956,
        "latestObsDt": "2024-02-25 15:33",
        "numSpeciesAllTime": 29
    },
    {
        "locId": "L2102287",
        "locName": "3 Bars Road--Pond",
        "countryCode": "US",
        "subnational1Code": "US-NV",
        "subnational2Code": "US-NV-011",
        "lat": 39.6017865,
        "lng": -116.4199734,
        "latestObsDt": "2023-10-16 08:57",
        "numSpeciesAllTime": 42
    },
    {
        "locId": "L7900569",
        "locName": "ABC Park",
        "countryCode": "US",
        "subnational1Code": "US-NV",
        "subnational2Code": "US-NV-003",
        "lat": 35.968317,
        "lng": -114.830547,
        "latestObsDt": "2024-02-04 09:07",
        "numSpeciesAllTime": 50
    },
    {
        "locId": "L282017",
        "locName": "Alamo (town)",
        "countryCode": "US",
        "subnational1Code": "US-NV",
        "subnational2Code": "US-NV-017",
        "lat": 37.3636085,
        "lng": -115.1650643,
        "latestObsDt": "2023-12-27 12:00",
        "numSpeciesAllTime": 139
    },
    {
        "locId": "L4946498",
        "locName": "Alexander Lake",
        "countryCode": "US",
        "subnational1Code": "US-NV",
        "subnational2Code": "US-NV-031",
        "lat": 39.4606184,
        "lng": -119.7376292,
        "latestObsDt": "2023-10-26 10:19",
        "numSpeciesAllTime": 71
    },
    {
        "locId": "L16677559",
        "locName": "Aliante Nature Discovery Park",
        "countryCode": "US",
        "subnational1Code": "US-NV",
        "subnational2Code": "US-NV-003",
        "lat": 36.2875655,
        "lng": -115.1760682,
        "latestObsDt": "2024-02-15 07:25",
        "numSpeciesAllTime": 86
    },
    {
        "locId": "L3487425",
        "locName": "Alum Canyon",
        "countryCode": "US",
        "subnational1Code": "US-NV",
        "subnational2Code": "US-NV-031",
        "lat": 39.474498,
        "lng": -119.8660755,
        "latestObsDt": "2024-02-11 08:15",
        "numSpeciesAllTime": 98
    },
    {
        "locId": "L3533987",
        "locName": "Alum Canyon--Hunter Lake Road access area",
        "countryCode": "US",
        "subnational1Code": "US-NV",
        "subnational2Code": "US-NV-031",
        "lat": 39.4730404,
        "lng": -119.8578358,
        "latestObsDt": "2024-02-01 15:06",
        "numSpeciesAllTime": 105
    },
    {
        "locId": "L12969358",
        "locName": "Alum Creek Road",
        "countryCode": "US",
        "subnational1Code": "US-NV",
        "subnational2Code": "US-NV-021",
        "lat": 38.4242919,
        "lng": -118.667532,
        "latestObsDt": "2023-12-13 15:48",
        "numSpeciesAllTime": 50
    },
    {
        "locId": "L809908",
        "locName": "Amargosa Community Park",
        "countryCode": "US",
        "subnational1Code": "US-NV",
        "subnational2Code": "US-NV-023",
        "lat": 36.568115,
        "lng": -116.4601851,
        "latestObsDt": "2024-02-19 14:24",
        "numSpeciesAllTime": 119
    },
    {
        "locId": "L505483",
        "locName": "Amargosa Valley--Ag Area",
        "countryCode": "US",
        "subnational1Code": "US-NV",
        "subnational2Code": "US-NV-023",
        "lat": 36.5052209,
        "lng": -116.4880371,
        "latestObsDt": "2023-12-28 13:25",
        "numSpeciesAllTime": 146
    },
    {
        "locId": "L4138132",
        "locName": "Ambrose Park",
        "countryCode": "US",
        "subnational1Code": "US-NV",
        "subnational2Code": "US-NV-031",
        "lat": 39.5097374,
        "lng": -119.8751451,
        "latestObsDt": "2023-05-19 12:15",
        "numSpeciesAllTime": 43
    },
    {
        "locId": "L132586",
        "locName": "Anaho Island NWR (restricted access)",
        "countryCode": "US",
        "subnational1Code": "US-NV",
        "subnational2Code": "US-NV-031",
        "lat": 39.9525553,
        "lng": -119.5125346,
        "latestObsDt": "2021-06-02 17:00",
        "numSpeciesAllTime": 47
    },
    {
        "locId": "L17188105",
        "locName": "Anchorite Hills",
        "countryCode": "US",
        "subnational1Code": "US-NV",
        "subnational2Code": "US-NV-021",
        "lat": 38.2020633,
        "lng": -118.6846601,
        "latestObsDt": "2024-02-25 17:48",
        "numSpeciesAllTime": 30
    },
    {
        "locId": "L10154068",
        "locName": "Anderson Regional Park and Anderson Trail",
        "countryCode": "US",
        "subnational1Code": "US-NV",
        "subnational2Code": "US-NV-031",
        "lat": 39.4632538,
        "lng": -119.7921255,
        "latestObsDt": "2024-02-12 12:34",
        "numSpeciesAllTime": 93
    },
    {
        "locId": "L1167900",
        "locName": "Angel Creek Campground",
        "countryCode": "US",
        "subnational1Code": "US-NV",
        "subnational2Code": "US-NV-007",
        "lat": 41.0273448,
        "lng": -115.0493002,
        "latestObsDt": "2023-09-29 18:30",
        "numSpeciesAllTime": 94
    },
    {
        "locId": "L1533572",
        "locName": "Angel Lake",
        "countryCode": "US",
        "subnational1Code": "US-NV",
        "subnational2Code": "US-NV-007",
        "lat": 41.0264046,
        "lng": -115.086937,
        "latestObsDt": "2023-11-18 16:05",
        "numSpeciesAllTime": 95
    },
    {
        "locId": "L1628304",
        "locName": "Angel Lake--Campground",
        "countryCode": "US",
        "subnational1Code": "US-NV",
        "subnational2Code": "US-NV-007",
        "lat": 41.0272355,
        "lng": -115.0842494,
        "latestObsDt": "2023-09-29 11:15",
        "numSpeciesAllTime": 95
    },
    {
        "locId": "L21209548",
        "locName": "Argenta WMA",
        "countryCode": "US",
        "subnational1Code": "US-NV",
        "subnational2Code": "US-NV-015",
        "lat": 40.66918,
        "lng": -116.930015,
        "latestObsDt": "2024-02-12 16:05",
        "numSpeciesAllTime": 78
    },
    {
        "locId": "L3717867",
        "locName": "Ash Canyon",
        "countryCode": "US",
        "subnational1Code": "US-NV",
        "subnational2Code": "US-NV-510",
        "lat": 39.177832,
        "lng": -119.8236537,
        "latestObsDt": "2023-11-03 08:15",
        "numSpeciesAllTime": 100
    },
    {
        "locId": "L1822722",
        "locName": "Ash Meadows NWR",
        "countryCode": "US",
        "subnational1Code": "US-NV",
        "subnational2Code": "US-NV-023",
        "lat": 36.4234062,
        "lng": -116.3279897,
        "latestObsDt": "2024-02-18 08:43",
        "numSpeciesAllTime": 194
    },
    {
        "locId": "L10926436",
        "locName": "Ash Meadows NWR -- Point of Rocks",
        "countryCode": "US",
        "subnational1Code": "US-NV",
        "subnational2Code": "US-NV-023",
        "lat": 36.4016758,
        "lng": -116.2758382,
        "latestObsDt": "2024-02-17 10:23",
        "numSpeciesAllTime": 77
    },
    {
        "locId": "L388900",
        "locName": "Ash Meadows NWR HQ",
        "countryCode": "US",
        "subnational1Code": "US-NV",
        "subnational2Code": "US-NV-023",
        "lat": 36.4204294,
        "lng": -116.3299853,
        "latestObsDt": "2024-01-07 11:30",
        "numSpeciesAllTime": 211
    },
    {
        "locId": "L606033",
        "locName": "Ash Meadows NWR--Bradford Spring",
        "countryCode": "US",
        "subnational1Code": "US-NV",
        "subnational2Code": "US-NV-023",
        "lat": 36.4023561,
        "lng": -116.3023424,
        "latestObsDt": "2024-02-17 10:15",
        "numSpeciesAllTime": 157
    },
    {
        "locId": "L491601",
        "locName": "Ash Meadows NWR--Collins Ranch Spring",
        "countryCode": "US",
        "subnational1Code": "US-NV",
        "subnational2Code": "US-NV-023",
        "lat": 36.4195212,
        "lng": -116.2988234,
        "latestObsDt": "2024-02-17 10:08",
        "numSpeciesAllTime": 66
    },
    {
        "locId": "L509316",
        "locName": "Ash Meadows NWR--Crystal Boardwalk",
        "countryCode": "US",
        "subnational1Code": "US-NV",
        "subnational2Code": "US-NV-023",
        "lat": 36.4197577,
        "lng": -116.3241059,
        "latestObsDt": "2024-02-25 09:36",
        "numSpeciesAllTime": 144
    },
    {
        "locId": "L509291",
        "locName": "Ash Meadows NWR--Crystal Reservoir",
        "countryCode": "US",
        "subnational1Code": "US-NV",
        "subnational2Code": "US-NV-023",
        "lat": 36.4078135,
        "lng": -116.3232422,
        "latestObsDt": "2024-02-24 13:41",
        "numSpeciesAllTime": 230
    },
    {
        "locId": "L491608",
        "locName": "Ash Meadows NWR--Horseshoe Reservoir",
        "countryCode": "US",
        "subnational1Code": "US-NV",
        "subnational2Code": "US-NV-023",
        "lat": 36.4091259,
        "lng": -116.341095,
        "latestObsDt": "2023-11-09 14:14",
        "numSpeciesAllTime": 111
    },
    {
        "locId": "L4978812",
        "locName": "Ash Meadows NWR--Longstreet Spring",
        "countryCode": "US",
        "subnational1Code": "US-NV",
        "subnational2Code": "US-NV-023",
        "lat": 36.4676419,
        "lng": -116.3262382,
        "latestObsDt": "2024-01-29 14:29",
        "numSpeciesAllTime": 76
    },
    {
        "locId": "L492985",
        "locName": "Ash Meadows NWR--Lower Crystal Marsh",
        "countryCode": "US",
        "subnational1Code": "US-NV",
        "subnational2Code": "US-NV-023",
        "lat": 36.3994546,
        "lng": -116.3345718,
        "latestObsDt": "2024-02-24 14:13",
        "numSpeciesAllTime": 152
    },
    {
        "locId": "L5181467",
        "locName": "Ash Meadows NWR--Middle Carson Slough",
        "countryCode": "US",
        "subnational1Code": "US-NV",
        "subnational2Code": "US-NV-023",
        "lat": 36.4252191,
        "lng": -116.3652992,
        "latestObsDt": "2023-11-08 14:02",
        "numSpeciesAllTime": 95
    },
    {
        "locId": "L491603",
        "locName": "Ash Meadows NWR--Peterson Reservoir",
        "countryCode": "US",
        "subnational1Code": "US-NV",
        "subnational2Code": "US-NV-023",
        "lat": 36.4462802,
        "lng": -116.3532829,
        "latestObsDt": "2024-01-01 09:50",
        "numSpeciesAllTime": 185
    },
    {
        "locId": "L491594",
        "locName": "Ash Meadows NWR--Point of Rocks",
        "countryCode": "US",
        "subnational1Code": "US-NV",
        "subnational2Code": "US-NV-023",
        "lat": 36.4016999,
        "lng": -116.2757778,
        "latestObsDt": "2024-02-17 11:13",
        "numSpeciesAllTime": 177
    },
    {
        "locId": "L861472",
        "locName": "Ash Springs",
        "countryCode": "US",
        "subnational1Code": "US-NV",
        "subnational2Code": "US-NV-017",
        "lat": 37.4607395,
        "lng": -115.1940966,
        "latestObsDt": "2023-12-16 08:43",
        "numSpeciesAllTime": 120
    },
    {
        "locId": "L869919",
        "locName": "Austin",
        "countryCode": "US",
        "subnational1Code": "US-NV",
        "subnational2Code": "US-NV-015",
        "lat": 39.4905626,
        "lng": -117.0687139,
        "latestObsDt": "2023-10-24 13:28",
        "numSpeciesAllTime": 85
    },
    {
        "locId": "L6317104",
        "locName": "Austin WTP",
        "countryCode": "US",
        "subnational1Code": "US-NV",
        "subnational2Code": "US-NV-015",
        "lat": 39.5162416,
        "lng": -117.1201694,
        "latestObsDt": "2022-04-29 18:32",
        "numSpeciesAllTime": 8
    },
    {
        "locId": "L5187237",
        "locName": "Avi Resort and Casino",
        "countryCode": "US",
        "subnational1Code": "US-NV",
        "subnational2Code": "US-NV-003",
        "lat": 35.0166214,
        "lng": -114.644381,
        "latestObsDt": "2024-02-13 12:54",
        "numSpeciesAllTime": 108
    },
    {
        "locId": "L6249840",
        "locName": "Baker (town)",
        "countryCode": "US",
        "subnational1Code": "US-NV",
        "subnational2Code": "US-NV-033",
        "lat": 39.0110877,
        "lng": -114.1230841,
        "latestObsDt": "2024-01-24 07:20",
        "numSpeciesAllTime": 95
    },
    {
        "locId": "L11445773",
        "locName": "Ballardini Ranch Loop Trail",
        "countryCode": "US",
        "subnational1Code": "US-NV",
        "subnational2Code": "US-NV-031",
        "lat": 39.4481058,
        "lng": -119.8242739,
        "latestObsDt": "2024-02-24 17:06",
        "numSpeciesAllTime": 31
    },
    {
        "locId": "L17372382",
        "locName": "Barred Owl stakeout 2022 (location obscured)",
        "countryCode": "US",
        "subnational1Code": "US-NV",
        "subnational2Code": "US-NV-031",
        "lat": 39.2962176,
        "lng": -119.7761539,
        "latestObsDt": "2022-01-12 14:41",
        "numSpeciesAllTime": 27
    },
    {
        "locId": "L139918",
        "locName": "Bartley Ranch Regional Park",
        "countryCode": "US",
        "subnational1Code": "US-NV",
        "subnational2Code": "US-NV-031",
        "lat": 39.4674559,
        "lng": -119.8052197,
        "latestObsDt": "2024-02-18 16:17",
        "numSpeciesAllTime": 87
    },
    {
        "locId": "L4780231",
        "locName": "Basin and Range NM--Coal Valley Ponds",
        "countryCode": "US",
        "subnational1Code": "US-NV",
        "subnational2Code": "US-NV-017",
        "lat": 37.961337,
        "lng": -115.309441,
        "latestObsDt": "2021-06-05 08:52",
        "numSpeciesAllTime": 20
    },
    {
        "locId": "L4780238",
        "locName": "Basin and Range NM--Garden Valley",
        "countryCode": "US",
        "subnational1Code": "US-NV",
        "subnational2Code": "US-NV-017",
        "lat": 38.005958,
        "lng": -115.466092,
        "latestObsDt": "2022-12-27 10:24",
        "numSpeciesAllTime": 28
    },
    {
        "locId": "L15278677",
        "locName": "Basin and Range NM--Mt Irish Archaeological District",
        "countryCode": "US",
        "subnational1Code": "US-NV",
        "subnational2Code": "US-NV-017",
        "lat": 37.606109,
        "lng": -115.373133,
        "latestObsDt": "2023-06-14 10:00",
        "numSpeciesAllTime": 9
    },
    {
        "locId": "L686939",
        "locName": "Basset Lake",
        "countryCode": "US",
        "subnational1Code": "US-NV",
        "subnational2Code": "US-NV-033",
        "lat": 39.4687668,
        "lng": -114.8589706,
        "latestObsDt": "2022-08-16 18:17",
        "numSpeciesAllTime": 88
    },
    {
        "locId": "L876288",
        "locName": "Bassett Lake",
        "countryCode": "US",
        "subnational1Code": "US-NV",
        "subnational2Code": "US-NV-033",
        "lat": 39.4693135,
        "lng": -114.8567605,
        "latestObsDt": "2023-10-14 07:00",
        "numSpeciesAllTime": 71
    },
    {
        "locId": "L9804531",
        "locName": "Battle Mountain High School Pond",
        "countryCode": "US",
        "subnational1Code": "US-NV",
        "subnational2Code": "US-NV-015",
        "lat": 40.6337801,
        "lng": -116.9411722,
        "latestObsDt": "2023-11-25 13:34",
        "numSpeciesAllTime": 53
    },
    {
        "locId": "L3871759",
        "locName": "Battle Mountain--Sewage Treatment Plant",
        "countryCode": "US",
        "subnational1Code": "US-NV",
        "subnational2Code": "US-NV-015",
        "lat": 40.6576898,
        "lng": -116.9433689,
        "latestObsDt": "2024-02-12 15:00",
        "numSpeciesAllTime": 70
    },
    {
        "locId": "L862152",
        "locName": "Beatty",
        "countryCode": "US",
        "subnational1Code": "US-NV",
        "subnational2Code": "US-NV-023",
        "lat": 36.9083648,
        "lng": -116.7592621,
        "latestObsDt": "2024-02-20 12:52",
        "numSpeciesAllTime": 153
    },
    {
        "locId": "L549968",
        "locName": "Beatty - Marshland",
        "countryCode": "US",
        "subnational1Code": "US-NV",
        "subnational2Code": "US-NV-023",
        "lat": 36.9165228,
        "lng": -116.7506683,
        "latestObsDt": "2024-01-24 14:24",
        "numSpeciesAllTime": 87
    },
    {
        "locId": "L510050",
        "locName": "Beatty WTP",
        "countryCode": "US",
        "subnational1Code": "US-NV",
        "subnational2Code": "US-NV-023",
        "lat": 36.8940713,
        "lng": -116.7531306,
        "latestObsDt": "2024-01-02 08:55",
        "numSpeciesAllTime": 128
    },
    {
        "locId": "L4515794",
        "locName": "Beatty--Parker Ranch",
        "countryCode": "US",
        "subnational1Code": "US-NV",
        "subnational2Code": "US-NV-023",
        "lat": 36.965495,
        "lng": -116.723063,
        "latestObsDt": "2023-10-01 07:00",
        "numSpeciesAllTime": 75
    },
    {
        "locId": "L9123671",
        "locName": "Beaver Dam SP",
        "countryCode": "US",
        "subnational1Code": "US-NV",
        "subnational2Code": "US-NV-017",
        "lat": 37.513054,
        "lng": -114.08064,
        "latestObsDt": "2023-11-20 13:01",
        "numSpeciesAllTime": 80
    },
    {
        "locId": "L917196",
        "locName": "Bently Heritage Trail",
        "countryCode": "US",
        "subnational1Code": "US-NV",
        "subnational2Code": "US-NV-005",
        "lat": 39.0517642,
        "lng": -119.7685021,
        "latestObsDt": "2023-12-31 10:57",
        "numSpeciesAllTime": 97
    },
    {
        "locId": "L9363230",
        "locName": "Beowawe Rest Area",
        "countryCode": "US",
        "subnational1Code": "US-NV",
        "subnational2Code": "US-NV-011",
        "lat": 40.6806379,
        "lng": -116.4764372,
        "latestObsDt": "2023-11-25 16:26",
        "numSpeciesAllTime": 23
    },
    {
        "locId": "L9363219",
        "locName": "Beowawe Rest Area--Eastbound I-80",
        "countryCode": "US",
        "subnational1Code": "US-NV",
        "subnational2Code": "US-NV-011",
        "lat": 40.6814874,
        "lng": -116.4790087,
        "latestObsDt": "2024-02-25 08:23",
        "numSpeciesAllTime": 47
    },
    {
        "locId": "L3804502",
        "locName": "Beowawe Rest Area--Westbound I-80",
        "countryCode": "US",
        "subnational1Code": "US-NV",
        "subnational2Code": "US-NV-011",
        "lat": 40.67971,
        "lng": -116.47354,
        "latestObsDt": "2024-02-22 11:22",
        "numSpeciesAllTime": 28
    },
    {
        "locId": "L714300",
        "locName": "Berlin Ichthyosaur SP",
        "countryCode": "US",
        "subnational1Code": "US-NV",
        "subnational2Code": "US-NV-023",
        "lat": 38.8725253,
        "lng": -117.5921631,
        "latestObsDt": "2023-10-22 17:19",
        "numSpeciesAllTime": 54
    },
    {
        "locId": "L3131865",
        "locName": "Betsy Caughlin Donnelly Park",
        "countryCode": "US",
        "subnational1Code": "US-NV",
        "subnational2Code": "US-NV-031",
        "lat": 39.5061951,
        "lng": -119.8579994,
        "latestObsDt": "2023-12-16 14:51",
        "numSpeciesAllTime": 7
    },
    {
        "locId": "L3134449",
        "locName": "Betsy Caughlin Donnelly Park--Fields",
        "countryCode": "US",
        "subnational1Code": "US-NV",
        "subnational2Code": "US-NV-031",
        "lat": 39.50448,
        "lng": -119.85595,
        "latestObsDt": "2021-05-26 19:17",
        "numSpeciesAllTime": 7
    },
    {
        "locId": "L3497370",
        "locName": "Big Bend of the Colorado SRA",
        "countryCode": "US",
        "subnational1Code": "US-NV",
        "subnational2Code": "US-NV-003",
        "lat": 35.1147834,
        "lng": -114.6397591,
        "latestObsDt": "2024-02-20 13:50",
        "numSpeciesAllTime": 140
    },
    {
        "locId": "L7384798",
        "locName": "Big Creek Campground",
        "countryCode": "US",
        "subnational1Code": "US-NV",
        "subnational2Code": "US-NV-015",
        "lat": 39.3455159,
        "lng": -117.1357155,
        "latestObsDt": "2023-07-30 11:52",
        "numSpeciesAllTime": 21
    },
    {
        "locId": "L7623574",
        "locName": "Big Smoky Rest Area",
        "countryCode": "US",
        "subnational1Code": "US-NV",
        "subnational2Code": "US-NV-023",
        "lat": 38.7830532,
        "lng": -117.1753377,
        "latestObsDt": "2023-09-26 15:44",
        "numSpeciesAllTime": 35
    },
    {
        "locId": "L4991298",
        "locName": "Bigelow Pond",
        "countryCode": "US",
        "subnational1Code": "US-NV",
        "subnational2Code": "US-NV-510",
        "lat": 39.1117051,
        "lng": -119.7538411,
        "latestObsDt": "2024-02-22 14:51",
        "numSpeciesAllTime": 123
    },
    {
        "locId": "L11838769",
        "locName": "Bilk Creek Reservoir",
        "countryCode": "US",
        "subnational1Code": "US-NV",
        "subnational2Code": "US-NV-013",
        "lat": 41.6309835,
        "lng": -118.3907351,
        "latestObsDt": "2023-09-24 13:24",
        "numSpeciesAllTime": 55
    },
    {
        "locId": "L4384009",
        "locName": "Billy Shaw Reservoir (Duck Valley Reservation)",
        "countryCode": "US",
        "subnational1Code": "US-NV",
        "subnational2Code": "US-NV-007",
        "lat": 41.9628812,
        "lng": -116.2376348,
        "latestObsDt": "2023-11-11 13:58",
        "numSpeciesAllTime": 60
    },
    {
        "locId": "L9740589",
        "locName": "Birch Creek Canyon",
        "countryCode": "US",
        "subnational1Code": "US-NV",
        "subnational2Code": "US-NV-015",
        "lat": 39.3802565,
        "lng": -117.0160832,
        "latestObsDt": "2023-06-18 09:08",
        "numSpeciesAllTime": 86
    },
    {
        "locId": "L27616065",
        "locName": "Black Rock City (Burning Man)",
        "countryCode": "US",
        "subnational1Code": "US-NV",
        "subnational2Code": "US-NV-027",
        "lat": 40.7863045,
        "lng": -119.2035966
    },
    {
        "locId": "L3703244",
        "locName": "Black Rock Desert--High Rock Canyon",
        "countryCode": "US",
        "subnational1Code": "US-NV",
        "subnational2Code": "US-NV-031",
        "lat": 41.3285101,
        "lng": -119.3384743,
        "latestObsDt": "2023-06-25 13:29",
        "numSpeciesAllTime": 63
    },
    {
        "locId": "L4616682",
        "locName": "Bliss Creek",
        "countryCode": "US",
        "subnational1Code": "US-NV",
        "subnational2Code": "US-NV-510",
        "lat": 39.1368553,
        "lng": -119.927592,
        "latestObsDt": "2023-07-17 10:31",
        "numSpeciesAllTime": 61
    },
    {
        "locId": "L456485",
        "locName": "Blue Diamond Park (restricted access)",
        "countryCode": "US",
        "subnational1Code": "US-NV",
        "subnational2Code": "US-NV-003",
        "lat": 36.0459197,
        "lng": -115.4056692,
        "latestObsDt": "2024-02-05 11:40",
        "numSpeciesAllTime": 129
    },
    {
        "locId": "L15194974",
        "locName": "Bog Hot Reservoir",
        "countryCode": "US",
        "subnational1Code": "US-NV",
        "subnational2Code": "US-NV-013",
        "lat": 41.917688,
        "lng": -118.787693,
        "latestObsDt": "2023-09-24 11:42",
        "numSpeciesAllTime": 58
    },
    {
        "locId": "L5905608",
        "locName": "Boies Reservoir",
        "countryCode": "US",
        "subnational1Code": "US-NV",
        "subnational2Code": "US-NV-007",
        "lat": 41.6044792,
        "lng": -114.8944309,
        "latestObsDt": "2023-05-25 07:54",
        "numSpeciesAllTime": 52
    },
    {
        "locId": "L510051",
        "locName": "Bombo's Pond",
        "countryCode": "US",
        "subnational1Code": "US-NV",
        "subnational2Code": "US-NV-023",
        "lat": 36.8828988,
        "lng": -116.7531735,
        "latestObsDt": "2024-01-26 11:42",
        "numSpeciesAllTime": 115
    },
    {
        "locId": "L7900462",
        "locName": "Boulder City Municipal Cemetery",
        "countryCode": "US",
        "subnational1Code": "US-NV",
        "subnational2Code": "US-NV-003",
        "lat": 35.9702124,
        "lng": -114.8225342,
        "latestObsDt": "2024-02-13 09:39",
        "numSpeciesAllTime": 81
    },
    {
        "locId": "L3089218",
        "locName": "Boulder City--Hemenway Park",
        "countryCode": "US",
        "subnational1Code": "US-NV",
        "subnational2Code": "US-NV-003",
        "lat": 35.9955833,
        "lng": -114.8319112,
        "latestObsDt": "2024-02-21 10:57",
        "numSpeciesAllTime": 73
    },
    {
        "locId": "L2497316",
        "locName": "Boulder City--Mendota at San Felipe",
        "countryCode": "US",
        "subnational1Code": "US-NV",
        "subnational2Code": "US-NV-003",
        "lat": 35.9566537,
        "lng": -114.8315799,
        "latestObsDt": "2023-03-07 09:26",
        "numSpeciesAllTime": 13
    },
    {
        "locId": "L2497345",
        "locName": "Boulder City--Veteran's Park Ponds",
        "countryCode": "US",
        "subnational1Code": "US-NV",
        "subnational2Code": "US-NV-003",
        "lat": 35.9553271,
        "lng": -114.8473889,
        "latestObsDt": "2024-02-19 12:55",
        "numSpeciesAllTime": 163
    },
    {
        "locId": "L4157497",
        "locName": "Boulder City--Wilbur Square",
        "countryCode": "US",
        "subnational1Code": "US-NV",
        "subnational2Code": "US-NV-003",
        "lat": 35.980107,
        "lng": -114.834663,
        "latestObsDt": "2023-12-17 09:31",
        "numSpeciesAllTime": 59
    },
    {
        "locId": "L3942684",
        "locName": "Boundary Peak",
        "countryCode": "US",
        "subnational1Code": "US-NV",
        "subnational2Code": "US-NV-009",
        "lat": 37.8470619,
        "lng": -118.3509734,
        "latestObsDt": "2022-08-07 06:24",
        "numSpeciesAllTime": 62
    },
    {
        "locId": "L11302705",
        "locName": "Bowers Mansion Regional Park",
        "countryCode": "US",
        "subnational1Code": "US-NV",
        "subnational2Code": "US-NV-031",
        "lat": 39.286149,
        "lng": -119.8402384,
        "latestObsDt": "2024-01-30 10:25",
        "numSpeciesAllTime": 103
    },
    {
        "locId": "L875223",
        "locName": "Bowman Reservoir",
        "countryCode": "US",
        "subnational1Code": "US-NV",
        "subnational2Code": "US-NV-003",
        "lat": 36.6261019,
        "lng": -114.4797277,
        "latestObsDt": "2024-02-11 09:16",
        "numSpeciesAllTime": 194
    },
    {
        "locId": "L5889693",
        "locName": "Boynton Slough--Dry Creek (east from McCarran Blvd)",
        "countryCode": "US",
        "subnational1Code": "US-NV",
        "subnational2Code": "US-NV-031",
        "lat": 39.4908565,
        "lng": -119.7410685,
        "latestObsDt": "2024-02-24 13:45",
        "numSpeciesAllTime": 132
    },
    {
        "locId": "L7899216",
        "locName": "Broadbent Park",
        "countryCode": "US",
        "subnational1Code": "US-NV",
        "subnational2Code": "US-NV-003",
        "lat": 35.972255,
        "lng": -114.836352,
        "latestObsDt": "2020-09-03 11:48",
        "numSpeciesAllTime": 19
    },
    {
        "locId": "L5738544",
        "locName": "Browns Creek Trail",
        "countryCode": "US",
        "subnational1Code": "US-NV",
        "subnational2Code": "US-NV-031",
        "lat": 39.3433088,
        "lng": -119.8386741,
        "latestObsDt": "2023-11-26 11:30",
        "numSpeciesAllTime": 68
    },
    {
        "locId": "L873767",
        "locName": "Brunswick Canyon / Carson River (East)",
        "countryCode": "US",
        "subnational1Code": "US-NV",
        "subnational2Code": "US-NV-510",
        "lat": 39.1748794,
        "lng": -119.6883309,
        "latestObsDt": "2023-06-02 19:24",
        "numSpeciesAllTime": 82
    },
    {
        "locId": "L7949096",
        "locName": "Buckland's Station",
        "countryCode": "US",
        "subnational1Code": "US-NV",
        "subnational2Code": "US-NV-019",
        "lat": 39.2943762,
        "lng": -119.2516505,
        "latestObsDt": "2023-11-29 13:57",
        "numSpeciesAllTime": 79
    },
    {
        "locId": "L875221",
        "locName": "Bunkerville (town)",
        "countryCode": "US",
        "subnational1Code": "US-NV",
        "subnational2Code": "US-NV-003",
        "lat": 36.7727776,
        "lng": -114.1284657,
        "latestObsDt": "2024-02-02 07:44",
        "numSpeciesAllTime": 104
    },
    {
        "locId": "L7252289",
        "locName": "Cactus Springs",
        "countryCode": "US",
        "subnational1Code": "US-NV",
        "subnational2Code": "US-NV-003",
        "lat": 36.5772053,
        "lng": -115.7230067,
        "latestObsDt": "2024-01-19 10:51",
        "numSpeciesAllTime": 173
    },
    {
        "locId": "L6692635",
        "locName": "CalNevAri 02 (Desert Avicaching 2018)",
        "countryCode": "US",
        "subnational1Code": "US-NV",
        "subnational2Code": "US-NV-003",
        "lat": 35.3636166,
        "lng": -114.9483252,
        "latestObsDt": "2023-07-08 17:04",
        "numSpeciesAllTime": 25
    },
    {
        "locId": "L5749211",
        "locName": "CalNevAri 08 (Desert Avicaching 2018)",
        "countryCode": "US",
        "subnational1Code": "US-NV",
        "subnational2Code": "US-NV-003",
        "lat": 35.4013882,
        "lng": -114.9429642,
        "latestObsDt": "2021-03-01 08:43",
        "numSpeciesAllTime": 49
    },
    {
        "locId": "L869485",
        "locName": "Caliente (town)",
        "countryCode": "US",
        "subnational1Code": "US-NV",
        "subnational2Code": "US-NV-017",
        "lat": 37.6133475,
        "lng": -114.517225,
        "latestObsDt": "2024-02-14 14:21",
        "numSpeciesAllTime": 131
    },
    {
        "locId": "L9068848",
        "locName": "California Trail Interpretive Center and Trails",
        "countryCode": "US",
        "subnational1Code": "US-NV",
        "subnational2Code": "US-NV-007",
        "lat": 40.762232,
        "lng": -115.932992,
        "latestObsDt": "2024-02-25 08:49",
        "numSpeciesAllTime": 46
    },
    {
        "locId": "L1414629",
        "locName": "Callahan Park",
        "countryCode": "US",
        "subnational1Code": "US-NV",
        "subnational2Code": "US-NV-031",
        "lat": 39.3620207,
        "lng": -119.821328,
        "latestObsDt": "2023-12-24 13:56",
        "numSpeciesAllTime": 74
    },
    {
        "locId": "L2400101",
        "locName": "Calvada Eye Park",
        "countryCode": "US",
        "subnational1Code": "US-NV",
        "subnational2Code": "US-NV-023",
        "lat": 36.1917265,
        "lng": -115.9759474,
        "latestObsDt": "2024-02-10 08:40",
        "numSpeciesAllTime": 77
    },
    {
        "locId": "L4631260",
        "locName": "Can Young Canyon",
        "countryCode": "US",
        "subnational1Code": "US-NV",
        "subnational2Code": "US-NV-033",
        "lat": 38.9743239,
        "lng": -114.1991258,
        "latestObsDt": "2023-10-14 12:00",
        "numSpeciesAllTime": 34
    },
    {
        "locId": "L17367677",
        "locName": "Carcione Open Space",
        "countryCode": "US",
        "subnational1Code": "US-NV",
        "subnational2Code": "US-NV-031",
        "lat": 39.5134437,
        "lng": -119.9249586,
        "latestObsDt": "2022-12-28 07:30",
        "numSpeciesAllTime": 21
    },
    {
        "locId": "L873654",
        "locName": "Carlin Tunnels Wetlands",
        "countryCode": "US",
        "subnational1Code": "US-NV",
        "subnational2Code": "US-NV-007",
        "lat": 40.7266734,
        "lng": -116.0351944,
        "latestObsDt": "2023-09-25 10:50",
        "numSpeciesAllTime": 81
    },
    {
        "locId": "L868854",
        "locName": "Carson City WWTP Wetlands",
        "countryCode": "US",
        "subnational1Code": "US-NV",
        "subnational2Code": "US-NV-510",
        "lat": 39.1638915,
        "lng": -119.7365785,
        "latestObsDt": "2024-02-26 16:13",
        "numSpeciesAllTime": 173
    },
    {
        "locId": "L190275",
        "locName": "Carson Lake",
        "countryCode": "US",
        "subnational1Code": "US-NV",
        "subnational2Code": "US-NV-001",
        "lat": 39.33693,
        "lng": -118.734726,
        "latestObsDt": "2024-02-25 14:08",
        "numSpeciesAllTime": 227
    },
    {
        "locId": "L16763087",
        "locName": "Carson Ridge Disc Golf Park & Interpretive Trails",
        "countryCode": "US",
        "subnational1Code": "US-NV",
        "subnational2Code": "US-NV-510",
        "lat": 39.1950048,
        "lng": -119.6838892,
        "latestObsDt": "2022-04-29 15:08",
        "numSpeciesAllTime": 12
    },
    {
        "locId": "L421280",
        "locName": "Carson River Diversion Dam",
        "countryCode": "US",
        "subnational1Code": "US-NV",
        "subnational2Code": "US-NV-001",
        "lat": 39.4919804,
        "lng": -118.9933405,
        "latestObsDt": "2024-02-25 15:18",
        "numSpeciesAllTime": 184
    },
    {
        "locId": "L668818",
        "locName": "Carson River Park",
        "countryCode": "US",
        "subnational1Code": "US-NV",
        "subnational2Code": "US-NV-510",
        "lat": 39.1414778,
        "lng": -119.7051001,
        "latestObsDt": "2024-02-24 16:16",
        "numSpeciesAllTime": 181
    },
    {
        "locId": "L612416",
        "locName": "Carson River Ranches",
        "countryCode": "US",
        "subnational1Code": "US-NV",
        "subnational2Code": "US-NV-019",
        "lat": 39.3066751,
        "lng": -119.1913605,
        "latestObsDt": "2020-06-29 05:58",
        "numSpeciesAllTime": 94
    },
    {
        "locId": "L573446",
        "locName": "Carson Valley (Douglas Co.)",
        "countryCode": "US",
        "subnational1Code": "US-NV",
        "subnational2Code": "US-NV-005",
        "lat": 38.9861336,
        "lng": -119.7797728,
        "latestObsDt": "2024-02-25 12:02",
        "numSpeciesAllTime": 169
    },
    {
        "locId": "L5623381",
        "locName": "Castle Mountains (Desert Avicaching 2018)",
        "countryCode": "US",
        "subnational1Code": "US-NV",
        "subnational2Code": "US-NV-003",
        "lat": 35.370682,
        "lng": -115.070163,
        "latestObsDt": "2022-09-19 14:43",
        "numSpeciesAllTime": 21
    },
    {
        "locId": "L6252349",
        "locName": "Cathedral Gorge SP",
        "countryCode": "US",
        "subnational1Code": "US-NV",
        "subnational2Code": "US-NV-017",
        "lat": 37.8203063,
        "lng": -114.4156551,
        "latestObsDt": "2024-02-21 09:21",
        "numSpeciesAllTime": 85
    },
    {
        "locId": "L3245542",
        "locName": "Caughlin Parkway Trail",
        "countryCode": "US",
        "subnational1Code": "US-NV",
        "subnational2Code": "US-NV-031",
        "lat": 39.494368,
        "lng": -119.868684,
        "latestObsDt": "2024-02-18 13:50",
        "numSpeciesAllTime": 129
    },
    {
        "locId": "L6698115",
        "locName": "Caughlin Ranch--Alum Creek below Caughlin Pkwy and nearby Steamboat Ditch Trail",
        "countryCode": "US",
        "subnational1Code": "US-NV",
        "subnational2Code": "US-NV-031",
        "lat": 39.4884214,
        "lng": -119.8691326,
        "latestObsDt": "2024-02-21 14:00",
        "numSpeciesAllTime": 51
    },
    {
        "locId": "L5381972",
        "locName": "Caughlin Ranch--Longknife Rd and side streets",
        "countryCode": "US",
        "subnational1Code": "US-NV",
        "subnational2Code": "US-NV-031",
        "lat": 39.4951054,
        "lng": -119.8690813,
        "latestObsDt": "2018-03-14 09:05",
        "numSpeciesAllTime": 20
    },
    {
        "locId": "L6803005",
        "locName": "Caughlin Ranch--Lower Alum Creek & Ponds",
        "countryCode": "US",
        "subnational1Code": "US-NV",
        "subnational2Code": "US-NV-031",
        "lat": 39.5006904,
        "lng": -119.8623684,
        "latestObsDt": "2024-02-21 14:01",
        "numSpeciesAllTime": 71
    },
    {
        "locId": "L13186501",
        "locName": "Caughlin Ranch--Lower Alum Creek--Caughlin Glen area",
        "countryCode": "US",
        "subnational1Code": "US-NV",
        "subnational2Code": "US-NV-031",
        "lat": 39.5032537,
        "lng": -119.8604926,
        "latestObsDt": "2024-02-24 12:40",
        "numSpeciesAllTime": 56
    },
    {
        "locId": "L10798472",
        "locName": "Caughlin Ranch--Ponds near Caughlin Creek Rd.",
        "countryCode": "US",
        "subnational1Code": "US-NV",
        "subnational2Code": "US-NV-031",
        "lat": 39.4966578,
        "lng": -119.8637661,
        "latestObsDt": "2024-02-16 14:16",
        "numSpeciesAllTime": 49
    },
    {
        "locId": "L1552890",
        "locName": "Cave Lake SP",
        "countryCode": "US",
        "subnational1Code": "US-NV",
        "subnational2Code": "US-NV-033",
        "lat": 39.1875743,
        "lng": -114.699651,
        "latestObsDt": "2023-11-05 12:40",
        "numSpeciesAllTime": 126
    },
    {
        "locId": "L17072229",
        "locName": "Cave Lake SP--Cave Creek Reservoir",
        "countryCode": "US",
        "subnational1Code": "US-NV",
        "subnational2Code": "US-NV-033",
        "lat": 39.1885999,
        "lng": -114.694313,
        "latestObsDt": "2023-07-02 15:54",
        "numSpeciesAllTime": 8
    },
    {
        "locId": "L9895647",
        "locName": "Cave Lake SP--Elk Flat Campground",
        "countryCode": "US",
        "subnational1Code": "US-NV",
        "subnational2Code": "US-NV-033",
        "lat": 39.1876077,
        "lng": -114.7169696,
        "latestObsDt": "2023-06-28 21:22",
        "numSpeciesAllTime": 30
    },
    {
        "locId": "L17072222",
        "locName": "Cave Lake SP--Lakeview Campground",
        "countryCode": "US",
        "subnational1Code": "US-NV",
        "subnational2Code": "US-NV-033",
        "lat": 39.1918263,
        "lng": -114.6928422,
        "latestObsDt": "2023-10-13 14:07",
        "numSpeciesAllTime": 30
    },
    {
        "locId": "L8493685",
        "locName": "Cedar Hill Canyon",
        "countryCode": "US",
        "subnational1Code": "US-NV",
        "subnational2Code": "US-NV-029",
        "lat": 39.3298612,
        "lng": -119.6483446,
        "latestObsDt": "2024-01-21 08:19",
        "numSpeciesAllTime": 77
    },
    {
        "locId": "L870725",
        "locName": "Centerville Marsh",
        "countryCode": "US",
        "subnational1Code": "US-NV",
        "subnational2Code": "US-NV-005",
        "lat": 38.9087842,
        "lng": -119.7797084,
        "latestObsDt": "2024-01-24 11:34",
        "numSpeciesAllTime": 132
    },
    {
        "locId": "L11964520",
        "locName": "Charleston Peak",
        "countryCode": "US",
        "subnational1Code": "US-NV",
        "subnational2Code": "US-NV-003",
        "lat": 36.271528,
        "lng": -115.695508,
        "latestObsDt": "2023-07-28 12:42",
        "numSpeciesAllTime": 39
    },
    {
        "locId": "L3245681",
        "locName": "Charlie Frias Park",
        "countryCode": "US",
        "subnational1Code": "US-NV",
        "subnational2Code": "US-NV-003",
        "lat": 36.1023244,
        "lng": -115.2123249,
        "latestObsDt": "2024-01-13 14:46",
        "numSpeciesAllTime": 39
    },
    {
        "locId": "L7533850",
        "locName": "Cherry Creek Canyon",
        "countryCode": "US",
        "subnational1Code": "US-NV",
        "subnational2Code": "US-NV-033",
        "lat": 39.9056241,
        "lng": -114.9127862,
        "latestObsDt": "2022-08-18 13:12",
        "numSpeciesAllTime": 22
    },
    {
        "locId": "L875250",
        "locName": "Chiatovich Creek",
        "countryCode": "US",
        "subnational1Code": "US-NV",
        "subnational2Code": "US-NV-009",
        "lat": 37.8244169,
        "lng": -118.1014502,
        "latestObsDt": "2023-05-28 07:45",
        "numSpeciesAllTime": 112
    },
    {
        "locId": "L8195066",
        "locName": "Chimney Beach (Carson City Co.)",
        "countryCode": "US",
        "subnational1Code": "US-NV",
        "subnational2Code": "US-NV-510",
        "lat": 39.1637997,
        "lng": -119.9323265,
        "latestObsDt": "2024-01-30 17:13",
        "numSpeciesAllTime": 80
    },
    {
        "locId": "L1649638",
        "locName": "Chinese Garden Nature Study Area (Carlin)",
        "countryCode": "US",
        "subnational1Code": "US-NV",
        "subnational2Code": "US-NV-007",
        "lat": 40.7119644,
        "lng": -116.1281598,
        "latestObsDt": "2023-11-12 12:28",
        "numSpeciesAllTime": 91
    },
    {
        "locId": "L17165049",
        "locName": "Churchill County Cemetery",
        "countryCode": "US",
        "subnational1Code": "US-NV",
        "subnational2Code": "US-NV-001",
        "lat": 39.481121,
        "lng": -118.751365,
        "latestObsDt": "2024-02-11 11:45",
        "numSpeciesAllTime": 66
    },
    {
        "locId": "L160294",
        "locName": "Clark County Wetlands Park",
        "countryCode": "US",
        "subnational1Code": "US-NV",
        "subnational2Code": "US-NV-003",
        "lat": 36.1006947,
        "lng": -115.022462,
        "latestObsDt": "2024-02-26 10:26",
        "numSpeciesAllTime": 277
    },
    {
        "locId": "L4312654",
        "locName": "Clark County Wetlands Park (Powerline Crossing Trailhead)",
        "countryCode": "US",
        "subnational1Code": "US-NV",
        "subnational2Code": "US-NV-003",
        "lat": 36.1009543,
        "lng": -114.9373019,
        "latestObsDt": "2024-02-17 08:00",
        "numSpeciesAllTime": 169
    },
    {
        "locId": "L6557904",
        "locName": "Clark County Wetlands Park--Bostick Weir",
        "countryCode": "US",
        "subnational1Code": "US-NV",
        "subnational2Code": "US-NV-003",
        "lat": 36.0908362,
        "lng": -114.9685568,
        "latestObsDt": "2024-02-01 15:57",
        "numSpeciesAllTime": 178
    },
    {
        "locId": "L866201",
        "locName": "Clark County Wetlands Park--Duck Creek Area",
        "countryCode": "US",
        "subnational1Code": "US-NV",
        "subnational2Code": "US-NV-003",
        "lat": 36.0951639,
        "lng": -115.0187445,
        "latestObsDt": "2024-02-19 10:31",
        "numSpeciesAllTime": 243
    },
    {
        "locId": "L5557686",
        "locName": "Clark County Wetlands Park--Silver Bowl Weir",
        "countryCode": "US",
        "subnational1Code": "US-NV",
        "subnational2Code": "US-NV-003",
        "lat": 36.0903069,
        "lng": -115.0014979,
        "latestObsDt": "2023-12-20 07:17",
        "numSpeciesAllTime": 164
    },
    {
        "locId": "L4384285",
        "locName": "Clark County Wetlands Park--Wells Trailhead",
        "countryCode": "US",
        "subnational1Code": "US-NV",
        "subnational2Code": "US-NV-003",
        "lat": 36.0936376,
        "lng": -114.9554484,
        "latestObsDt": "2024-02-18 15:30",
        "numSpeciesAllTime": 203
    },
    {
        "locId": "L9822016",
        "locName": "Clear Creek Trail--South from Spooner Summit",
        "countryCode": "US",
        "subnational1Code": "US-NV",
        "subnational2Code": "US-NV-005",
        "lat": 39.1008922,
        "lng": -119.8897642,
        "latestObsDt": "2023-08-20 11:45",
        "numSpeciesAllTime": 56
    },
    {
        "locId": "L15016057",
        "locName": "Cleve Creek Campground",
        "countryCode": "US",
        "subnational1Code": "US-NV",
        "subnational2Code": "US-NV-033",
        "lat": 39.214375,
        "lng": -114.542375,
        "latestObsDt": "2023-11-10 13:15",
        "numSpeciesAllTime": 42
    },
    {
        "locId": "L28520625",
        "locName": "Coal Creek Abandoned Ranch",
        "countryCode": "US",
        "subnational1Code": "US-NV",
        "subnational2Code": "US-NV-031",
        "lat": 39.8314926,
        "lng": -119.4277905,
        "latestObsDt": "2024-01-27 10:10",
        "numSpeciesAllTime": 11
    },
    {
        "locId": "L6994070",
        "locName": "Cold Creek, Cold Creek Ponds",
        "countryCode": "US",
        "subnational1Code": "US-NV",
        "subnational2Code": "US-NV-003",
        "lat": 36.4226119,
        "lng": -115.7317829,
        "latestObsDt": "2022-10-08 14:23",
        "numSpeciesAllTime": 29
    },
    {
        "locId": "L7130887",
        "locName": "Cold Springs Station",
        "countryCode": "US",
        "subnational1Code": "US-NV",
        "subnational2Code": "US-NV-001",
        "lat": 39.4137037,
        "lng": -117.8402932,
        "latestObsDt": "2023-09-24 10:56",
        "numSpeciesAllTime": 43
    },
    {
        "locId": "L2753168",
        "locName": "Cornerstone Park",
        "countryCode": "US",
        "subnational1Code": "US-NV",
        "subnational2Code": "US-NV-003",
        "lat": 36.0369429,
        "lng": -115.0544178,
        "latestObsDt": "2024-02-24 12:45",
        "numSpeciesAllTime": 200
    },
    {
        "locId": "L12969354",
        "locName": "Cory Canyon",
        "countryCode": "US",
        "subnational1Code": "US-NV",
        "subnational2Code": "US-NV-021",
        "lat": 38.4829329,
        "lng": -118.6824787,
        "latestObsDt": "2024-02-26 10:53",
        "numSpeciesAllTime": 118
    },
    {
        "locId": "L17252313",
        "locName": "Cosgrave Rest Area",
        "countryCode": "US",
        "subnational1Code": "US-NV",
        "subnational2Code": "US-NV-027",
        "lat": 40.789258,
        "lng": -117.9956156,
        "latestObsDt": "2023-12-19 16:11",
        "numSpeciesAllTime": 47
    },
    {
        "locId": "L2092109",
        "locName": "Cottonwood Canyon Park",
        "countryCode": "US",
        "subnational1Code": "US-NV",
        "subnational2Code": "US-NV-003",
        "lat": 36.1630024,
        "lng": -115.3248677,
        "latestObsDt": "2024-02-22 14:50",
        "numSpeciesAllTime": 66
    },
    {
        "locId": "L269361",
        "locName": "Cottonwood Park (Sparks)",
        "countryCode": "US",
        "subnational1Code": "US-NV",
        "subnational2Code": "US-NV-031",
        "lat": 39.5136427,
        "lng": -119.7296047,
        "latestObsDt": "2024-02-23 11:40",
        "numSpeciesAllTime": 135
    },
    {
        "locId": "L8204243",
        "locName": "Craig Ranch Regional Park",
        "countryCode": "US",
        "subnational1Code": "US-NV",
        "subnational2Code": "US-NV-003",
        "lat": 36.2449216,
        "lng": -115.1517116,
        "latestObsDt": "2024-02-17 07:42",
        "numSpeciesAllTime": 147
    },
    {
        "locId": "L3109793",
        "locName": "Crissie Caughlin Park",
        "countryCode": "US",
        "subnational1Code": "US-NV",
        "subnational2Code": "US-NV-031",
        "lat": 39.5109278,
        "lng": -119.8542309,
        "latestObsDt": "2024-02-21 13:53",
        "numSpeciesAllTime": 105
    },
    {
        "locId": "L475181",
        "locName": "Crittenden Reservoir",
        "countryCode": "US",
        "subnational1Code": "US-NV",
        "subnational2Code": "US-NV-007",
        "lat": 41.5260898,
        "lng": -114.170866,
        "latestObsDt": "2023-08-23 10:15",
        "numSpeciesAllTime": 53
    },
    {
        "locId": "L2865090",
        "locName": "Crystal Peak Park",
        "countryCode": "US",
        "subnational1Code": "US-NV",
        "subnational2Code": "US-NV-031",
        "lat": 39.5156616,
        "lng": -119.9964426,
        "latestObsDt": "2024-02-25 12:20",
        "numSpeciesAllTime": 167
    },
    {
        "locId": "L5762831",
        "locName": "Crystal Peak Park--South",
        "countryCode": "US",
        "subnational1Code": "US-NV",
        "subnational2Code": "US-NV-031",
        "lat": 39.5126899,
        "lng": -119.9968975,
        "latestObsDt": "2024-01-28 10:08",
        "numSpeciesAllTime": 94
    },
    {
        "locId": "L506145",
        "locName": "Crystal Playa",
        "countryCode": "US",
        "subnational1Code": "US-NV",
        "subnational2Code": "US-NV-023",
        "lat": 36.4740997,
        "lng": -116.2203312,
        "latestObsDt": "2023-03-31 10:32",
        "numSpeciesAllTime": 15
    },
    {
        "locId": "L456607",
        "locName": "Crystal Springs",
        "countryCode": "US",
        "subnational1Code": "US-NV",
        "subnational2Code": "US-NV-017",
        "lat": 37.5318247,
        "lng": -115.2330744,
        "latestObsDt": "2023-11-11 14:07",
        "numSpeciesAllTime": 142
    },
    {
        "locId": "L875750",
        "locName": "Currant ",
        "countryCode": "US",
        "subnational1Code": "US-NV",
        "subnational2Code": "US-NV-023",
        "lat": 38.7431722,
        "lng": -115.4735613,
        "latestObsDt": "2024-02-16 16:19",
        "numSpeciesAllTime": 57
    },
    {
        "locId": "L506053",
        "locName": "Damonte Ranch Wetlands",
        "countryCode": "US",
        "subnational1Code": "US-NV",
        "subnational2Code": "US-NV-031",
        "lat": 39.4275085,
        "lng": -119.7185326,
        "latestObsDt": "2024-02-25 09:17",
        "numSpeciesAllTime": 159
    },
    {
        "locId": "L3317907",
        "locName": "Damonte Ranch Wetlands--Carat Pond",
        "countryCode": "US",
        "subnational1Code": "US-NV",
        "subnational2Code": "US-NV-031",
        "lat": 39.4392772,
        "lng": -119.7194604,
        "latestObsDt": "2024-02-25 11:40",
        "numSpeciesAllTime": 98
    },
    {
        "locId": "L3192597",
        "locName": "Damonte Ranch Wetlands--Veterans Pkwy Lake and Wetlands",
        "countryCode": "US",
        "subnational1Code": "US-NV",
        "subnational2Code": "US-NV-031",
        "lat": 39.4202899,
        "lng": -119.7332203,
        "latestObsDt": "2024-02-25 10:24",
        "numSpeciesAllTime": 172
    },
    {
        "locId": "L476629",
        "locName": "Davis Creek Regional Park",
        "countryCode": "US",
        "subnational1Code": "US-NV",
        "subnational2Code": "US-NV-031",
        "lat": 39.3025076,
        "lng": -119.8342645,
        "latestObsDt": "2024-02-09 10:31",
        "numSpeciesAllTime": 181
    },
    {
        "locId": "L6017809",
        "locName": "Dayton State Park",
        "countryCode": "US",
        "subnational1Code": "US-NV",
        "subnational2Code": "US-NV-019",
        "lat": 39.249025,
        "lng": -119.5867217,
        "latestObsDt": "2023-09-18 10:13",
        "numSpeciesAllTime": 120
    },
    {
        "locId": "L2075896",
        "locName": "Dayton Valley Golf Course",
        "countryCode": "US",
        "subnational1Code": "US-NV",
        "subnational2Code": "US-NV-019",
        "lat": 39.2491047,
        "lng": -119.5473862,
        "latestObsDt": "2023-08-12 10:32",
        "numSpeciesAllTime": 67
    },
    {
        "locId": "L9923560",
        "locName": "Death Valley NP--Devils Hole",
        "countryCode": "US",
        "subnational1Code": "US-NV",
        "subnational2Code": "US-NV-023",
        "lat": 36.4253635,
        "lng": -116.2914337,
        "latestObsDt": "2024-02-24 12:33",
        "numSpeciesAllTime": 16
    },
    {
        "locId": "L7900402",
        "locName": "Del Prado Park",
        "countryCode": "US",
        "subnational1Code": "US-NV",
        "subnational2Code": "US-NV-003",
        "lat": 35.973772,
        "lng": -114.825783,
        "latestObsDt": "2023-02-05 09:34",
        "numSpeciesAllTime": 17
    },
    {
        "locId": "L7446562",
        "locName": "Delmar Valley--Poleline Road",
        "countryCode": "US",
        "subnational1Code": "US-NV",
        "subnational2Code": "US-NV-017",
        "lat": 37.6209371,
        "lng": -114.7835167,
        "latestObsDt": "2023-06-07 09:29",
        "numSpeciesAllTime": 29
    },
    {
        "locId": "L15178556",
        "locName": "Denio (town)",
        "countryCode": "US",
        "subnational1Code": "US-NV",
        "subnational2Code": "US-NV-013",
        "lat": 41.990066,
        "lng": -118.635444,
        "latestObsDt": "2023-10-01 11:44",
        "numSpeciesAllTime": 82
    },
    {
        "locId": "L15190127",
        "locName": "Denio Junction (town)",
        "countryCode": "US",
        "subnational1Code": "US-NV",
        "subnational2Code": "US-NV-013",
        "lat": 41.951768,
        "lng": -118.627252,
        "latestObsDt": "2023-10-27 15:52",
        "numSpeciesAllTime": 40
    },
    {
        "locId": "L3250276",
        "locName": "Desert Breeze Park",
        "countryCode": "US",
        "subnational1Code": "US-NV",
        "subnational2Code": "US-NV-003",
        "lat": 36.125128,
        "lng": -115.2767783,
        "latestObsDt": "2024-02-23 16:57",
        "numSpeciesAllTime": 38
    },
    {
        "locId": "L3757548",
        "locName": "Desert Creek Rd",
        "countryCode": "US",
        "subnational1Code": "US-NV",
        "subnational2Code": "US-NV-019",
        "lat": 38.7003986,
        "lng": -119.3213511,
        "latestObsDt": "2023-08-29 16:09",
        "numSpeciesAllTime": 68
    },
    {
        "locId": "L388904",
        "locName": "Desert NWR",
        "countryCode": "US",
        "subnational1Code": "US-NV",
        "subnational2Code": "US-NV-003",
        "lat": 36.5350192,
        "lng": -115.1408386,
        "latestObsDt": "2024-01-16 15:30",
        "numSpeciesAllTime": 187
    },
    {
        "locId": "L510053",
        "locName": "Desert NWR--Corn Creek (Entrance Rd.)",
        "countryCode": "US",
        "subnational1Code": "US-NV",
        "subnational2Code": "US-NV-003",
        "lat": 36.4326073,
        "lng": -115.3834725,
        "latestObsDt": "2024-02-24 11:25",
        "numSpeciesAllTime": 167
    },
    {
        "locId": "L168656",
        "locName": "Desert NWR--Corn Creek (Field Station)",
        "countryCode": "US",
        "subnational1Code": "US-NV",
        "subnational2Code": "US-NV-003",
        "lat": 36.438797,
        "lng": -115.359566,
        "latestObsDt": "2024-02-26 07:29",
        "numSpeciesAllTime": 313
    },
    {
        "locId": "L608514",
        "locName": "Desert NWR--Hidden Forest/Wiregrass Spring",
        "countryCode": "US",
        "subnational1Code": "US-NV",
        "subnational2Code": "US-NV-003",
        "lat": 36.6317501,
        "lng": -115.2064991,
        "latestObsDt": "2023-05-07 11:42",
        "numSpeciesAllTime": 103
    },
    {
        "locId": "L1832105",
        "locName": "Desert NWR--Mormon Well",
        "countryCode": "US",
        "subnational1Code": "US-NV",
        "subnational2Code": "US-NV-003",
        "lat": 36.6446516,
        "lng": -115.0970864,
        "latestObsDt": "2022-05-02 16:47",
        "numSpeciesAllTime": 41
    },
    {
        "locId": "L24550868",
        "locName": "Dewey Parker Reservoir",
        "countryCode": "US",
        "subnational1Code": "US-NV",
        "subnational2Code": "US-NV-031",
        "lat": 40.593394,
        "lng": -119.769501,
        "latestObsDt": "2024-02-25 12:05",
        "numSpeciesAllTime": 36
    },
    {
        "locId": "L3238235",
        "locName": "Diamond Creek Pond",
        "countryCode": "US",
        "subnational1Code": "US-NV",
        "subnational2Code": "US-NV-031",
        "lat": 39.44254,
        "lng": -119.7564054,
        "latestObsDt": "2024-02-24 07:34",
        "numSpeciesAllTime": 148
    },
    {
        "locId": "L9271798",
        "locName": "Dick Taylor Memorial Park",
        "countryCode": "US",
        "subnational1Code": "US-NV",
        "subnational2Code": "US-NV-031",
        "lat": 39.5413238,
        "lng": -119.8097169,
        "latestObsDt": "2023-12-16 14:59",
        "numSpeciesAllTime": 31
    },
    {
        "locId": "L3554814",
        "locName": "Dorostkar Park",
        "countryCode": "US",
        "subnational1Code": "US-NV",
        "subnational2Code": "US-NV-031",
        "lat": 39.5062277,
        "lng": -119.8861921,
        "latestObsDt": "2024-02-19 15:12",
        "numSpeciesAllTime": 99
    },
    {
        "locId": "L4684455",
        "locName": "Double Negative",
        "countryCode": "US",
        "subnational1Code": "US-NV",
        "subnational2Code": "US-NV-003",
        "lat": 36.6153554,
        "lng": -114.3445015,
        "latestObsDt": "2023-10-12 17:11",
        "numSpeciesAllTime": 2
    },
    {
        "locId": "L871218",
        "locName": "Double Row Trees",
        "countryCode": "US",
        "subnational1Code": "US-NV",
        "subnational2Code": "US-NV-009",
        "lat": 37.6528056,
        "lng": -118.0507994,
        "latestObsDt": "2023-09-12 17:51",
        "numSpeciesAllTime": 75
    },
    {
        "locId": "L6466167",
        "locName": "Dry Pond Connector Trail",
        "countryCode": "US",
        "subnational1Code": "US-NV",
        "subnational2Code": "US-NV-031",
        "lat": 39.3868476,
        "lng": -119.8597723,
        "latestObsDt": "2024-02-17 15:43",
        "numSpeciesAllTime": 62
    },
    {
        "locId": "L876913",
        "locName": "Dyer",
        "countryCode": "US",
        "subnational1Code": "US-NV",
        "subnational2Code": "US-NV-009",
        "lat": 37.6670195,
        "lng": -118.0654496,
        "latestObsDt": "2023-05-30 09:12",
        "numSpeciesAllTime": 170
    },
    {
        "locId": "L866930",
        "locName": "Dyer - White Mountain Ranch (aka Abandoned Ranch) (restricted access)",
        "countryCode": "US",
        "subnational1Code": "US-NV",
        "subnational2Code": "US-NV-009",
        "lat": 37.6836081,
        "lng": -118.082369,
        "latestObsDt": "2023-05-12 12:42",
        "numSpeciesAllTime": 147
    },
    {
        "locId": "L269385",
        "locName": "Dyer - White Mountain Ranch (aka Dyer Pond) (restricted access)",
        "countryCode": "US",
        "subnational1Code": "US-NV",
        "subnational2Code": "US-NV-009",
        "lat": 37.6792012,
        "lng": -118.0813122,
        "latestObsDt": "2023-10-04 11:28",
        "numSpeciesAllTime": 202
    },
    {
        "locId": "L269381",
        "locName": "Dyer - White Mountain Ranch (former Circle L Ranch) (restricted access)",
        "countryCode": "US",
        "subnational1Code": "US-NV",
        "subnational2Code": "US-NV-009",
        "lat": 37.7227063,
        "lng": -118.0844665,
        "latestObsDt": "2021-09-20 13:09",
        "numSpeciesAllTime": 196
    },
    {
        "locId": "L866927",
        "locName": "Dyer-Arlemont Ranch (restricted access)",
        "countryCode": "US",
        "subnational1Code": "US-NV",
        "subnational2Code": "US-NV-009",
        "lat": 37.8241414,
        "lng": -118.0778468,
        "latestObsDt": "2023-10-04 13:49",
        "numSpeciesAllTime": 239
    },
    {
        "locId": "L902458",
        "locName": "Echo Canyon SP",
        "countryCode": "US",
        "subnational1Code": "US-NV",
        "subnational2Code": "US-NV-017",
        "lat": 37.9103462,
        "lng": -114.2672539,
        "latestObsDt": "2023-10-08 14:27",
        "numSpeciesAllTime": 135
    },
    {
        "locId": "L1786750",
        "locName": "El Dorado Dry Lake",
        "countryCode": "US",
        "subnational1Code": "US-NV",
        "subnational2Code": "US-NV-003",
        "lat": 35.8841151,
        "lng": -114.927879,
        "latestObsDt": "2024-02-21 17:00",
        "numSpeciesAllTime": 73
    },
    {
        "locId": "L6134696",
        "locName": "Elko -- Errecart Blvd Pond",
        "countryCode": "US",
        "subnational1Code": "US-NV",
        "subnational2Code": "US-NV-007",
        "lat": 40.824549,
        "lng": -115.767573,
        "latestObsDt": "2024-02-17 08:04",
        "numSpeciesAllTime": 76
    },
    {
        "locId": "L869896",
        "locName": "Elko City Cemetery",
        "countryCode": "US",
        "subnational1Code": "US-NV",
        "subnational2Code": "US-NV-007",
        "lat": 40.8392646,
        "lng": -115.7648224,
        "latestObsDt": "2024-02-22 14:58",
        "numSpeciesAllTime": 60
    },
    {
        "locId": "L6051272",
        "locName": "Elko--Main City Park",
        "countryCode": "US",
        "subnational1Code": "US-NV",
        "subnational2Code": "US-NV-007",
        "lat": 40.8418863,
        "lng": -115.754284,
        "latestObsDt": "2024-02-18 15:44",
        "numSpeciesAllTime": 64
    },
    {
        "locId": "L6143552",
        "locName": "Elko--West Elko Sage Flats",
        "countryCode": "US",
        "subnational1Code": "US-NV",
        "subnational2Code": "US-NV-007",
        "lat": 40.8271247,
        "lng": -115.8231068,
        "latestObsDt": "2020-06-22 20:10",
        "numSpeciesAllTime": 10
    },
    {
        "locId": "L876280",
        "locName": "Ely (town)",
        "countryCode": "US",
        "subnational1Code": "US-NV",
        "subnational2Code": "US-NV-033",
        "lat": 39.2484649,
        "lng": -114.8880672,
        "latestObsDt": "2024-02-16 15:39",
        "numSpeciesAllTime": 126
    },
    {
        "locId": "L4151764",
        "locName": "Empire Ranch",
        "countryCode": "US",
        "subnational1Code": "US-NV",
        "subnational2Code": "US-NV-510",
        "lat": 39.1750969,
        "lng": -119.7086606,
        "latestObsDt": "2024-01-09 19:13",
        "numSpeciesAllTime": 98
    },
    {
        "locId": "L4175502",
        "locName": "Empire Ranch--Carson River Trail",
        "countryCode": "US",
        "subnational1Code": "US-NV",
        "subnational2Code": "US-NV-510",
        "lat": 39.1810141,
        "lng": -119.708768,
        "latestObsDt": "2023-12-29 09:15",
        "numSpeciesAllTime": 165
    },
    {
        "locId": "L8249205",
        "locName": "Empire Ranch--Golf Course",
        "countryCode": "US",
        "subnational1Code": "US-NV",
        "subnational2Code": "US-NV-510",
        "lat": 39.1763482,
        "lng": -119.7135425,
        "latestObsDt": "2023-12-17 13:18",
        "numSpeciesAllTime": 43
    },
    {
        "locId": "L8136617",
        "locName": "Estelle Neal Park",
        "countryCode": "US",
        "subnational1Code": "US-NV",
        "subnational2Code": "US-NV-003",
        "lat": 36.2700704,
        "lng": -115.2393069,
        "latestObsDt": "2023-10-15 08:11",
        "numSpeciesAllTime": 18
    },
    {
        "locId": "L357169",
        "locName": "Ethel M Cactus Garden",
        "countryCode": "US",
        "subnational1Code": "US-NV",
        "subnational2Code": "US-NV-003",
        "lat": 36.074205,
        "lng": -115.071138,
        "latestObsDt": "2024-01-27 16:13",
        "numSpeciesAllTime": 43
    },
    {
        "locId": "L869907",
        "locName": "Eureka (town)",
        "countryCode": "US",
        "subnational1Code": "US-NV",
        "subnational2Code": "US-NV-011",
        "lat": 39.511383,
        "lng": -115.9605485,
        "latestObsDt": "2024-02-25 08:13",
        "numSpeciesAllTime": 106
    },
    {
        "locId": "L879119",
        "locName": "Fairgrounds and Park",
        "countryCode": "US",
        "subnational1Code": "US-NV",
        "subnational2Code": "US-NV-009",
        "lat": 37.6949891,
        "lng": -118.0916548,
        "latestObsDt": "2023-10-04 12:49",
        "numSpeciesAllTime": 75
    },
    {
        "locId": "L1100058",
        "locName": "Fallon NWR",
        "countryCode": "US",
        "subnational1Code": "US-NV",
        "subnational2Code": "US-NV-001",
        "lat": 39.7653386,
        "lng": -118.602872,
        "latestObsDt": "2022-02-19 09:06",
        "numSpeciesAllTime": 89
    },
    {
        "locId": "L12427673",
        "locName": "Fallon Wetlands Nature Trail",
        "countryCode": "US",
        "subnational1Code": "US-NV",
        "subnational2Code": "US-NV-001",
        "lat": 39.4529259,
        "lng": -118.7304186,
        "latestObsDt": "2024-02-18 07:50",
        "numSpeciesAllTime": 97
    },
    {
        "locId": "L385244",
        "locName": "Fallon--Big Soda Lake",
        "countryCode": "US",
        "subnational1Code": "US-NV",
        "subnational2Code": "US-NV-001",
        "lat": 39.5198005,
        "lng": -118.8839149,
        "latestObsDt": "2024-02-11 15:50",
        "numSpeciesAllTime": 177
    },
    {
        "locId": "L5260795",
        "locName": "Fay-Luther Trail--trailhead only (NV)",
        "countryCode": "US",
        "subnational1Code": "US-NV",
        "subnational2Code": "US-NV-005",
        "lat": 38.8702115,
        "lng": -119.8107147,
        "latestObsDt": "2022-10-24 10:41",
        "numSpeciesAllTime": 11
    },
    {
        "locId": "L3893467",
        "locName": "Ferguson Springs",
        "countryCode": "US",
        "subnational1Code": "US-NV",
        "subnational2Code": "US-NV-007",
        "lat": 40.4301583,
        "lng": -114.1847277,
        "latestObsDt": "2023-10-09 08:13",
        "numSpeciesAllTime": 129
    },
    {
        "locId": "L9646495",
        "locName": "Fernley WMA--Fernley Reservoir Number One",
        "countryCode": "US",
        "subnational1Code": "US-NV",
        "subnational2Code": "US-NV-019",
        "lat": 39.6199463,
        "lng": -119.1301767,
        "latestObsDt": "2023-09-27 09:30",
        "numSpeciesAllTime": 58
    },
    {
        "locId": "L861460",
        "locName": "Firehouse Pond (Rosewood Lakes)",
        "countryCode": "US",
        "subnational1Code": "US-NV",
        "subnational2Code": "US-NV-031",
        "lat": 39.4943712,
        "lng": -119.7271585,
        "latestObsDt": "2024-02-25 15:00",
        "numSpeciesAllTime": 141
    },
    {
        "locId": "L2171975",
        "locName": "Fish Lake",
        "countryCode": "US",
        "subnational1Code": "US-NV",
        "subnational2Code": "US-NV-009",
        "lat": 37.7348831,
        "lng": -118.0515289,
        "latestObsDt": "2023-10-04 13:17",
        "numSpeciesAllTime": 124
    },
    {
        "locId": "L3403942",
        "locName": "Fishermans Park",
        "countryCode": "US",
        "subnational1Code": "US-NV",
        "subnational2Code": "US-NV-031",
        "lat": 39.5309098,
        "lng": -119.7817683,
        "latestObsDt": "2024-02-24 14:31",
        "numSpeciesAllTime": 72
    },
    {
        "locId": "L9700111",
        "locName": "Fivemile Spring (access unknown)",
        "countryCode": "US",
        "subnational1Code": "US-NV",
        "subnational2Code": "US-NV-023",
        "lat": 38.1432452,
        "lng": -116.6401484,
        "latestObsDt": "2019-07-19 16:35",
        "numSpeciesAllTime": 23
    },
    {
        "locId": "L487596",
        "locName": "Flamingo Wash",
        "countryCode": "US",
        "subnational1Code": "US-NV",
        "subnational2Code": "US-NV-003",
        "lat": 36.142848,
        "lng": -115.0822592,
        "latestObsDt": "2022-08-25 16:00",
        "numSpeciesAllTime": 54
    },
    {
        "locId": "L2875361",
        "locName": "Fletcher Spring (Mineral Co.)",
        "countryCode": "US",
        "subnational1Code": "US-NV",
        "subnational2Code": "US-NV-021",
        "lat": 38.3580394,
        "lng": -118.896997,
        "latestObsDt": "2024-01-20 12:18",
        "numSpeciesAllTime": 126
    },
    {
        "locId": "L10228303",
        "locName": "Fly Geyser (Restricted Access)",
        "countryCode": "US",
        "subnational1Code": "US-NV",
        "subnational2Code": "US-NV-031",
        "lat": 40.8588398,
        "lng": -119.3335921,
        "latestObsDt": "2024-02-19 10:53",
        "numSpeciesAllTime": 128
    },
    {
        "locId": "L7938953",
        "locName": "Fort Churchill SP",
        "countryCode": "US",
        "subnational1Code": "US-NV",
        "subnational2Code": "US-NV-019",
        "lat": 39.2895598,
        "lng": -119.2771459,
        "latestObsDt": "2024-02-24 07:16",
        "numSpeciesAllTime": 113
    },
    {
        "locId": "L7900337",
        "locName": "Frank Crowe Park",
        "countryCode": "US",
        "subnational1Code": "US-NV",
        "subnational2Code": "US-NV-003",
        "lat": 35.9761328,
        "lng": -114.8397203,
        "latestObsDt": "2024-02-17 13:33",
        "numSpeciesAllTime": 37
    },
    {
        "locId": "L3107694",
        "locName": "Franklin Lake",
        "countryCode": "US",
        "subnational1Code": "US-NV",
        "subnational2Code": "US-NV-007",
        "lat": 40.3494223,
        "lng": -115.409317,
        "latestObsDt": "2023-07-04 10:00",
        "numSpeciesAllTime": 121
    },
    {
        "locId": "L3125528",
        "locName": "Fuji Park",
        "countryCode": "US",
        "subnational1Code": "US-NV",
        "subnational2Code": "US-NV-510",
        "lat": 39.1149533,
        "lng": -119.7769797,
        "latestObsDt": "2024-02-15 07:58",
        "numSpeciesAllTime": 75
    },
    {
        "locId": "L3437738",
        "locName": "GSR Lake Golf Driving Range/Reservoir",
        "countryCode": "US",
        "subnational1Code": "US-NV",
        "subnational2Code": "US-NV-031",
        "lat": 39.5201978,
        "lng": -119.7772408,
        "latestObsDt": "2024-02-03 13:34",
        "numSpeciesAllTime": 91
    },
    {
        "locId": "L773711",
        "locName": "Gabbs WWTP",
        "countryCode": "US",
        "subnational1Code": "US-NV",
        "subnational2Code": "US-NV-023",
        "lat": 38.8673797,
        "lng": -117.940464,
        "latestObsDt": "2023-06-17 12:18",
        "numSpeciesAllTime": 28
    },
    {
        "locId": "L612544",
        "locName": "Galena Creek County Park",
        "countryCode": "US",
        "subnational1Code": "US-NV",
        "subnational2Code": "US-NV-031",
        "lat": 39.3540167,
        "lng": -119.8565765,
        "latestObsDt": "2024-01-21 12:01",
        "numSpeciesAllTime": 124
    },
    {
        "locId": "L6026222",
        "locName": "Galena Creek County Park--Bearmat Picnic Area",
        "countryCode": "US",
        "subnational1Code": "US-NV",
        "subnational2Code": "US-NV-031",
        "lat": 39.3594327,
        "lng": -119.8582958,
        "latestObsDt": "2023-05-21 10:57",
        "numSpeciesAllTime": 48
    },
    {
        "locId": "L6474575",
        "locName": "Galena Creek County Park--Nature Trail and Bitterbrush Trail",
        "countryCode": "US",
        "subnational1Code": "US-NV",
        "subnational2Code": "US-NV-031",
        "lat": 39.3548129,
        "lng": -119.8585546,
        "latestObsDt": "2023-12-17 07:45",
        "numSpeciesAllTime": 76
    },
    {
        "locId": "L4931097",
        "locName": "Galena Creek County Park--South (Pond and Camp WeChMe area)",
        "countryCode": "US",
        "subnational1Code": "US-NV",
        "subnational2Code": "US-NV-031",
        "lat": 39.3522849,
        "lng": -119.8598997,
        "latestObsDt": "2023-10-29 09:56",
        "numSpeciesAllTime": 26
    },
    {
        "locId": "L3285437",
        "locName": "Galena Creek Visitor Center",
        "countryCode": "US",
        "subnational1Code": "US-NV",
        "subnational2Code": "US-NV-031",
        "lat": 39.3639038,
        "lng": -119.8521146,
        "latestObsDt": "2023-06-03 09:33",
        "numSpeciesAllTime": 82
    },
    {
        "locId": "L7812737",
        "locName": "Genoa (town)",
        "countryCode": "US",
        "subnational1Code": "US-NV",
        "subnational2Code": "US-NV-005",
        "lat": 39.0039169,
        "lng": -119.8466747,
        "latestObsDt": "2024-02-03 13:38",
        "numSpeciesAllTime": 82
    },
    {
        "locId": "L2346660",
        "locName": "Genoa Canyon Trail",
        "countryCode": "US",
        "subnational1Code": "US-NV",
        "subnational2Code": "US-NV-005",
        "lat": 39.0007971,
        "lng": -119.8496711,
        "latestObsDt": "2023-07-07 05:20",
        "numSpeciesAllTime": 93
    },
    {
        "locId": "L3576192",
        "locName": "Genoa Vista Trail--Pond",
        "countryCode": "US",
        "subnational1Code": "US-NV",
        "subnational2Code": "US-NV-005",
        "lat": 38.99264,
        "lng": -119.8385431,
        "latestObsDt": "2024-01-27 15:37",
        "numSpeciesAllTime": 83
    },
    {
        "locId": "L4536546",
        "locName": "Genoa Vista Trail--South (north from Walley's Hot Springs area)",
        "countryCode": "US",
        "subnational1Code": "US-NV",
        "subnational2Code": "US-NV-005",
        "lat": 38.9859309,
        "lng": -119.8330725,
        "latestObsDt": "2023-10-13 13:05",
        "numSpeciesAllTime": 118
    },
    {
        "locId": "L6963055",
        "locName": "Glendale",
        "countryCode": "US",
        "subnational1Code": "US-NV",
        "subnational2Code": "US-NV-003",
        "lat": 36.6659878,
        "lng": -114.5696273,
        "latestObsDt": "2024-02-11 08:43",
        "numSpeciesAllTime": 49
    },
    {
        "locId": "L10572715",
        "locName": "Glendale Park",
        "countryCode": "US",
        "subnational1Code": "US-NV",
        "subnational2Code": "US-NV-031",
        "lat": 39.517885,
        "lng": -119.7487833,
        "latestObsDt": "2024-02-02 13:21",
        "numSpeciesAllTime": 80
    },
    {
        "locId": "L27291958",
        "locName": "Godey's Gap Riparian Area",
        "countryCode": "US",
        "subnational1Code": "US-NV",
        "subnational2Code": "US-NV-031",
        "lat": 40.6598142,
        "lng": -119.3905908,
        "latestObsDt": "2023-11-11 14:13",
        "numSpeciesAllTime": 52
    },
    {
        "locId": "L4812709",
        "locName": "Gold Butte NM--Horse Spring",
        "countryCode": "US",
        "subnational1Code": "US-NV",
        "subnational2Code": "US-NV-003",
        "lat": 36.34906,
        "lng": -114.129899,
        "latestObsDt": "2023-03-05 08:02",
        "numSpeciesAllTime": 34
    },
    {
        "locId": "L3136499",
        "locName": "Gold Butte NM--Little Finland",
        "countryCode": "US",
        "subnational1Code": "US-NV",
        "subnational2Code": "US-NV-003",
        "lat": 36.4465579,
        "lng": -114.2125395,
        "latestObsDt": "2022-02-13 13:52",
        "numSpeciesAllTime": 28
    },
    {
        "locId": "L5648740",
        "locName": "Gold Butte NM--Red Bluff Spring",
        "countryCode": "US",
        "subnational1Code": "US-NV",
        "subnational2Code": "US-NV-003",
        "lat": 36.461326,
        "lng": -114.253135,
        "latestObsDt": "2019-06-06 19:08",
        "numSpeciesAllTime": 17
    },
    {
        "locId": "L4681897",
        "locName": "Gold Butte NM--Townsite (downtown)",
        "countryCode": "US",
        "subnational1Code": "US-NV",
        "subnational2Code": "US-NV-003",
        "lat": 36.280242,
        "lng": -114.199777,
        "latestObsDt": "2022-10-16 07:00",
        "numSpeciesAllTime": 33
    },
    {
        "locId": "L6278128",
        "locName": "Gold Butte NM--Whitney Pocket",
        "countryCode": "US",
        "subnational1Code": "US-NV",
        "subnational2Code": "US-NV-003",
        "lat": 36.5234141,
        "lng": -114.1401279,
        "latestObsDt": "2023-06-30 03:53",
        "numSpeciesAllTime": 58
    },
    {
        "locId": "L3452536",
        "locName": "Gold Butte--Hwy 170 at Virgin River Bridge",
        "countryCode": "US",
        "subnational1Code": "US-NV",
        "subnational2Code": "US-NV-003",
        "lat": 36.7335189,
        "lng": -114.2194247,
        "latestObsDt": "2023-12-09 12:18",
        "numSpeciesAllTime": 99
    },
    {
        "locId": "L2714075",
        "locName": "Gold Butte--Virgin Mts",
        "countryCode": "US",
        "subnational1Code": "US-NV",
        "subnational2Code": "US-NV-003",
        "lat": 36.5984886,
        "lng": -114.0996909,
        "latestObsDt": "2023-06-02 05:40",
        "numSpeciesAllTime": 74
    },
    {
        "locId": "L10523488",
        "locName": "Golden Eagle Regional Park area",
        "countryCode": "US",
        "subnational1Code": "US-NV",
        "subnational2Code": "US-NV-031",
        "lat": 39.599985,
        "lng": -119.6697071,
        "latestObsDt": "2023-05-13 08:10",
        "numSpeciesAllTime": 5
    },
    {
        "locId": "L9715560",
        "locName": "Golden Eagle Regional Park area--Pah Rah Interpretive Trail",
        "countryCode": "US",
        "subnational1Code": "US-NV",
        "subnational2Code": "US-NV-031",
        "lat": 39.5957882,
        "lng": -119.6682849,
        "latestObsDt": "2023-02-19 11:17",
        "numSpeciesAllTime": 16
    },
    {
        "locId": "L8864631",
        "locName": "Goodsprings",
        "countryCode": "US",
        "subnational1Code": "US-NV",
        "subnational2Code": "US-NV-003",
        "lat": 35.8343254,
        "lng": -115.4349544,
        "latestObsDt": "2023-11-09 13:41",
        "numSpeciesAllTime": 33
    },
    {
        "locId": "L63",
        "locName": "Goshute Mountains",
        "countryCode": "US",
        "subnational1Code": "US-NV",
        "subnational2Code": "US-NV-007",
        "lat": 40.416668,
        "lng": -114.26667,
        "latestObsDt": "2022-08-06 13:20",
        "numSpeciesAllTime": 54
    },
    {
        "locId": "L808562",
        "locName": "Goshutes Hawkwatch",
        "countryCode": "US",
        "subnational1Code": "US-NV",
        "subnational2Code": "US-NV-007",
        "lat": 40.4253985,
        "lng": -114.2709489,
        "latestObsDt": "2023-11-05 06:53",
        "numSpeciesAllTime": 148
    },
    {
        "locId": "L510469",
        "locName": "Great Basin NP",
        "countryCode": "US",
        "subnational1Code": "US-NV",
        "subnational2Code": "US-NV-033",
        "lat": 39.0057537,
        "lng": -114.2191243,
        "latestObsDt": "2024-02-24 14:50",
        "numSpeciesAllTime": 170
    },
    {
        "locId": "L16079289",
        "locName": "Great Basin NP--Alpine Lakes Trails",
        "countryCode": "US",
        "subnational1Code": "US-NV",
        "subnational2Code": "US-NV-033",
        "lat": 39.0070737,
        "lng": -114.3137622,
        "latestObsDt": "2023-10-14 10:09",
        "numSpeciesAllTime": 63
    },
    {
        "locId": "L779087",
        "locName": "Great Basin NP--Baker Campground",
        "countryCode": "US",
        "subnational1Code": "US-NV",
        "subnational2Code": "US-NV-033",
        "lat": 38.9867174,
        "lng": -114.2390263,
        "latestObsDt": "2023-10-07 12:16",
        "numSpeciesAllTime": 99
    },
    {
        "locId": "L7466033",
        "locName": "Great Basin NP--Baker Lake Trail",
        "countryCode": "US",
        "subnational1Code": "US-NV",
        "subnational2Code": "US-NV-033",
        "lat": 38.9751008,
        "lng": -114.2498151,
        "latestObsDt": "2023-10-15 09:23",
        "numSpeciesAllTime": 60
    },
    {
        "locId": "L3722246",
        "locName": "Great Basin NP--Grey Cliffs Campground",
        "countryCode": "US",
        "subnational1Code": "US-NV",
        "subnational2Code": "US-NV-033",
        "lat": 38.9899697,
        "lng": -114.2240381,
        "latestObsDt": "2023-10-14 13:59",
        "numSpeciesAllTime": 83
    },
    {
        "locId": "L589672",
        "locName": "Great Basin NP--Lexington Arch",
        "countryCode": "US",
        "subnational1Code": "US-NV",
        "subnational2Code": "US-NV-033",
        "lat": 38.8436853,
        "lng": -114.2079449,
        "latestObsDt": "2022-08-27 12:30",
        "numSpeciesAllTime": 63
    },
    {
        "locId": "L6240468",
        "locName": "Great Basin NP--Lower Lehman Creek Campground",
        "countryCode": "US",
        "subnational1Code": "US-NV",
        "subnational2Code": "US-NV-033",
        "lat": 39.0171998,
        "lng": -114.2383504,
        "latestObsDt": "2024-02-16 20:05",
        "numSpeciesAllTime": 68
    },
    {
        "locId": "L7466062",
        "locName": "Great Basin NP--Osceola Ditch Trail",
        "countryCode": "US",
        "subnational1Code": "US-NV",
        "subnational2Code": "US-NV-033",
        "lat": 39.0286231,
        "lng": -114.2670078,
        "latestObsDt": "2023-10-30 11:25",
        "numSpeciesAllTime": 42
    },
    {
        "locId": "L5804523",
        "locName": "Great Basin NP--Pole Canyon",
        "countryCode": "US",
        "subnational1Code": "US-NV",
        "subnational2Code": "US-NV-033",
        "lat": 38.9813299,
        "lng": -114.2236197,
        "latestObsDt": "2024-02-17 13:31",
        "numSpeciesAllTime": 58
    },
    {
        "locId": "L459161",
        "locName": "Great Basin NP--Snake Creek",
        "countryCode": "US",
        "subnational1Code": "US-NV",
        "subnational2Code": "US-NV-033",
        "lat": 38.9126578,
        "lng": -114.1727543,
        "latestObsDt": "2023-10-07 11:13",
        "numSpeciesAllTime": 120
    },
    {
        "locId": "L454114",
        "locName": "Great Basin NP--Stella Lake",
        "countryCode": "US",
        "subnational1Code": "US-NV",
        "subnational2Code": "US-NV-033",
        "lat": 39.0060372,
        "lng": -114.3188596,
        "latestObsDt": "2023-09-23 11:58",
        "numSpeciesAllTime": 65
    },
    {
        "locId": "L870372",
        "locName": "Great Basin NP--Strawberry Creek",
        "countryCode": "US",
        "subnational1Code": "US-NV",
        "subnational2Code": "US-NV-033",
        "lat": 39.0525183,
        "lng": -114.3123901,
        "latestObsDt": "2023-10-19 09:16",
        "numSpeciesAllTime": 105
    },
    {
        "locId": "L4617749",
        "locName": "Great Basin NP--Upper Lehman Campground",
        "countryCode": "US",
        "subnational1Code": "US-NV",
        "subnational2Code": "US-NV-033",
        "lat": 39.0134152,
        "lng": -114.2504096,
        "latestObsDt": "2024-02-17 11:41",
        "numSpeciesAllTime": 100
    },
    {
        "locId": "L4631201",
        "locName": "Great Basin NP--Upper Lehman Creek Trail",
        "countryCode": "US",
        "subnational1Code": "US-NV",
        "subnational2Code": "US-NV-033",
        "lat": 39.0156493,
        "lng": -114.2735624,
        "latestObsDt": "2023-09-05 17:53",
        "numSpeciesAllTime": 79
    },
    {
        "locId": "L870367",
        "locName": "Great Basin NP--Wheeler Peak Campground and Trails",
        "countryCode": "US",
        "subnational1Code": "US-NV",
        "subnational2Code": "US-NV-033",
        "lat": 39.0110143,
        "lng": -114.3027878,
        "latestObsDt": "2023-10-30 12:22",
        "numSpeciesAllTime": 119
    },
    {
        "locId": "L582605",
        "locName": "Great Basin NP--Wheeler Peak Trail",
        "countryCode": "US",
        "subnational1Code": "US-NV",
        "subnational2Code": "US-NV-033",
        "lat": 39.0162162,
        "lng": -114.3047833,
        "latestObsDt": "2023-10-13 06:30",
        "numSpeciesAllTime": 71
    },
    {
        "locId": "L2922472",
        "locName": "Great Basin Visitor Center",
        "countryCode": "US",
        "subnational1Code": "US-NV",
        "subnational2Code": "US-NV-033",
        "lat": 39.0148771,
        "lng": -114.1265398,
        "latestObsDt": "2024-01-15 10:07",
        "numSpeciesAllTime": 91
    },
    {
        "locId": "L7623480",
        "locName": "Groves Lake",
        "countryCode": "US",
        "subnational1Code": "US-NV",
        "subnational2Code": "US-NV-015",
        "lat": 39.2407173,
        "lng": -117.1648812,
        "latestObsDt": "2023-07-29 15:39",
        "numSpeciesAllTime": 52
    },
    {
        "locId": "L13008475",
        "locName": "HUTTON'S VIREO stake-out 2020 - Lakeview Apartments",
        "countryCode": "US",
        "subnational1Code": "US-NV",
        "subnational2Code": "US-NV-031",
        "lat": 39.4966777,
        "lng": -119.805929,
        "latestObsDt": "2022-03-10 14:12",
        "numSpeciesAllTime": 15
    },
    {
        "locId": "L866258",
        "locName": "Halleck",
        "countryCode": "US",
        "subnational1Code": "US-NV",
        "subnational2Code": "US-NV-007",
        "lat": 40.9502144,
        "lng": -115.4486275,
        "latestObsDt": "2023-10-07 11:00",
        "numSpeciesAllTime": 114
    },
    {
        "locId": "L4991326",
        "locName": "Harley Davidson Pond",
        "countryCode": "US",
        "subnational1Code": "US-NV",
        "subnational2Code": "US-NV-510",
        "lat": 39.1866972,
        "lng": -119.7454834,
        "latestObsDt": "2023-10-03 13:31",
        "numSpeciesAllTime": 39
    },
    {
        "locId": "L3556249",
        "locName": "Harmon Reservoir",
        "countryCode": "US",
        "subnational1Code": "US-NV",
        "subnational2Code": "US-NV-001",
        "lat": 39.4732392,
        "lng": -118.6377901,
        "latestObsDt": "2024-02-11 13:00",
        "numSpeciesAllTime": 195
    },
    {
        "locId": "L17071015",
        "locName": "Harris sparrow stakeout - private residence",
        "countryCode": "US",
        "subnational1Code": "US-NV",
        "subnational2Code": "US-NV-031",
        "lat": 39.663106,
        "lng": -119.919035,
        "latestObsDt": "2021-12-11 11:00",
        "numSpeciesAllTime": 19
    },
    {
        "locId": "L22015634",
        "locName": "Hatchery Saddle Point",
        "countryCode": "US",
        "subnational1Code": "US-NV",
        "subnational2Code": "US-NV-003",
        "lat": 36.0823236,
        "lng": -114.800477,
        "latestObsDt": "2024-02-23 09:50",
        "numSpeciesAllTime": 19
    },
    {
        "locId": "L4669557",
        "locName": "Hawthorne",
        "countryCode": "US",
        "subnational1Code": "US-NV",
        "subnational2Code": "US-NV-021",
        "lat": 38.5348624,
        "lng": -118.625232,
        "latestObsDt": "2024-02-19 15:51",
        "numSpeciesAllTime": 89
    },
    {
        "locId": "L5480664",
        "locName": "Heavenly Mountain Resort (NV)",
        "countryCode": "US",
        "subnational1Code": "US-NV",
        "subnational2Code": "US-NV-005",
        "lat": 38.9434047,
        "lng": -119.8972321,
        "latestObsDt": "2024-02-15 09:07",
        "numSpeciesAllTime": 49
    },
    {
        "locId": "L209342",
        "locName": "Henderson Bird Viewing Preserve",
        "countryCode": "US",
        "subnational1Code": "US-NV",
        "subnational2Code": "US-NV-003",
        "lat": 36.0749791,
        "lng": -115.0021416,
        "latestObsDt": "2024-02-26 09:41",
        "numSpeciesAllTime": 317
    },
    {
        "locId": "L7324374",
        "locName": "Henderson, Wastewater Plant",
        "countryCode": "US",
        "subnational1Code": "US-NV",
        "subnational2Code": "US-NV-003",
        "lat": 36.0512502,
        "lng": -115.0046039,
        "latestObsDt": "2022-12-29 15:39",
        "numSpeciesAllTime": 131
    },
    {
        "locId": "L11674217",
        "locName": "Hendry's Creek Trail",
        "countryCode": "US",
        "subnational1Code": "US-NV",
        "subnational2Code": "US-NV-033",
        "lat": 39.210292,
        "lng": -114.079764,
        "latestObsDt": "2023-09-16 08:03",
        "numSpeciesAllTime": 21
    },
    {
        "locId": "L1085254",
        "locName": "Hickison Petroglyph Recreation Area",
        "countryCode": "US",
        "subnational1Code": "US-NV",
        "subnational2Code": "US-NV-015",
        "lat": 39.4493503,
        "lng": -116.7517519,
        "latestObsDt": "2023-10-16 09:29",
        "numSpeciesAllTime": 66
    },
    {
        "locId": "L3754649",
        "locName": "Hidden Canyon Ranch Bed & Breakfast",
        "countryCode": "US",
        "subnational1Code": "US-NV",
        "subnational2Code": "US-NV-033",
        "lat": 38.8762088,
        "lng": -114.1168571,
        "latestObsDt": "2023-10-13 06:50",
        "numSpeciesAllTime": 92
    },
    {
        "locId": "L474334",
        "locName": "Hidden Valley Dairy Farm",
        "countryCode": "US",
        "subnational1Code": "US-NV",
        "subnational2Code": "US-NV-003",
        "lat": 36.6524107,
        "lng": -114.6140099,
        "latestObsDt": "2024-02-21 17:17",
        "numSpeciesAllTime": 131
    },
    {
        "locId": "L21729670",
        "locName": "Hidden Valley Golf Course (limited access)",
        "countryCode": "US",
        "subnational1Code": "US-NV",
        "subnational2Code": "US-NV-031",
        "lat": 39.4845347,
        "lng": -119.7290426,
        "latestObsDt": "2024-02-18 12:44",
        "numSpeciesAllTime": 67
    },
    {
        "locId": "L6522479",
        "locName": "Hidden Valley Regional Park (Washoe Co.)",
        "countryCode": "US",
        "subnational1Code": "US-NV",
        "subnational2Code": "US-NV-031",
        "lat": 39.4860661,
        "lng": -119.7109871,
        "latestObsDt": "2024-02-17 11:56",
        "numSpeciesAllTime": 85
    },
    {
        "locId": "L3107275",
        "locName": "High Rock Lake",
        "countryCode": "US",
        "subnational1Code": "US-NV",
        "subnational2Code": "US-NV-013",
        "lat": 41.2837405,
        "lng": -119.2806244,
        "latestObsDt": "2023-06-19 06:40",
        "numSpeciesAllTime": 37
    },
    {
        "locId": "L980172",
        "locName": "Hiko Springs",
        "countryCode": "US",
        "subnational1Code": "US-NV",
        "subnational2Code": "US-NV-003",
        "lat": 35.1691733,
        "lng": -114.6796542,
        "latestObsDt": "2023-12-24 09:45",
        "numSpeciesAllTime": 70
    },
    {
        "locId": "L1123369",
        "locName": "Hobart Creek Reservoir",
        "countryCode": "US",
        "subnational1Code": "US-NV",
        "subnational2Code": "US-NV-031",
        "lat": 39.1936156,
        "lng": -119.8657322,
        "latestObsDt": "2022-10-20 07:25",
        "numSpeciesAllTime": 72
    },
    {
        "locId": "L11191924",
        "locName": "Hobart Reservoir Trail",
        "countryCode": "US",
        "subnational1Code": "US-NV",
        "subnational2Code": "US-NV-510",
        "lat": 39.2038696,
        "lng": -119.8175003
    },
    {
        "locId": "L18079257",
        "locName": "Hoge Road Trailhead nearby trails",
        "countryCode": "US",
        "subnational1Code": "US-NV",
        "subnational2Code": "US-NV-031",
        "lat": 39.5730917,
        "lng": -119.8466915,
        "latestObsDt": "2023-12-03 09:52",
        "numSpeciesAllTime": 45
    },
    {
        "locId": "L4708796",
        "locName": "Huffaker Hills Reservoir",
        "countryCode": "US",
        "subnational1Code": "US-NV",
        "subnational2Code": "US-NV-031",
        "lat": 39.4646734,
        "lng": -119.7469102,
        "latestObsDt": "2024-02-24 08:58",
        "numSpeciesAllTime": 83
    },
    {
        "locId": "L4714439",
        "locName": "Huffaker Hills Trails",
        "countryCode": "US",
        "subnational1Code": "US-NV",
        "subnational2Code": "US-NV-031",
        "lat": 39.4666797,
        "lng": -119.7536172,
        "latestObsDt": "2024-02-25 11:00",
        "numSpeciesAllTime": 64
    },
    {
        "locId": "L4952073",
        "locName": "Humboldt Area River Project (HARP) Path",
        "countryCode": "US",
        "subnational1Code": "US-NV",
        "subnational2Code": "US-NV-007",
        "lat": 40.828275,
        "lng": -115.7586236,
        "latestObsDt": "2024-02-23 09:28",
        "numSpeciesAllTime": 83
    },
    {
        "locId": "L9329097",
        "locName": "Humboldt Gravel Pit Ponds (PRIVATE)",
        "countryCode": "US",
        "subnational1Code": "US-NV",
        "subnational2Code": "US-NV-007",
        "lat": 40.9488758,
        "lng": -115.5408448,
        "latestObsDt": "2023-05-26 10:45",
        "numSpeciesAllTime": 46
    },
    {
        "locId": "L1646649",
        "locName": "Humboldt River Gravel Pits and Ponds",
        "countryCode": "US",
        "subnational1Code": "US-NV",
        "subnational2Code": "US-NV-007",
        "lat": 40.8488196,
        "lng": -115.7317886,
        "latestObsDt": "2023-11-22 06:52",
        "numSpeciesAllTime": 133
    },
    {
        "locId": "L3967167",
        "locName": "Humboldt River--Hwy 35 bridge near Battle Mountain",
        "countryCode": "US",
        "subnational1Code": "US-NV",
        "subnational2Code": "US-NV-015",
        "lat": 40.6680093,
        "lng": -116.9312668,
        "latestObsDt": "2023-09-28 17:25",
        "numSpeciesAllTime": 80
    },
    {
        "locId": "L6095151",
        "locName": "Humboldt WMA (Churchill Co.)",
        "countryCode": "US",
        "subnational1Code": "US-NV",
        "subnational2Code": "US-NV-001",
        "lat": 39.9599833,
        "lng": -118.6390574,
        "latestObsDt": "2023-08-13 06:01",
        "numSpeciesAllTime": 52
    },
    {
        "locId": "L3036683",
        "locName": "Humboldt WMA (Pershing Co.)",
        "countryCode": "US",
        "subnational1Code": "US-NV",
        "subnational2Code": "US-NV-027",
        "lat": 40.0434136,
        "lng": -118.5946763,
        "latestObsDt": "2023-10-18 13:31",
        "numSpeciesAllTime": 123
    },
    {
        "locId": "L3688489",
        "locName": "Hunter Creek Trail",
        "countryCode": "US",
        "subnational1Code": "US-NV",
        "subnational2Code": "US-NV-031",
        "lat": 39.4805019,
        "lng": -119.9065447,
        "latestObsDt": "2024-02-25 06:53",
        "numSpeciesAllTime": 116
    },
    {
        "locId": "L3317302",
        "locName": "Hunter Creek Trail--Lower Section",
        "countryCode": "US",
        "subnational1Code": "US-NV",
        "subnational2Code": "US-NV-031",
        "lat": 39.4912001,
        "lng": -119.8992866,
        "latestObsDt": "2023-06-29 19:14",
        "numSpeciesAllTime": 100
    },
    {
        "locId": "L4850144",
        "locName": "Huntoon Spring",
        "countryCode": "US",
        "subnational1Code": "US-NV",
        "subnational2Code": "US-NV-021",
        "lat": 38.0759333,
        "lng": -118.5886359,
        "latestObsDt": "1995-07-22 12:00",
        "numSpeciesAllTime": 27
    },
    {
        "locId": "L345149",
        "locName": "Idlewild Park",
        "countryCode": "US",
        "subnational1Code": "US-NV",
        "subnational2Code": "US-NV-031",
        "lat": 39.5208387,
        "lng": -119.831905,
        "latestObsDt": "2024-02-26 09:36",
        "numSpeciesAllTime": 163
    },
    {
        "locId": "L268347",
        "locName": "Illipah Reservoir",
        "countryCode": "US",
        "subnational1Code": "US-NV",
        "subnational2Code": "US-NV-033",
        "lat": 39.335332,
        "lng": -115.3878123,
        "latestObsDt": "2024-02-25 07:25",
        "numSpeciesAllTime": 88
    },
    {
        "locId": "L9994295",
        "locName": "Incline Creek (lower Tyrolean Downhill trail)",
        "countryCode": "US",
        "subnational1Code": "US-NV",
        "subnational2Code": "US-NV-031",
        "lat": 39.2634134,
        "lng": -119.917183,
        "latestObsDt": "2023-12-27 14:03",
        "numSpeciesAllTime": 44
    },
    {
        "locId": "L15693708",
        "locName": "Incline Flume Trail--upper Incline Creek area",
        "countryCode": "US",
        "subnational1Code": "US-NV",
        "subnational2Code": "US-NV-031",
        "lat": 39.2689263,
        "lng": -119.9266715,
        "latestObsDt": "2023-10-12 15:14",
        "numSpeciesAllTime": 55
    },
    {
        "locId": "L27014202",
        "locName": "Incline Lake Road/Trail",
        "countryCode": "US",
        "subnational1Code": "US-NV",
        "subnational2Code": "US-NV-031",
        "lat": 39.2985257,
        "lng": -119.9278678,
        "latestObsDt": "2023-09-09 13:21",
        "numSpeciesAllTime": 14
    },
    {
        "locId": "L7705902",
        "locName": "Incline Park",
        "countryCode": "US",
        "subnational1Code": "US-NV",
        "subnational2Code": "US-NV-031",
        "lat": 39.2476167,
        "lng": -119.9466059,
        "latestObsDt": "2024-01-29 12:30",
        "numSpeciesAllTime": 48
    },
    {
        "locId": "L594400",
        "locName": "Indian Hills Wetlands",
        "countryCode": "US",
        "subnational1Code": "US-NV",
        "subnational2Code": "US-NV-005",
        "lat": 39.0677803,
        "lng": -119.7467279,
        "latestObsDt": "2023-09-09 18:30",
        "numSpeciesAllTime": 129
    },